Time,AHR2_Roll,AHR2_Pitch,AHR2_Yaw,AHR2_Alt,AHR2_Lat,AHR2_Lng,AHR2_Q1,AHR2_Q2,AHR2_Q3,AHR2_Q4
 119789565, 0.1, 0.09, 0.22, 558.04, 33.6216408, 72.955685, 0.9999973, 0.0008777234, 0.0007923302, 0.00200279
 119889525, 0.1, 0.09, 0.22, 558.04, 33.6216408, 72.955685, 0.9999973, 0.0008778988, 0.0007961857, 0.002003882
 119989485, 0.1, 0.09, 0.22, 558.04, 33.6216408, 72.955685, 0.9999973, 0.0008812873, 0.0008002019, 0.002005352
 120089445, 0.1, 0.09, 0.22, 558.04, 33.6216408, 72.955685, 0.9999973, 0.0008827266, 0.0008027958, 0.002005292
 120189405, 0.1, 0.09, 0.22, 558.04, 33.6216408, 72.955685, 0.9999973, 0.0008873094, 0.000804716, 0.002006241
 120289365, 0.1, 0.09, 0.23, 558.04, 33.6216408, 72.955685, 0.9999973, 0.0008904702, 0.0008054478, 0.002007568
 120389325, 0.1, 0.09, 0.23, 558.04, 33.6216408, 72.955685, 0.9999973, 0.0008929061, 0.0008078325, 0.002008514
 120489285, 0.1, 0.09, 0.23, 558.04, 33.6216408, 72.955685, 0.9999973, 0.0008965047, 0.0008092446, 0.002008221
 120589245, 0.1, 0.09, 0.23, 558.04, 33.6216408, 72.955685, 0.9999973, 0.0008996866, 0.0008104157, 0.002010345
 120689205, 0.1, 0.09, 0.23, 558.04, 33.6216408, 72.955685, 0.9999972, 0.0009019749, 0.0008133712, 0.00201282
 120789165, 0.1, 0.09, 0.23, 558.04, 33.6216408, 72.955685, 0.9999973, 0.0009027778, 0.0008136508, 0.002012969
 120889125, 0.1, 0.09, 0.23, 558.04, 33.6216408, 72.955685, 0.9999972, 0.0009056735, 0.0008143663, 0.00201559
 120989085, 0.1, 0.09, 0.23, 558.04, 33.6216408, 72.955685, 0.9999972, 0.0009055808, 0.0008148195, 0.00201632
 121089045, 0.1, 0.09, 0.23, 558.04, 33.6216408, 72.955685, 0.9999972, 0.0009086129, 0.0008155951, 0.002017943
 121189005, 0.1, 0.09, 0.23, 558.04, 33.6216408, 72.955685, 0.9999972, 0.0009100051, 0.0008148369, 0.002019939
 121288965, 0.1, 0.09, 0.23, 558.04, 33.6216408, 72.955685, 0.9999972, 0.0009059919, 0.0008121359, 0.00202018
 121388925, 0.1, 0.09, 0.23, 558.04, 33.6216408, 72.955685, 0.9999972, 0.0009032711, 0.0008123964, 0.002016217
 121488885, 0.1, 0.09, 0.23, 558.04, 33.6216408, 72.955685, 0.9999972, 0.0009016374, 0.0008108336, 0.002013458
 121588845, 0.1, 0.09, 0.23, 558.04, 33.6216408, 72.955685, 0.9999973, 0.0008945386, 0.0008076404, 0.002010001
 121688805, 0.1, 0.09, 0.23, 558.04, 33.6216408, 72.955685, 0.9999973, 0.0008922068, 0.0008074873, 0.002007267
 121788765, 0.1, 0.09, 0.22, 558.04, 33.6216408, 72.955685, 0.9999973, 0.0008906214, 0.0008079244, 0.00200108
 121889558, 0.1, 0.09, 0.22, 558.04, 33.6216408, 72.955685, 0.9999973, 0.0008860511, 0.0008047711, 0.002001151
 121989518, 0.1, 0.09, 0.22, 558.04, 33.6216408, 72.955685, 0.9999973, 0.000885002, 0.0008040355, 0.001996695
 122089478, 0.1, 0.09, 0.22, 558.04, 33.6216408, 72.955685, 0.9999973, 0.0008855708, 0.0008010344, 0.001995471
 122189438, 0.1, 0.09, 0.22, 558.04, 33.6216408, 72.955685, 0.9999973, 0.0008858169, 0.00079912, 0.00199195
 122289398, 0.1, 0.09, 0.22, 558.04, 33.6216408, 72.955685, 0.9999973, 0.0008851151, 0.0007981569, 0.001986597
 122389358, 0.1, 0.09, 0.22, 558.04, 33.6216408, 72.955685, 0.9999973, 0.0008854832, 0.0007986725, 0.001985615
 122489318, 0.1, 0.09, 0.22, 558.04, 33.6216408, 72.955685, 0.9999973, 0.0008844426, 0.0007946664, 0.001980653
 122589278, 0.1, 0.09, 0.22, 558.04, 33.6216408, 72.955685, 0.9999974, 0.0008832627, 0.0007922124, 0.001976529
 122689238, 0.1, 0.09, 0.22, 558.04, 33.6216408, 72.955685, 0.9999974, 0.0008833603, 0.0007915091, 0.001976788
 122789198, 0.1, 0.09, 0.22, 558.04, 33.6216408, 72.955685, 0.9999974, 0.0008826627, 0.0007913299, 0.001976736
 122889158, 0.1, 0.09, 0.22, 558.04, 33.6216408, 72.955685, 0.9999974, 0.0008805275, 0.0007925675, 0.001977696
 122989118, 0.1, 0.09, 0.22, 558.04, 33.6216408, 72.955685, 0.9999974, 0.0008802097, 0.0007901014, 0.001975331
 123089078, 0.1, 0.09, 0.22, 558.04, 33.6216408, 72.955685, 0.9999974, 0.0008808012, 0.0007902246, 0.001972076
 123189038, 0.1, 0.09, 0.22, 558.04, 33.6216408, 72.955685, 0.9999974, 0.0008781007, 0.0007901907, 0.001970071
 123288998, 0.1, 0.09, 0.22, 558.04, 33.6216408, 72.955685, 0.9999974, 0.0008774506, 0.0007941223, 0.001966886
 123388958, 0.1, 0.09, 0.22, 558.04, 33.6216408, 72.955685, 0.9999974, 0.0008760628, 0.0007944047, 0.001963332
 123488918, 0.1, 0.09, 0.22, 558.04, 33.6216408, 72.955685, 0.9999974, 0.0008769805, 0.0007932958, 0.001964322
 123588878, 0.1, 0.09, 0.22, 558.04, 33.6216408, 72.955685, 0.9999974, 0.0008758467, 0.0007957604, 0.001964897
 123688838, 0.1, 0.09, 0.22, 558.04, 33.6216408, 72.955685, 0.9999974, 0.0008787435, 0.0007922178, 0.001962987
 123788798, 0.1, 0.09, 0.22, 558.04, 33.6216408, 72.955685, 0.9999974, 0.0008803022, 0.0007950722, 0.001961736
 123888758, 0.1, 0.09, 0.22, 558.04, 33.6216408, 72.955685, 0.9999974, 0.0008846076, 0.0007965612, 0.001959867
 123989551, 0.1, 0.09, 0.22, 558.04, 33.6216408, 72.955685, 0.9999974, 0.0008853107, 0.0007956237, 0.001962099
 124089511, 0.1, 0.09, 0.22, 558.04, 33.6216408, 72.955685, 0.9999974, 0.0008846113, 0.0007952561, 0.001962496
 124189471, 0.1, 0.09, 0.22, 558.04, 33.6216408, 72.955685, 0.9999974, 0.000881118, 0.0007959583, 0.001964969
 124289431, 0.1, 0.09, 0.22, 558.04, 33.6216408, 72.955685, 0.9999974, 0.0008795522, 0.0007959049, 0.001963683
 124389391, 0.1, 0.09, 0.22, 558.04, 33.6216408, 72.955685, 0.9999974, 0.0008793083, 0.000794929, 0.001961965
 124489351, 0.1, 0.09, 0.22, 558.04, 33.6216408, 72.955685, 0.9999974, 0.0008812606, 0.000795156, 0.001960993
 124589311, 0.1, 0.09, 0.22, 558.04, 33.6216408, 72.955685, 0.9999974, 0.0008831066, 0.0007976199, 0.001960885
 124689271, 0.1, 0.09, 0.22, 558.04, 33.6216408, 72.955685, 0.9999974, 0.0008837278, 0.0007981469, 0.001962311
 124789231, 0.1, 0.09, 0.22, 558.04, 33.6216408, 72.955685, 0.9999974, 0.0008852003, 0.0008005947, 0.001961728
 124889191, 0.1, 0.09, 0.22, 558.04, 33.6216408, 72.955685, 0.9999974, 0.000886891, 0.0007979422, 0.001959328
 124989151, 0.1, 0.09, 0.22, 558.04, 33.6216408, 72.955685, 0.9999974, 0.0008864043, 0.0007971841, 0.001959354
 125089111, 0.1, 0.09, 0.22, 558.04, 33.6216408, 72.955685, 0.9999974, 0.0008861096, 0.0007995974, 0.001959027
 125189071, 0.1, 0.09, 0.22, 558.05, 33.6216408, 72.955685, 0.9999974, 0.0008880706, 0.0008005006, 0.001960523
 125289031, 0.1, 0.09, 0.22, 558.05, 33.6216408, 72.955685, 0.9999974, 0.0008885284, 0.0008037765, 0.001960829
 125388991, 0.1, 0.09, 0.22, 558.08, 33.6216408, 72.955685, 0.9999974, 0.0008884735, 0.0008044948, 0.001960602
 125488951, 0.1, 0.09, 0.22, 558.11, 33.6216408, 72.955685, 0.9999973, 0.0008868867, 0.0008070629, 0.001962939
 125588911, 0.06, 0.05, 0.22, 558.17, 33.6216408, 72.955685, 0.9999978, 0.0005843574, 0.0005168293, 0.001964032
 125688871, -0.13, -0.13, 0.22, 558.26, 33.6216408, 72.955685, 0.9999967, -0.001189844, -0.001189317, 0.001956462
 125788831, -0.25, -0.25, 0.22, 558.41, 33.6216408, 72.955685, 0.9999932, -0.002243217, -0.002203593, 0.001926583
 125888791, -0.27, -0.26, 0.21, 558.59, 33.6216408, 72.955685, 0.9999927, -0.002373595, -0.002303427, 0.001897438
 125988751, -0.22, -0.21, 0.21, 558.78, 33.6216408, 72.955685, 0.9999946, -0.00194205, -0.001856174, 0.001866482
 126089544, -0.14, -0.14, 0.21, 558.98, 33.6216408, 72.955685, 0.9999967, -0.001280832, -0.001236115, 0.001834377
 126189504, -0.06, -0.07, 0.2, 559.2, 33.6216408, 72.955685, 0.999998, -0.000602757, -0.0006325337, 0.001801078
 126289464, 0, -0.01, 0.2, 559.41, 33.6216408, 72.955685, 0.9999985, -2.228858E-05, -8.906347E-05, 0.001759352
 126389424, 0.03, 0.03, 0.19, 559.64, 33.6216408, 72.955685, 0.9999985, 0.0003417131, 0.0002856864, 0.001713158
 126489384, 0.07, 0.06, 0.19, 559.88, 33.6216409, 72.9556849, 0.9999982, 0.0006708303, 0.0006085939, 0.001665037
 126589344, 0.11, 0.1, 0.18, 560.13, 33.6216409, 72.9556848, 0.9999978, 0.0009893527, 0.0009092032, 0.001616594
 126689304, 0.14, 0.12, 0.18, 560.38, 33.6216409, 72.9556848, 0.9999974, 0.001271151, 0.001067176, 0.00157456
 126789264, 0.16, 0.13, 0.17, 560.64, 33.6216409, 72.9556847, 0.999997, 0.001470472, 0.001202549, 0.001535739
 126889224, 0.18, 0.15, 0.17, 560.92, 33.621641, 72.9556848, 0.9999966, 0.001580365, 0.001394038, 0.00151061
 126989184, 0.19, 0.17, 0.17, 561.19, 33.621641, 72.9556848, 0.9999962, 0.00170762, 0.001548982, 0.001489756
 127089144, 0.2, 0.19, 0.16, 561.47, 33.6216411, 72.9556847, 0.9999958, 0.001803414, 0.00170359, 0.00147414
 127189104, 0.21, 0.21, 0.16, 561.74, 33.6216411, 72.9556847, 0.9999955, 0.001882084, 0.001848389, 0.001462982
 127289064, 0.22, 0.21, 0.16, 562.03, 33.6216411, 72.9556846, 0.9999952, 0.001924582, 0.00191167, 0.001454416
 127389024, 0.21, 0.21, 0.16, 562.3, 33.6216411, 72.9556846, 0.9999953, 0.001916819, 0.001904968, 0.001445149
 127488984, 0.21, 0.21, 0.16, 562.57, 33.6216412, 72.9556846, 0.9999954, 0.001901965, 0.001901392, 0.001430969
 127588944, 0.22, 0.22, 0.16, 562.85, 33.6216412, 72.9556846, 0.9999952, 0.001939024, 0.001943228, 0.001414247
 127688904, 0.21, 0.21, 0.16, 563.11, 33.6216412, 72.9556846, 0.9999954, 0.001899714, 0.001908799, 0.00139753
 127788864, 0.21, 0.21, 0.15, 563.38, 33.6216412, 72.9556846, 0.9999955, 0.001862996, 0.001876587, 0.001380678
 127888824, 0.2, 0.21, 0.15, 563.64, 33.6216412, 72.9556846, 0.9999957, 0.001829673, 0.001845144, 0.001362599
 127988784, 0.2, 0.2, 0.15, 563.9, 33.6216412, 72.9556846, 0.9999959, 0.001761971, 0.001791686, 0.001341889
 128088744, 0.19, 0.19, 0.15, 564.16, 33.6216412, 72.9556846, 0.9999963, 0.001669138, 0.001674426, 0.001314208
 128189537, 0.18, 0.18, 0.14, 564.42, 33.6216412, 72.9556846, 0.9999965, 0.001611277, 0.001635665, 0.001283474
 128289497, 0.18, 0.17, 0.14, 564.67, 33.6216412, 72.9556846, 0.9999968, 0.001585851, 0.001535771, 0.001258886
 128389457, 0.17, 0.17, 0.14, 564.92, 33.6216412, 72.9556846, 0.9999968, 0.001541925, 0.001563014, 0.001226124
 128489417, 0.17, 0.17, 0.13, 565.19, 33.6216412, 72.9556846, 0.999997, 0.00152736, 0.001551997, 0.001187555
 128589377, 0.16, 0.17, 0.13, 565.44, 33.6216412, 72.9556846, 0.9999972, 0.001394728, 0.001529248, 0.001157991
 128689337, 0.14, 0.16, 0.13, 565.69, 33.6216412, 72.9556846, 0.9999976, 0.001250361, 0.001431508, 0.001140081
 128789297, 0.14, 0.15, 0.12, 565.94, 33.6216412, 72.9556846, 0.9999977, 0.001223011, 0.001392161, 0.001123973
 128889257, 0.14, 0.16, 0.12, 566.19, 33.6216412, 72.9556846, 0.9999976, 0.00127511, 0.00140765, 0.001112089
 128989217, 0.15, 0.17, 0.12, 566.43, 33.6216412, 72.9556846, 0.9999973, 0.001377363, 0.001504528, 0.001102445
 129089177, 0.16, 0.18, 0.12, 566.68, 33.6216412, 72.9556846, 0.999997, 0.001474801, 0.001597726, 0.001096298
 129189137, 0.14, 0.15, 0.12, 566.93, 33.6216412, 72.9556846, 0.9999976, 0.001295219, 0.001366409, 0.001087619
 129289097, 0.12, 0.13, 0.12, 567.19, 33.6216412, 72.9556846, 0.9999981, 0.001123368, 0.00116669, 0.00107896
 129389057, 0.11, 0.12, 0.12, 567.44, 33.6216412, 72.9556846, 0.9999983, 0.001033487, 0.001096076, 0.00106747
 129489017, 0.11, 0.11, 0.12, 567.69, 33.6216412, 72.9556846, 0.9999985, 0.0009792835, 0.001023235, 0.001056322
 129588977, 0.1, 0.11, 0.11, 567.94, 33.6216412, 72.9556846, 0.9999985, 0.0009419605, 0.0009733519, 0.001038747
 129688937, 0.11, 0.11, 0.11, 568.2, 33.6216412, 72.9556846, 0.9999985, 0.0009915075, 0.0009839976, 0.00101372
 129788897, 0.12, 0.11, 0.11, 568.45, 33.6216412, 72.9556846, 0.9999985, 0.001062555, 0.0009790837, 0.0009844581
 129888857, 0.12, 0.1, 0.1, 568.7, 33.6216411, 72.9556846, 0.9999986, 0.001050065, 0.0009071991, 0.0009570818
 129988817, 0.11, 0.09, 0.1, 568.95, 33.6216411, 72.9556846, 0.9999986, 0.001038215, 0.000856924, 0.0009394356
 130088777, 0.12, 0.08, 0.1, 569.2, 33.6216411, 72.9556846, 0.9999987, 0.001047572, 0.0007213682, 0.0009217592
 130188737, 0.12, 0.07, 0.1, 569.45, 33.6216411, 72.9556846, 0.9999988, 0.001071592, 0.0006569535, 0.0009037365
 130289530, 0.12, 0.07, 0.1, 569.69, 33.6216411, 72.9556846, 0.9999988, 0.001094179, 0.0006662644, 0.0008841719
 130389490, 0.12, 0.07, 0.09, 569.94, 33.6216411, 72.9556846, 0.9999988, 0.001116924, 0.00067254, 0.0008628323
 130489450, 0.13, 0.07, 0.09, 570.19, 33.6216411, 72.9556846, 0.9999988, 0.001137746, 0.000673053, 0.0008419427
 130589410, 0.12, 0.07, 0.09, 570.45, 33.6216411, 72.9556846, 0.9999988, 0.001112195, 0.0006712285, 0.0008185041
 130689370, 0.11, 0.07, 0.08, 570.7, 33.621641, 72.9556846, 0.999999, 0.0009997372, 0.0006695426, 0.0007593302
 130789330, 0.11, 0.07, 0.07, 570.95, 33.621641, 72.9556846, 0.999999, 0.0009748971, 0.0006766626, 0.0006752163
 130889290, 0.1, 0.07, 0.06, 571.19, 33.6216409, 72.9556847, 0.9999991, 0.0009548992, 0.0006815785, 0.0005931862
 130989250, 0.1, 0.07, 0.05, 571.45, 33.6216409, 72.9556847, 0.9999993, 0.0008850005, 0.000618556, 0.0005091287
 131089210, 0.08, 0.05, 0.05, 571.7, 33.6216409, 72.9556848, 0.9999995, 0.0007451925, 0.0004376146, 0.0004462287
 131189170, 0.07, 0.03, 0.04, 571.95, 33.6216409, 72.9556848, 0.9999996, 0.0006280593, 0.0003290741, 0.0004134116
 131289130, 0.06, 0.02, 0.04, 572.2, 33.6216409, 72.9556848, 0.9999997, 0.0005560747, 0.0002398653, 0.0003931165
 131389090, 0.05, 0.01, 0.04, 572.44, 33.6216409, 72.9556848, 0.9999998, 0.0005020368, 0.000162864, 0.0003923725
 131489050, 0.04, 0.01, 0.04, 572.69, 33.6216409, 72.9556848, 0.9999998, 0.0004128253, 0.0001145836, 0.0004138022
 131589010, 0.04, 0, 0.05, 572.94, 33.6216409, 72.9556848, 0.9999998, 0.0003993275, 6.269861E-05, 0.0004574532
 131688970, 0.04, 0, 0.05, 573.19, 33.6216409, 72.9556849, 0.9999998, 0.0003553401, 7.82537E-05, 0.0005002226
 131788930, 0.04, 0.02, 0.06, 573.45, 33.6216409, 72.9556849, 0.9999998, 0.0003633427, 0.0002102081, 0.0005362607
 131888890, 0.04, 0.02, 0.06, 573.7, 33.6216408, 72.9556849, 0.9999998, 0.0003850364, 0.000199144, 0.000565399
 131988850, 0.03, 0.02, 0.06, 573.96, 33.6216408, 72.9556849, 0.9999998, 0.0003443827, 0.0002392421, 0.0005749721
 132088810, 0.03, 0.02, 0.06, 574.21, 33.6216408, 72.9556849, 0.9999998, 0.0003074197, 0.0002189514, 0.0005675176
 132188770, 0.04, 0.02, 0.06, 574.47, 33.6216408, 72.9556849, 0.9999997, 0.000426629, 0.0002151449, 0.0005539277
 132289563, 0.04, 0.02, 0.05, 574.72, 33.6216408, 72.9556849, 0.9999997, 0.0004084191, 0.0002598839, 0.0005187138
 132389523, 0.03, 0.03, 0.05, 574.98, 33.6216408, 72.9556849, 0.9999998, 0.0003324575, 0.0003030284, 0.0004566775
 132489483, 0.03, 0.03, 0.04, 575.23, 33.6216408, 72.9556849, 0.9999998, 0.0003206758, 0.000346968, 0.0003841752
 132589443, 0.04, 0.03, 0.03, 575.49, 33.6216408, 72.9556849, 0.9999998, 0.0003598251, 0.0003276447, 0.0002880458
 132689403, 0.05, 0.04, 0.02, 575.74, 33.6216408, 72.9556849, 0.9999998, 0.0004382566, 0.0003611287, 0.0001879407
 132789363, 0.05, 0.04, 0.01, 575.99, 33.6216408, 72.9556849, 0.9999998, 0.0004942887, 0.000365691, 9.05101E-05
 132889323, 0.05, 0.04, 359.99, 576.24, 33.6216408, 72.9556849, 0.9999998, 0.0005125998, 0.0003742277, -1.311807E-06
 132989283, 0.05, 0.04, 359.99, 576.49, 33.6216408, 72.9556849, 0.9999998, 0.0005061897, 0.0003568029, -8.060123E-05
 133089243, 0.05, 0.04, 359.98, 576.74, 33.6216408, 72.9556849, 0.9999998, 0.0005013476, 0.0003717121, -0.0001333696
 133189203, 0.07, 0.04, 359.98, 576.99, 33.6216408, 72.9556849, 0.9999997, 0.0006162654, 0.0003807404, -0.0001600568
 133289163, 0.08, 0.04, 359.97, 577.24, 33.6216408, 72.9556849, 0.9999996, 0.0007169495, 0.0003715473, -0.0001793981
 133389123, 0.09, 0.04, 359.97, 577.5, 33.6216408, 72.9556849, 0.9999996, 0.0008086043, 0.000408491, -0.0001910828
 133489083, 0.09, 0.05, 359.97, 577.75, 33.6216408, 72.9556849, 0.9999995, 0.00083917, 0.0004458991, -0.000199925
 133589043, 0.07, 0.05, 359.97, 578, 33.6216408, 72.9556849, 0.9999996, 0.0006567523, 0.0004758103, -0.0002009437
 133689003, 0.06, 0.05, 359.97, 578.25, 33.6216409, 72.9556849, 0.9999997, 0.0005576896, 0.0005130456, -0.0001958652
 133788963, 0.05, 0.06, 359.97, 578.51, 33.6216409, 72.9556849, 0.9999997, 0.0004961952, 0.0005652278, -0.000186247
 133888923, 0.05, 0.07, 359.98, 578.75, 33.6216409, 72.9556849, 0.9999997, 0.000469686, 0.0006415854, -0.0001728289
 133988883, 0.05, 0.07, 359.98, 579, 33.6216409, 72.9556849, 0.9999996, 0.0004601399, 0.0006841752, -0.0001442832
 134088843, 0.05, 0.07, 359.98, 579.25, 33.6216409, 72.9556849, 0.9999996, 0.0004606577, 0.0006809646, -0.0001280486
 134188803, 0.05, 0.08, 359.98, 579.5, 33.6216409, 72.9556849, 0.9999996, 0.000454751, 0.0007111923, -0.0001257039
 134288763, 0.05, 0.08, 359.98, 579.74, 33.6216409, 72.9556849, 0.9999996, 0.0005050581, 0.0007739153, -0.000138732
 134389556, 0.05, 0.09, 359.98, 579.99, 33.6216409, 72.9556849, 0.9999995, 0.0005202332, 0.0007954393, -0.0001606748
 134489516, 0.06, 0.09, 359.97, 580.25, 33.621641, 72.9556848, 0.9999995, 0.0005476599, 0.0008253823, -0.0001986144
 134589476, 0.06, 0.1, 359.96, 580.5, 33.621641, 72.9556848, 0.9999994, 0.0006001673, 0.0008786851, -0.0002628556
 134689436, 0.08, 0.11, 359.96, 580.75, 33.6216411, 72.9556848, 0.9999992, 0.0007100319, 0.0009678443, -0.0003310897
 134789396, 0.09, 0.12, 359.95, 580.99, 33.6216411, 72.9556848, 0.9999989, 0.0008572452, 0.001089839, -0.0004017883
 134889356, 0.09, 0.12, 359.94, 581.24, 33.6216411, 72.9556848, 0.9999989, 0.0008490238, 0.001090477, -0.0004794083
 134989316, 0.09, 0.12, 359.93, 581.49, 33.6216411, 72.9556848, 0.9999989, 0.0008619048, 0.001107387, -0.0005439427
 135089276, 0.1, 0.12, 359.93, 581.74, 33.6216411, 72.9556847, 0.9999988, 0.0008964095, 0.001099669, -0.0005863794
 135189236, 0.1, 0.12, 359.93, 581.98, 33.6216411, 72.9556847, 0.9999987, 0.0009393118, 0.00111668, -0.000607121
 135289196, 0.11, 0.12, 359.93, 582.24, 33.6216411, 72.9556846, 0.9999986, 0.001043854, 0.00113315, -0.0006039614
 135389156, 0.12, 0.13, 359.93, 582.49, 33.6216411, 72.9556846, 0.9999985, 0.001117484, 0.001171574, -0.0006016951
 135489116, 0.13, 0.13, 359.93, 582.73, 33.6216412, 72.9556846, 0.9999985, 0.001156733, 0.001187683, -0.0006007145
 135589076, 0.14, 0.14, 359.93, 582.98, 33.6216412, 72.9556846, 0.9999983, 0.001226769, 0.001250322, -0.0006091667
 135689036, 0.14, 0.14, 359.92, 583.22, 33.6216412, 72.9556846, 0.9999983, 0.0012234, 0.00122814, -0.0006229994
 135788996, 0.14, 0.13, 359.92, 583.47, 33.6216412, 72.9556846, 0.9999983, 0.001229587, 0.001211362, -0.000641491
 135888956, 0.14, 0.13, 359.92, 583.74, 33.6216412, 72.9556846, 0.9999983, 0.001231545, 0.001184459, -0.0006688026
 135988916, 0.13, 0.13, 359.92, 583.99, 33.6216412, 72.9556846, 0.9999983, 0.001211335, 0.001207975, -0.0006952891
 136088876, 0.13, 0.13, 359.91, 584.24, 33.6216412, 72.9556846, 0.9999984, 0.001137259, 0.001152272, -0.000730455
 136188836, 0.13, 0.13, 359.91, 584.5, 33.6216412, 72.9556846, 0.9999984, 0.001163634, 0.001155697, -0.0007714888
 136288796, 0.13, 0.13, 359.9, 584.75, 33.6216412, 72.9556846, 0.9999983, 0.001196848, 0.001151782, -0.0008115193
 136388756, 0.14, 0.13, 359.9, 585, 33.6216412, 72.9556846, 0.9999982, 0.001248586, 0.001166902, -0.0008512803
 136489549, 0.14, 0.13, 359.89, 585.26, 33.6216412, 72.9556846, 0.999998, 0.00129558, 0.00118483, -0.0008900845
 136589509, 0.13, 0.12, 359.89, 585.5, 33.6216412, 72.9556846, 0.9999982, 0.001201572, 0.001114168, -0.0009284953
 136689469, 0.11, 0.11, 359.88, 585.75, 33.6216412, 72.9556846, 0.9999985, 0.001038541, 0.001014482, -0.0009707541
 136789429, 0.1, 0.1, 359.88, 586.01, 33.6216412, 72.9556846, 0.9999986, 0.0009379979, 0.0009376385, -0.001010393
 136889389, 0.1, 0.1, 359.87, 586.25, 33.6216412, 72.9556846, 0.9999986, 0.0008980518, 0.0009071676, -0.001050546
 136989349, 0.09, 0.1, 359.87, 586.5, 33.6216412, 72.9556846, 0.9999986, 0.0008656908, 0.0008944367, -0.001086192
 137089309, 0.1, 0.1, 359.87, 586.74, 33.6216412, 72.9556846, 0.9999986, 0.0008895226, 0.0009270521, -0.001119817
 137189269, 0.1, 0.11, 359.86, 586.98, 33.6216412, 72.9556846, 0.9999985, 0.0009088487, 0.000968239, -0.001153882
 137289229, 0.1, 0.1, 359.86, 587.23, 33.6216412, 72.9556846, 0.9999985, 0.0008886504, 0.0009579429, -0.001180628
 137389189, 0.1, 0.11, 359.86, 587.48, 33.6216412, 72.9556846, 0.9999983, 0.0009579945, 0.0009894927, -0.001203347
 137489149, 0.11, 0.11, 359.85, 587.72, 33.6216412, 72.9556846, 0.9999982, 0.001007187, 0.001012516, -0.001229097
 137589109, 0.1, 0.11, 359.85, 587.97, 33.6216412, 72.9556846, 0.9999983, 0.0009427436, 0.0009794027, -0.001247506
 137689069, 0.09, 0.1, 359.85, 588.22, 33.6216412, 72.9556846, 0.9999984, 0.0008487959, 0.000911938, -0.001265874
 137789029, 0.09, 0.1, 359.85, 588.46, 33.6216412, 72.9556846, 0.9999985, 0.00078739, 0.0008836113, -0.001280309
 137888989, 0.08, 0.09, 359.85, 588.71, 33.6216412, 72.9556846, 0.9999985, 0.0007765364, 0.0008655497, -0.001294925
 137988949, 0.08, 0.1, 359.85, 588.96, 33.6216412, 72.9556846, 0.9999985, 0.0007780337, 0.0008822996, -0.001309455
 138088909, 0.09, 0.1, 359.84, 589.2, 33.6216412, 72.9556846, 0.9999984, 0.0008141411, 0.0008850486, -0.001324334
 138188869, 0.09, 0.1, 359.84, 589.45, 33.6216412, 72.9556846, 0.9999983, 0.000856054, 0.000915829, -0.001340718
 138288829, 0.09, 0.1, 359.84, 589.71, 33.6216412, 72.9556846, 0.9999983, 0.0008402625, 0.0009145942, -0.001360059
 138388789, 0.09, 0.1, 359.84, 589.95, 33.6216412, 72.9556846, 0.9999983, 0.0008390397, 0.0009122457, -0.001381154
 138488749, 0.09, 0.1, 359.83, 590.2, 33.6216412, 72.9556846, 0.9999982, 0.0008526249, 0.0009425099, -0.001409617
 138589542, 0.09, 0.1, 359.83, 590.45, 33.6216412, 72.9556846, 0.9999982, 0.0008670095, 0.0009393841, -0.001434609
 138689502, 0.09, 0.1, 359.83, 590.69, 33.6216412, 72.9556846, 0.9999982, 0.0008473247, 0.0008956674, -0.001453048
 138789462, 0.1, 0.1, 359.83, 590.95, 33.6216412, 72.9556846, 0.9999981, 0.0008992926, 0.0009073364, -0.001466326
 138889422, 0.09, 0.09, 359.82, 591.2, 33.6216412, 72.9556846, 0.9999982, 0.0008269795, 0.0008598574, -0.001488527
 138989382, 0.09, 0.09, 359.82, 591.45, 33.6216412, 72.9556846, 0.9999982, 0.0008683139, 0.0008126524, -0.001508739
 139089342, 0.1, 0.09, 359.82, 591.69, 33.6216412, 72.9556846, 0.9999981, 0.0009063749, 0.0008005369, -0.001524737
 139189302, 0.1, 0.09, 359.82, 591.94, 33.6216412, 72.9556846, 0.999998, 0.0009415514, 0.0008540523, -0.001540373
 139289262, 0.1, 0.1, 359.82, 592.19, 33.6216412, 72.9556846, 0.9999979, 0.0009555051, 0.0009319414, -0.001559181
 139389222, 0.11, 0.11, 359.81, 592.44, 33.6216412, 72.9556846, 0.9999977, 0.0009894372, 0.0009860256, -0.001583195
 139489182, 0.11, 0.11, 359.81, 592.68, 33.6216411, 72.9556846, 0.9999977, 0.0009826871, 0.0009803838, -0.001610914
 139589142, 0.11, 0.1, 359.81, 592.94, 33.6216411, 72.9556846, 0.9999977, 0.0009688981, 0.0009401707, -0.001641231
 139689102, 0.1, 0.1, 359.8, 593.19, 33.6216411, 72.9556846, 0.9999977, 0.0009324958, 0.0008723796, -0.001687023
 139789062, 0.1, 0.09, 359.8, 593.44, 33.6216411, 72.9556846, 0.9999977, 0.0008942928, 0.0008189373, -0.001743223
 139889022, 0.1, 0.09, 359.79, 593.68, 33.6216411, 72.9556846, 0.9999976, 0.0009166955, 0.0007938039, -0.001793152
 139988982, 0.11, 0.08, 359.79, 593.93, 33.6216411, 72.9556846, 0.9999976, 0.001004239, 0.0007628563, -0.001828056
 140088942, 0.11, 0.08, 359.78, 594.18, 33.6216411, 72.9556846, 0.9999975, 0.0009976645, 0.0007451905, -0.001856768
 140188902, 0.11, 0.08, 359.78, 594.44, 33.6216411, 72.9556846, 0.9999976, 0.0009843592, 0.0007102624, -0.00184761
 140288862, 0.11, 0.07, 359.79, 594.68, 33.6216411, 72.9556846, 0.9999977, 0.0009757092, 0.000660293, -0.001807046
 140388822, 0.11, 0.07, 359.79, 594.93, 33.6216411, 72.9556846, 0.9999977, 0.0009935597, 0.0006545393, -0.001754718
 140488782, 0.11, 0.07, 359.8, 595.18, 33.6216411, 72.9556846, 0.9999979, 0.0009774828, 0.0006190172, -0.001719525
 140588742, 0.1, 0.06, 359.8, 595.42, 33.6216411, 72.9556846, 0.999998, 0.000917571, 0.0005859302, -0.001702979
 140689535, 0.1, 0.07, 359.8, 595.67, 33.6216411, 72.9556846, 0.9999979, 0.0009457463, 0.0006432569, -0.001686972
 140789495, 0.11, 0.08, 359.8, 595.92, 33.6216411, 72.9556846, 0.9999979, 0.0009690227, 0.0007149542, -0.001684579
 140889455, 0.1, 0.08, 359.8, 596.17, 33.6216411, 72.9556846, 0.9999979, 0.0009293039, 0.0007157043, -0.001698646
 140989415, 0.1, 0.09, 359.8, 596.42, 33.6216411, 72.9556846, 0.9999977, 0.000938336, 0.000852211, -0.001719673
 141089375, 0.1, 0.09, 359.8, 596.67, 33.6216411, 72.9556846, 0.9999977, 0.0009569156, 0.0008075777, -0.001745929
 141189335, 0.1, 0.08, 359.79, 596.91, 33.6216411, 72.9556846, 0.9999977, 0.0009519704, 0.0007690989, -0.00177747
 141289295, 0.1, 0.08, 359.79, 597.16, 33.6216411, 72.9556846, 0.9999977, 0.0008931898, 0.0007261297, -0.001809005
 141389255, 0.09, 0.07, 359.78, 597.42, 33.6216411, 72.9556846, 0.9999977, 0.0008362895, 0.0006865284, -0.001840274
 141489215, 0.09, 0.08, 359.78, 597.66, 33.6216411, 72.9556846, 0.9999976, 0.0008467431, 0.000726136, -0.001873026
 141589175, 0.11, 0.1, 359.78, 597.91, 33.6216411, 72.9556846, 0.9999973, 0.000976089, 0.0008782556, -0.001905624
 141689135, 0.11, 0.1, 359.77, 598.16, 33.6216411, 72.9556846, 0.9999971, 0.00102075, 0.0009426569, -0.001934471
 141789095, 0.12, 0.11, 359.77, 598.4, 33.6216411, 72.9556846, 0.9999971, 0.001075418, 0.0009852261, -0.001942999
 141889055, 0.12, 0.1, 359.77, 598.65, 33.621641, 72.9556846, 0.9999971, 0.001057146, 0.0009330743, -0.001946437
 141989015, 0.11, 0.1, 359.77, 598.91, 33.621641, 72.9556846, 0.9999971, 0.001040409, 0.0009038247, -0.001945976
 142088975, 0.11, 0.08, 359.77, 599.15, 33.6216409, 72.9556846, 0.9999973, 0.001028245, 0.0007779033, -0.001945275
 142188935, 0.12, 0.07, 359.77, 599.4, 33.6216409, 72.9556846, 0.9999973, 0.001049972, 0.0006483704, -0.001942676
 142288895, 0.11, 0.06, 359.77, 599.65, 33.6216409, 72.9556846, 0.9999974, 0.0009836454, 0.0005849219, -0.001955412
 142388855, 0.11, 0.06, 359.77, 599.9, 33.6216409, 72.9556846, 0.9999974, 0.0009638309, 0.0005236355, -0.00198934
 142488815, 0.1, 0.04, 359.76, 600.14, 33.6216409, 72.9556846, 0.9999974, 0.0009242127, 0.0004072428, -0.002023099
 142588775, 0.1, 0.04, 359.76, 600.39, 33.6216409, 72.9556846, 0.9999974, 0.0009527804, 0.0003915669, -0.002055557
 142688735, 0.1, 0.03, 359.76, 600.64, 33.6216409, 72.9556846, 0.9999973, 0.000934964, 0.0003436964, -0.002083662
 142789528, 0.1, 0.03, 359.75, 600.9, 33.6216409, 72.9556846, 0.9999973, 0.0009299843, 0.000323157, -0.002099081
 142889488, 0.1, 0.04, 359.76, 601.14, 33.6216409, 72.9556846, 0.9999973, 0.0009584154, 0.0003490618, -0.002092567
 142989448, 0.1, 0.04, 359.76, 601.39, 33.6216409, 72.9556846, 0.9999973, 0.0009275848, 0.0003738368, -0.002084543
 143089408, 0.11, 0.04, 359.76, 601.65, 33.6216409, 72.9556846, 0.9999973, 0.0009779108, 0.0003643854, -0.002071543
 143189368, 0.11, 0.03, 359.76, 601.89, 33.6216409, 72.9556846, 0.9999973, 0.00097629, 0.0003388523, -0.002062273
 143289328, 0.1, 0.04, 359.76, 602.15, 33.6216409, 72.9556846, 0.9999974, 0.0009449132, 0.0003862476, -0.002065042
 143389288, 0.11, 0.05, 359.76, 602.39, 33.6216409, 72.9556846, 0.9999973, 0.0009758605, 0.0004540143, -0.002074064
 143489248, 0.11, 0.05, 359.76, 602.64, 33.6216409, 72.9556846, 0.9999972, 0.0009790321, 0.0004871104, -0.002089279
 143589208, 0.11, 0.06, 359.75, 602.88, 33.6216409, 72.9556846, 0.9999971, 0.0009917126, 0.0005327425, -0.002100545
 143689168, 0.11, 0.06, 359.75, 603.12, 33.6216409, 72.9556846, 0.9999971, 0.001013531, 0.0005409838, -0.002114553
 143789128, 0.12, 0.06, 359.75, 603.35, 33.6216409, 72.9556846, 0.999997, 0.001050868, 0.000564353, -0.002123871
 143889088, 0.12, 0.06, 359.75, 603.59, 33.6216409, 72.9556846, 0.999997, 0.001076403, 0.0006059457, -0.002134805
 143989048, 0.11, 0.07, 359.75, 603.8, 33.6216409, 72.9556846, 0.999997, 0.001039117, 0.0006513906, -0.002144867
 144089008, 0.11, 0.06, 359.75, 604.02, 33.6216409, 72.9556846, 0.999997, 0.001030112, 0.0006045022, -0.002154278
 144188968, 0.11, 0.06, 359.75, 604.23, 33.6216409, 72.9556846, 0.999997, 0.001036934, 0.000591082, -0.002162095
 144288928, 0.11, 0.07, 359.75, 604.44, 33.6216409, 72.9556846, 0.9999969, 0.00104478, 0.0006120038, -0.002170721
 144388888, 0.11, 0.08, 359.75, 604.64, 33.6216409, 72.9556846, 0.9999968, 0.001005648, 0.0006976034, -0.002176888
 144488848, 0.09, 0.08, 359.75, 604.84, 33.6216409, 72.9556846, 0.999997, 0.0008709999, 0.000741632, -0.002179725
 144588808, 0.1, 0.08, 359.74, 605.02, 33.6216409, 72.9556846, 0.9999969, 0.0008863745, 0.0007488143, -0.0021955
 144688768, 0.1, 0.08, 359.74, 605.21, 33.6216409, 72.9556846, 0.9999968, 0.0009490476, 0.0007432405, -0.002212941
 144789561, 0.11, 0.09, 359.74, 605.39, 33.6216409, 72.9556846, 0.9999967, 0.0009757163, 0.0008197599, -0.002215398
 144889521, 0.11, 0.1, 359.74, 605.55, 33.621641, 72.9556846, 0.9999966, 0.001008651, 0.0009214586, -0.002211495
 144989481, 0.11, 0.1, 359.74, 605.71, 33.621641, 72.9556846, 0.9999966, 0.0009884008, 0.0009466661, -0.002199323
 145089441, 0.1, 0.11, 359.75, 605.88, 33.6216411, 72.9556846, 0.9999967, 0.0009115622, 0.0009885114, -0.002176621
 145189401, 0.11, 0.12, 359.75, 606.03, 33.6216411, 72.9556846, 0.9999966, 0.0009764981, 0.001051645, -0.002166057
 145289361, 0.11, 0.13, 359.75, 606.18, 33.6216411, 72.9556846, 0.9999965, 0.001009376, 0.001144562, -0.002160522
 145389321, 0.11, 0.13, 359.75, 606.32, 33.6216411, 72.9556846, 0.9999964, 0.001030904, 0.001203347, -0.002157861
 145489281, 0.12, 0.14, 359.75, 606.46, 33.6216411, 72.9556846, 0.9999962, 0.001085731, 0.001268518, -0.002157522
 145589241, 0.11, 0.14, 359.75, 606.58, 33.6216411, 72.9556846, 0.9999963, 0.001042668, 0.001253911, -0.002174405
 145689201, 0.11, 0.13, 359.74, 606.71, 33.6216411, 72.9556846, 0.9999964, 0.0009834267, 0.00117707, -0.002205541
 145789161, 0.1, 0.13, 359.74, 606.83, 33.6216411, 72.9556846, 0.9999964, 0.0009394567, 0.001137483, -0.002240372
 145889121, 0.1, 0.13, 359.73, 606.95, 33.6216411, 72.9556846, 0.9999964, 0.0009026427, 0.001135543, -0.002274864
 145989081, 0.09, 0.13, 359.73, 607.05, 33.6216411, 72.9556846, 0.9999962, 0.0008719114, 0.001182499, -0.002305818
 146089041, 0.09, 0.14, 359.73, 607.16, 33.6216411, 72.9556846, 0.9999961, 0.0008550264, 0.001223105, -0.002338586
 146189001, 0.1, 0.14, 359.72, 607.25, 33.6216411, 72.9556846, 0.999996, 0.000887688, 0.00124195, -0.002365186
 146288961, 0.1, 0.13, 359.72, 607.35, 33.6216411, 72.9556846, 0.999996, 0.0008962894, 0.001205615, -0.002383988
 146388921, 0.1, 0.13, 359.72, 607.43, 33.6216411, 72.9556846, 0.9999959, 0.0009518858, 0.001206858, -0.002396405
 146488881, 0.11, 0.12, 359.72, 607.51, 33.6216411, 72.9556846, 0.999996, 0.0009706644, 0.001046828, -0.002419009
 146588841, 0.11, 0.11, 359.72, 607.59, 33.6216411, 72.9556846, 0.999996, 0.0009691716, 0.001036946, -0.002438311
 146688801, 0.1, 0.12, 359.71, 607.66, 33.6216411, 72.9556846, 0.999996, 0.0008993237, 0.001052769, -0.002460331
 146788761, 0.1, 0.11, 359.71, 607.73, 33.6216411, 72.9556846, 0.999996, 0.0009000729, 0.001015751, -0.002476505
 146889554, 0.1, 0.11, 359.71, 607.78, 33.6216411, 72.9556846, 0.9999959, 0.0009431533, 0.0009907137, -0.002499702
 146989514, 0.11, 0.11, 359.71, 607.83, 33.6216411, 72.9556846, 0.9999958, 0.0009999132, 0.0009711928, -0.002521537
 147089474, 0.11, 0.11, 359.7, 607.88, 33.6216411, 72.9556846, 0.9999958, 0.0009894313, 0.0009686457, -0.002537847
 147189434, 0.1, 0.11, 359.7, 607.91, 33.6216411, 72.9556846, 0.9999958, 0.0009418043, 0.0009594673, -0.002558656
 147289394, 0.11, 0.11, 359.7, 607.95, 33.6216411, 72.9556846, 0.9999957, 0.0009673866, 0.001018023, -0.002580619
 147389354, 0.11, 0.11, 359.7, 607.98, 33.6216411, 72.9556846, 0.9999956, 0.001042211, 0.000985565, -0.002600885
 147489314, 0.11, 0.1, 359.7, 608, 33.6216411, 72.9556846, 0.9999956, 0.001044058, 0.0009040402, -0.002616329
 147589274, 0.11, 0.06, 359.69, 608.01, 33.6216411, 72.9556846, 0.9999958, 0.001041859, 0.0005484427, -0.002634374
 147689234, 0.14, -0.12, 359.69, 608.01, 33.6216411, 72.9556846, 0.9999952, 0.00122914, -0.001056624, -0.002657172
 147789194, 0.2, -0.52, 359.69, 608.01, 33.6216411, 72.9556846, 0.9999843, 0.001738382, -0.00459594, -0.002684993
 147889154, 0.28, -1.09, 359.68, 608, 33.6216411, 72.9556846, 0.999948, 0.0024289, -0.009523178, -0.002715159
 147989114, 0.36, -1.68, 359.67, 607.99, 33.6216411, 72.9556846, 0.9998825, 0.003157522, -0.01474743, -0.002746673
 148089074, 0.44, -2.26, 359.67, 607.98, 33.6216411, 72.9556846, 0.9997925, 0.003844829, -0.01981157, -0.002777038
 148189034, 0.52, -2.8, 359.66, 607.98, 33.6216411, 72.9556846, 0.9996868, 0.004500185, -0.02445556, -0.002804896
 148288994, 0.59, -3.29, 359.65, 607.98, 33.6216412, 72.9556846, 0.9995686, 0.005075919, -0.02878903, -0.002822351
 148388954, 0.66, -3.76, 359.65, 607.98, 33.6216413, 72.9556846, 0.9994389, 0.00568199, -0.03288599, -0.002827267
 148488914, 0.73, -4.22, 359.65, 607.98, 33.6216416, 72.9556847, 0.9992973, 0.006258223, -0.03684947, -0.002816088
 148588874, 0.8, -4.68, 359.64, 607.99, 33.6216417, 72.9556847, 0.9991355, 0.006888633, -0.04090392, -0.002777365
 148688834, 0.86, -5.14, 359.64, 608.01, 33.6216422, 72.9556849, 0.9989585, 0.007428968, -0.0449364, -0.002714473
 148788794, 0.93, -5.61, 359.65, 608.03, 33.6216425, 72.9556849, 0.9987651, 0.007997592, -0.04896769, -0.002566843
 148888754, 0.99, -6.08, 359.81, 608.05, 33.6216432, 72.955685, 0.9985543, 0.008604958, -0.05304554, -0.001155771
 148989547, 1.01, -6.56, 0.41, 608.09, 33.6216436, 72.9556851, 0.9983141, 0.009021994, -0.05718884, 0.004136469
 149089507, 0.95, -7.06, 1.52, 608.13, 33.6216445, 72.9556853, 0.9979695, 0.009170664, -0.06149819, 0.01380921
 149189467, 0.84, -7.6, 3.03, 608.18, 33.621645, 72.9556854, 0.9974106, 0.009127188, -0.06607553, 0.0268854
 149289427, 0.67, -8.14, 4.78, 608.23, 33.6216463, 72.9556855, 0.9965719, 0.00880963, -0.07068143, 0.04208262
 149389387, 0.45, -8.69, 6.64, 608.29, 33.621647, 72.9556857, 0.9954167, 0.008331647, -0.0754799, 0.05812932
 149489347, 0.2, -9.26, 8.48, 608.35, 33.6216484, 72.9556859, 0.9939899, 0.007753752, -0.0804184, 0.07387001
 149589307, -0.04, -9.84, 10.17, 608.43, 33.6216494, 72.9556861, 0.9923934, 0.007180653, -0.08548743, 0.08829341
 149689267, -0.29, -10.42, 11.62, 608.51, 33.621651, 72.9556864, 0.990765, 0.006631045, -0.09067623, 0.1005915
 149789227, -0.5, -11.02, 12.76, 608.61, 33.6216522, 72.9556866, 0.9892455, 0.006293908, -0.09598281, 0.1101858
 149889187, -0.68, -11.62, 13.54, 608.71, 33.6216542, 72.9556869, 0.987974, 0.006055473, -0.1012473, 0.1167033
 149989147, -0.78, -12.14, 13.95, 608.82, 33.6216556, 72.9556872, 0.9870976, 0.006063406, -0.1057977, 0.1200352
 150089107, -0.81, -12.51, 13.99, 608.94, 33.621658, 72.9556876, 0.9867123, 0.006256707, -0.1090458, 0.1202859
 150189067, -0.75, -12.75, 13.69, 609.07, 33.6216597, 72.9556879, 0.9867856, 0.006710037, -0.1110802, 0.1177724
 150289027, -0.64, -12.91, 13.12, 609.22, 33.6216622, 72.9556885, 0.9872059, 0.007285091, -0.1123435, 0.1129173
 150388987, -0.47, -12.96, 12.33, 609.36, 33.6216642, 72.9556888, 0.987897, 0.008000809, -0.1126759, 0.1062997
 150488947, -0.28, -12.84, 11.41, 609.52, 33.6216673, 72.9556894, 0.9888214, 0.008668894, -0.1115835, 0.09851954
 150588907, -0.07, -12.66, 10.43, 609.68, 33.6216696, 72.9556898, 0.9897873, 0.009358583, -0.1099132, 0.09029138
 150688867, 0.1, -12.52, 9.47, 609.86, 33.6216729, 72.9556904, 0.9906285, 0.009952646, -0.1086305, 0.08219184
 150788827, 0.27, -12.41, 8.59, 610.05, 33.6216755, 72.9556909, 0.9913166, 0.01050129, -0.1076713, 0.07475258
 150888787, 0.39, -12.33, 7.85, 610.23, 33.6216789, 72.9556916, 0.9918495, 0.01073415, -0.1069175, 0.06846823
 150988747, 0.46, -12.26, 7.29, 610.43, 33.6216817, 72.9556922, 0.9922315, 0.01081524, -0.1063343, 0.06366055
 151089540, 0.5, -12.17, 6.92, 610.64, 33.6216853, 72.9556928, 0.9925085, 0.01074667, -0.1055901, 0.06051473
 151189500, 0.49, -12.09, 6.76, 610.85, 33.6216884, 72.9556934, 0.9926642, 0.0104876, -0.1049433, 0.05911693
 151289460, 0.44, -12.04, 6.8, 611.07, 33.6216921, 72.9556941, 0.9926999, 0.01006651, -0.1044924, 0.0593876
 151389420, 0.37, -11.95, 7.01, 611.29, 33.6216954, 72.9556947, 0.9926764, 0.009576941, -0.1037243, 0.06118033
 151489380, 0.27, -11.87, 7.37, 611.51, 33.6216993, 72.9556955, 0.9925576, 0.009059211, -0.1030578, 0.0642363
 151589340, 0.15, -11.78, 7.84, 611.74, 33.6217028, 72.9556961, 0.9923751, 0.008360312, -0.1023193, 0.0682091
 151689300, 0.03, -11.66, 8.38, 611.98, 33.6217067, 72.9556968, 0.9921581, 0.007736472, -0.1013288, 0.07276707
 151789260, -0.07, -11.52, 8.94, 612.22, 33.6217104, 72.9556975, 0.991923, 0.007160227, -0.1001205, 0.07754593
 151889220, -0.18, -11.35, 9.49, 612.46, 33.6217144, 72.9556983, 0.9916883, 0.006556558, -0.09876616, 0.08219805
 151989180, -0.27, -11.16, 9.99, 612.71, 33.6217182, 72.955699, 0.9914894, 0.006100367, -0.09715339, 0.08644554
 152089140, -0.34, -10.95, 10.41, 612.96, 33.6217223, 72.9556998, 0.9913478, 0.005671055, -0.0953404, 0.09004148
 152189100, -0.39, -10.74, 10.73, 613.2, 33.6217261, 72.9557005, 0.9912672, 0.005352414, -0.09353573, 0.09279929
 152289060, -0.41, -10.5, 10.94, 613.45, 33.6217303, 72.9557012, 0.9912913, 0.005134556, -0.09143939, 0.09462596
 152389020, -0.39, -10.21, 11.03, 613.71, 33.6217342, 72.955702, 0.9914315, 0.005114387, -0.08898561, 0.09549304
 152488980, -0.36, -9.93, 11.02, 613.96, 33.6217384, 72.9557026, 0.9916584, 0.005179328, -0.08649623, 0.0954211
 152588940, -0.32, -9.7, 10.91, 614.21, 33.6217424, 72.9557034, 0.9919194, 0.005233532, -0.08449407, 0.09449491
 152688900, -0.28, -9.65, 10.71, 614.46, 33.6217466, 72.9557041, 0.9921129, 0.005389228, -0.08404892, 0.09283686
 152788860, -0.23, -9.76, 10.46, 614.71, 33.6217506, 72.9557049, 0.9922363, 0.00573279, -0.08494908, 0.09065254
 152888820, -0.17, -9.89, 10.16, 614.96, 33.6217547, 72.9557055, 0.9923636, 0.006107358, -0.0860832, 0.08812954
 152988780, -0.11, -10.01, 9.85, 615.2, 33.6217588, 72.9557062, 0.9925078, 0.006493723, -0.08707059, 0.08546796
 153088740, -0.05, -10.13, 9.54, 615.45, 33.6217628, 72.955707, 0.9926431, 0.006852282, -0.08802106, 0.08285592
 153189533, 0, -10.17, 9.26, 615.71, 33.621767, 72.9557077, 0.9928061, 0.007149994, -0.08839106, 0.08044825
 153289493, 0.02, -10.21, 9.02, 615.96, 33.6217712, 72.9557084, 0.9929407, 0.007218902, -0.08870864, 0.07840548
 153389453, 0.05, -10.22, 8.84, 616.2, 33.6217753, 72.9557091, 0.9930527, 0.007369889, -0.08883768, 0.07681014
 153489413, 0.07, -10.22, 8.71, 616.46, 33.6217796, 72.9557099, 0.9931399, 0.007432161, -0.08877245, 0.07574628
 153589373, 0.08, -10.22, 8.65, 616.7, 33.6217837, 72.9557107, 0.9931762, 0.007458239, -0.08882009, 0.07520931
 153689333, 0.08, -10.23, 8.64, 616.95, 33.6217879, 72.9557114, 0.9931729, 0.007442665, -0.0889032, 0.07515588
 153789293, 0.07, -10.22, 8.69, 617.19, 33.6217921, 72.9557122, 0.9931474, 0.007377123, -0.08884716, 0.07556453
 153889253, 0.06, -10.21, 8.79, 617.44, 33.6217964, 72.9557129, 0.9930997, 0.007358744, -0.08868293, 0.07638188
 153989213, 0.05, -10.18, 8.92, 617.69, 33.6218006, 72.9557136, 0.9930316, 0.007383717, -0.08845339, 0.077522
 154089173, 0.03, -10.15, 9.07, 617.93, 33.6218048, 72.9557144, 0.9929488, 0.007305575, -0.08821795, 0.07884802
 154189133, 0.02, -10.11, 9.24, 618.18, 33.6218091, 72.9557151, 0.9928701, 0.007283378, -0.0878263, 0.08026519
 154289093, 0, -10.1, 9.4, 618.42, 33.6218133, 72.9557159, 0.9927602, 0.007249246, -0.0877926, 0.08165257
 154389053, -0.01, -10.08, 9.55, 618.68, 33.6218175, 72.9557166, 0.9926703, 0.007215503, -0.08762432, 0.08291892
 154489013, -0.02, -10.04, 9.67, 618.93, 33.6218218, 72.9557174, 0.9926125, 0.007161125, -0.08727756, 0.08397463
 154588973, -0.03, -10, 9.76, 619.17, 33.621826, 72.9557181, 0.9925785, 0.007117197, -0.08689553, 0.08477297
 154688933, -0.02, -9.93, 9.82, 619.42, 33.6218303, 72.9557189, 0.9925847, 0.007198431, -0.08631095, 0.08528935
 154788893, -0.01, -9.9, 9.84, 619.66, 33.6218345, 72.9557196, 0.9925921, 0.00724916, -0.08605589, 0.0854563
 154888853, 0, -9.88, 9.82, 619.91, 33.6218388, 72.9557204, 0.9926213, 0.007370057, -0.08587681, 0.08528704
 154988813, 0.01, -9.86, 9.76, 620.16, 33.6218431, 72.9557211, 0.9926804, 0.007451537, -0.08564529, 0.08482372
 155088773, 0.03, -9.85, 9.68, 620.41, 33.6218474, 72.9557219, 0.9927477, 0.007533183, -0.08553618, 0.08413661
 155189566, 0.05, -9.81, 9.58, 620.66, 33.6218517, 72.9557226, 0.9928508, 0.007602856, -0.08519114, 0.08325794
 155289526, 0.07, -9.77, 9.46, 620.91, 33.6218559, 72.9557234, 0.9929662, 0.007693791, -0.08481698, 0.08224966
 155389486, 0.1, -9.77, 9.33, 621.15, 33.6218602, 72.9557241, 0.9930528, 0.007810331, -0.08482891, 0.08117343
 155489446, 0.12, -9.78, 9.21, 621.4, 33.6218645, 72.9557249, 0.9931306, 0.007891254, -0.08493399, 0.08009778
 155589406, 0.14, -9.78, 9.09, 621.65, 33.6218687, 72.9557257, 0.9932102, 0.007992155, -0.0849179, 0.07911114
 155689366, 0.16, -9.8, 8.99, 621.9, 33.6218731, 72.9557264, 0.9932661, 0.008097889, -0.0850765, 0.07822318
 155789326, 0.17, -9.81, 8.9, 622.15, 33.6218773, 72.9557272, 0.9933175, 0.008168403, -0.08517298, 0.07745337
 155889286, 0.17, -9.81, 8.83, 622.4, 33.6218815, 72.9557279, 0.9933628, 0.008125408, -0.08520994, 0.07683509
 155989246, 0.18, -9.81, 8.78, 622.64, 33.6218858, 72.9557287, 0.9933962, 0.0081393, -0.08520523, 0.07640547
 156089206, 0.17, -9.81, 8.75, 622.89, 33.62189, 72.9557295, 0.9934188, 0.008059587, -0.08517563, 0.07615315
 156189166, 0.17, -9.8, 8.74, 623.13, 33.6218943, 72.9557303, 0.9934294, 0.007999399, -0.08512733, 0.0760745
 156289126, 0.15, -9.8, 8.74, 623.38, 33.6218985, 72.955731, 0.9934256, 0.007890121, -0.08514205, 0.07611892
 156389086, 0.14, -9.83, 8.76, 623.64, 33.6219028, 72.9557318, 0.9933985, 0.00784086, -0.08532834, 0.07626902
 156489046, 0.13, -9.81, 8.79, 623.88, 33.6219071, 72.9557325, 0.9933923, 0.007765559, -0.0852013, 0.07649872
 156589006, 0.12, -9.78, 8.82, 624.13, 33.6219114, 72.9557333, 0.993394, 0.007677852, -0.08494564, 0.07677079
 156688966, 0.12, -9.77, 8.86, 624.38, 33.6219156, 72.9557341, 0.9933787, 0.007656639, -0.08484338, 0.07708267
 156788926, 0.12, -9.73, 8.89, 624.62, 33.6219199, 72.9557349, 0.9933826, 0.007662011, -0.08450891, 0.07739847
 156888886, 0.11, -9.72, 8.92, 624.88, 33.6219241, 72.9557356, 0.9933683, 0.007614136, -0.08445794, 0.07764182
 156988846, 0.11, -9.72, 8.94, 625.12, 33.6219284, 72.9557364, 0.9933612, 0.007603061, -0.08440819, 0.07778767
 157088806, 0.1, -9.72, 8.95, 625.37, 33.6219326, 72.9557372, 0.9933562, 0.007560887, -0.08440828, 0.0778556
 157188766, 0.1, -9.72, 8.95, 625.62, 33.6219368, 72.955738, 0.9933556, 0.007533176, -0.08441378, 0.07786006
 157289559, 0.1, -9.71, 8.94, 625.86, 33.6219412, 72.9557387, 0.9933664, 0.007499925, -0.08436232, 0.0777812
 157389519, 0.1, -9.67, 8.92, 626.11, 33.6219455, 72.9557395, 0.9934074, 0.00746487, -0.0840287, 0.07762237
 157489479, 0.1, -9.67, 8.9, 626.36, 33.6219497, 72.9557403, 0.9934275, 0.007422648, -0.08400076, 0.07739997
 157589439, 0.11, -9.65, 8.87, 626.61, 33.6219539, 72.9557411, 0.9934606, 0.007465229, -0.08382193, 0.07716307
 157689399, 0.1, -9.65, 8.84, 626.86, 33.6219582, 72.9557419, 0.9934842, 0.00743343, -0.08380209, 0.07688378
 157789359, 0.1, -9.66, 8.8, 627.11, 33.6219625, 72.9557427, 0.9934992, 0.007407497, -0.08389007, 0.07659546
 157889319, 0.1, -9.67, 8.77, 627.35, 33.6219667, 72.9557434, 0.9935133, 0.007391474, -0.08399298, 0.07630099
 157989279, 0.1, -9.67, 8.73, 627.6, 33.621971, 72.9557442, 0.9935322, 0.007372611, -0.08405208, 0.0759914
 158089239, 0.1, -9.68, 8.7, 627.85, 33.6219752, 72.9557449, 0.9935515, 0.007324503, -0.08412015, 0.07566787
 158189199, 0.1, -9.68, 8.66, 628.09, 33.6219794, 72.9557457, 0.9935719, 0.007296852, -0.084142, 0.07537727
 158289159, 0.1, -9.7, 8.63, 628.35, 33.6219836, 72.9557465, 0.99358, 0.007284335, -0.08427212, 0.07512615
 158389119, 0.11, -9.72, 8.61, 628.6, 33.6219878, 72.9557473, 0.9935797, 0.007329911, -0.08445295, 0.07492233
 158489079, 0.1, -9.75, 8.59, 628.85, 33.6219921, 72.9557481, 0.9935706, 0.007296673, -0.08472168, 0.0747434
 158589039, 0.1, -9.75, 8.57, 629.1, 33.6219963, 72.9557489, 0.993584, 0.007255901, -0.0846902, 0.07460432
 158688999, 0.1, -9.75, 8.56, 629.34, 33.6220005, 72.9557496, 0.9935897, 0.007244901, -0.08470941, 0.0745077
 158788959, 0.1, -9.74, 8.56, 629.59, 33.6220048, 72.9557504, 0.9936018, 0.007223095, -0.08461525, 0.07445569
 158888919, 0.1, -9.69, 8.55, 629.85, 33.622009, 72.9557511, 0.9936357, 0.007193589, -0.08423799, 0.07443307
 158988879, 0.11, -9.69, 8.55, 630.09, 33.6220133, 72.9557519, 0.9936373, 0.007277292, -0.08423076, 0.07441228
 159088839, 0.12, -9.71, 8.55, 630.35, 33.6220174, 72.9557526, 0.9936275, 0.007363616, -0.08436473, 0.0743828
 159188799, 0.12, -9.73, 8.54, 630.59, 33.6220217, 72.9557534, 0.9936171, 0.007415941, -0.08450892, 0.07435331
 159288759, 0.11, -9.74, 8.54, 630.84, 33.6220259, 72.9557542, 0.9936073, 0.007356539, -0.08466151, 0.07431632
 159389552, 0.11, -9.74, 8.53, 631.09, 33.6220302, 72.955755, 0.9936138, 0.007290122, -0.08463719, 0.07426288
 159489512, 0.1, -9.72, 8.53, 631.35, 33.6220344, 72.9557558, 0.9936343, 0.007213661, -0.08446419, 0.07419427
 159589472, 0.09, -9.73, 8.52, 631.6, 33.6220387, 72.9557566, 0.9936345, 0.007162299, -0.08452928, 0.0741212
 159689432, 0.09, -9.71, 8.51, 631.84, 33.622043, 72.9557573, 0.9936566, 0.00710158, -0.08434884, 0.07403667
 159789392, 0.09, -9.69, 8.5, 632.09, 33.6220472, 72.9557581, 0.993677, 0.007048179, -0.0841921, 0.07394649
 159889352, 0.09, -9.71, 8.49, 632.34, 33.6220514, 72.9557588, 0.993667, 0.007099082, -0.08437913, 0.0738628
 159989312, 0.11, -9.75, 8.48, 632.59, 33.6220556, 72.9557596, 0.993642, 0.007285312, -0.08471955, 0.07379071
 160089272, 0.12, -9.79, 8.47, 632.83, 33.6220599, 72.9557604, 0.9936166, 0.007371853, -0.08509612, 0.07369094
 160189232, 0.12, -9.83, 8.45, 633.09, 33.6220641, 72.9557612, 0.9935978, 0.007403973, -0.08543189, 0.07355264
 160289192, 0.12, -9.85, 8.44, 633.34, 33.6220684, 72.9557619, 0.9935948, 0.007393391, -0.08558608, 0.07341477
 160389152, 0.13, -9.85, 8.42, 633.59, 33.6220726, 72.9557627, 0.9936004, 0.00744194, -0.08561467, 0.07330049
 160489112, 0.13, -9.88, 8.41, 633.84, 33.6220769, 72.9557634, 0.9935917, 0.007453857, -0.08581568, 0.07318304
 160589072, 0.13, -9.91, 8.4, 634.08, 33.6220811, 72.9557642, 0.9935722, 0.007474587, -0.08613836, 0.07306542
 160689032, 0.13, -9.91, 8.38, 634.33, 33.6220853, 72.955765, 0.9935819, 0.007483597, -0.08612975, 0.07294267
 160788992, 0.13, -9.9, 8.37, 634.59, 33.6220895, 72.9557658, 0.9936005, 0.00751109, -0.08601457, 0.07282221
 160888952, 0.14, -9.87, 8.35, 634.83, 33.6220938, 72.9557665, 0.9936282, 0.007502527, -0.08577905, 0.0727228
 160988912, 0.14, -9.82, 8.35, 635.08, 33.622098, 72.9557673, 0.9936718, 0.00746246, -0.08534589, 0.07264179
 161088872, 0.14, -9.81, 8.34, 635.33, 33.6221023, 72.955768, 0.9936847, 0.007449063, -0.08526155, 0.072565
 161188832, 0.14, -9.82, 8.33, 635.57, 33.6221065, 72.9557688, 0.9936857, 0.007451008, -0.08531193, 0.07249218
 161288792, 0.14, -9.83, 8.32, 635.83, 33.6221108, 72.9557696, 0.9936844, 0.007450929, -0.08538837, 0.07241998
 161388752, 0.14, -9.84, 8.31, 636.08, 33.622115, 72.9557704, 0.9936838, 0.007449513, -0.08545676, 0.07234799
 161489545, 0.14, -9.82, 8.3, 636.32, 33.6221193, 72.9557711, 0.9937004, 0.007463335, -0.08531947, 0.07228036
 161589505, 0.15, -9.78, 8.3, 636.57, 33.6221236, 72.9557719, 0.9937354, 0.007525338, -0.08495492, 0.07222158
 161689465, 0.16, -9.79, 8.29, 636.82, 33.6221278, 72.9557726, 0.9937316, 0.007576443, -0.08504447, 0.07216328
 161789425, 0.16, -9.76, 8.28, 637.06, 33.622132, 72.9557734, 0.993754, 0.007576908, -0.08482911, 0.07210892
 161889385, 0.15, -9.76, 8.28, 637.32, 33.6221364, 72.9557742, 0.9937581, 0.007512491, -0.08483332, 0.07205352
 161989345, 0.15, -9.77, 8.27, 637.56, 33.6221407, 72.955775, 0.9937592, 0.007458067, -0.08487149, 0.07199918
 162089305, 0.14, -9.78, 8.27, 637.81, 33.6221449, 72.9557757, 0.9937547, 0.007438146, -0.08494257, 0.07197862
 162189265, 0.14, -9.78, 8.27, 638.06, 33.6221492, 72.9557765, 0.9937475, 0.007438544, -0.08500732, 0.07200181
 162289225, 0.14, -9.79, 8.28, 638.31, 33.6221534, 72.9557773, 0.9937422, 0.007430416, -0.08501758, 0.07206367
 162389185, 0.14, -9.78, 8.29, 638.55, 33.6221577, 72.9557781, 0.9937364, 0.007410409, -0.08501056, 0.07215358
 162489145, 0.14, -9.77, 8.3, 638.8, 33.6221619, 72.9557788, 0.9937381, 0.007391931, -0.08491926, 0.07224086
 162589105, 0.13, -9.78, 8.31, 639.06, 33.6221662, 72.9557796, 0.9937274, 0.007366369, -0.08498855, 0.07230798
 162689065, 0.13, -9.79, 8.31, 639.3, 33.6221704, 72.9557803, 0.9937203, 0.007379329, -0.08503786, 0.07234728
 162789025, 0.13, -9.77, 8.31, 639.55, 33.6221747, 72.9557811, 0.9937292, 0.00738408, -0.0849193, 0.07236303
 162888985, 0.14, -9.76, 8.31, 639.8, 33.6221789, 72.9557818, 0.9937394, 0.007422083, -0.08480781, 0.07234959
 162988945, 0.15, -9.74, 8.3, 640.04, 33.6221831, 72.9557826, 0.9937614, 0.007491712, -0.0845907, 0.07229524
 163088905, 0.16, -9.72, 8.29, 640.29, 33.6221874, 72.9557834, 0.9937787, 0.007522957, -0.08447593, 0.07218785
 163188865, 0.16, -9.72, 8.27, 640.54, 33.6221916, 72.9557842, 0.993789, 0.007524061, -0.08448362, 0.07203757
 163288825, 0.15, -9.73, 8.25, 640.78, 33.6221959, 72.9557849, 0.9937947, 0.007460607, -0.08457541, 0.07185651
 163388785, 0.15, -9.73, 8.23, 641.04, 33.6222001, 72.9557857, 0.9938095, 0.007458866, -0.08454455, 0.07168951
 163488745, 0.15, -9.72, 8.22, 641.29, 33.6222044, 72.9557865, 0.9938251, 0.007442378, -0.08448627, 0.07154245
 163589538, 0.16, -9.7, 8.2, 641.54, 33.6222087, 72.9557873, 0.9938498, 0.007477036, -0.08427838, 0.07144161
 163689498, 0.16, -9.69, 8.2, 641.78, 33.6222129, 72.955788, 0.9938624, 0.007465885, -0.08417747, 0.07138607
 163789458, 0.16, -9.69, 8.2, 642.03, 33.6222171, 72.9557888, 0.9938631, 0.007456161, -0.08417569, 0.07137937
 163889418, 0.15, -9.67, 8.2, 642.29, 33.6222214, 72.9557895, 0.9938744, 0.007390349, -0.08402699, 0.07140502
 163989378, 0.14, -9.68, 8.21, 642.54, 33.6222257, 72.9557903, 0.9938654, 0.007342619, -0.08409397, 0.07145553
 164089338, 0.14, -9.68, 8.21, 642.78, 33.6222299, 72.955791, 0.9938565, 0.007351128, -0.08414404, 0.071518
 164189298, 0.14, -9.68, 8.22, 643.03, 33.6222341, 72.9557918, 0.9938574, 0.007349291, -0.08409682, 0.07156189
 164289258, 0.15, -9.67, 8.22, 643.28, 33.6222384, 72.9557926, 0.993861, 0.0073817, -0.0840468, 0.07156771
 164389218, 0.15, -9.67, 8.22, 643.53, 33.6222426, 72.9557934, 0.9938627, 0.007350941, -0.0840617, 0.07153022
 164489178, 0.15, -9.67, 8.21, 643.78, 33.6222468, 72.9557941, 0.993867, 0.007372894, -0.08405834, 0.0714716
 164589138, 0.15, -9.68, 8.2, 644.03, 33.622251, 72.9557949, 0.9938685, 0.0074132, -0.08409441, 0.07140451
 164689098, 0.16, -9.71, 8.19, 644.28, 33.6222553, 72.9557956, 0.9938485, 0.007448663, -0.08439196, 0.07132837
 164789058, 0.16, -9.71, 8.18, 644.53, 33.6222595, 72.9557964, 0.9938522, 0.007441197, -0.08440404, 0.07126248
 164889018, 0.17, -9.71, 8.18, 644.78, 33.6222638, 72.9557971, 0.9938613, 0.007527831, -0.08431678, 0.07122991
 164988978, 0.17, -9.71, 8.18, 645.04, 33.622268, 72.9557979, 0.9938628, 0.00753417, -0.08431916, 0.07120533
 165088938, 0.17, -9.69, 8.17, 645.29, 33.6222722, 72.9557987, 0.9938767, 0.007563516, -0.08416989, 0.07118451
 165188898, 0.17, -9.68, 8.17, 645.54, 33.6222765, 72.9557995, 0.9938836, 0.007553774, -0.08410657, 0.07116468
 165288858, 0.17, -9.71, 8.17, 645.79, 33.6222806, 72.9558002, 0.993862, 0.00752954, -0.08438525, 0.07113948
 165388818, 0.17, -9.76, 8.17, 646.03, 33.6222849, 72.955801, 0.9938272, 0.007576249, -0.08480515, 0.0711211
 165488778, 0.17, -9.8, 8.16, 646.28, 33.6222891, 72.9558017, 0.993801, 0.00757018, -0.0851338, 0.07109553
 165588738, 0.17, -9.83, 8.16, 646.53, 33.6222934, 72.9558025, 0.9937806, 0.007586619, -0.08538917, 0.07107277
 165689531, 0.17, -9.83, 8.16, 646.78, 33.6222977, 72.9558032, 0.9937826, 0.007613402, -0.08537552, 0.07105702
 165789491, 0.17, -9.84, 8.16, 647.03, 33.6223019, 72.955804, 0.993775, 0.007612063, -0.08548281, 0.0710362
 165889451, 0.17, -9.86, 8.15, 647.28, 33.6223061, 72.9558047, 0.99376, 0.007632149, -0.08567668, 0.07100859
 165989411, 0.17, -9.87, 8.15, 647.53, 33.6223103, 72.9558055, 0.9937563, 0.007665276, -0.08573829, 0.07098292
 166089371, 0.17, -9.89, 8.15, 647.78, 33.6223146, 72.9558063, 0.9937441, 0.007688507, -0.08590509, 0.07094974
 166189331, 0.18, -9.9, 8.14, 648.04, 33.6223188, 72.9558071, 0.9937363, 0.007740122, -0.0860181, 0.07091664
 166289291, 0.17, -9.91, 8.14, 648.28, 33.6223231, 72.9558078, 0.993733, 0.007690018, -0.08609597, 0.07087426
 166389251, 0.17, -9.91, 8.13, 648.53, 33.6223273, 72.9558086, 0.9937373, 0.007683577, -0.08607423, 0.07083995
 166489211, 0.17, -9.91, 8.13, 648.78, 33.6223316, 72.9558094, 0.993738, 0.007661135, -0.08609273, 0.07081101
 166589171, 0.17, -9.91, 8.13, 649.03, 33.6223359, 72.9558102, 0.9937364, 0.007637163, -0.08613423, 0.07078549
 166689131, 0.17, -9.9, 8.13, 649.28, 33.6223401, 72.9558109, 0.9937488, 0.007598719, -0.0860122, 0.07076338
 166789091, 0.17, -9.91, 8.13, 649.52, 33.6223444, 72.9558117, 0.99374, 0.007633433, -0.0861074, 0.07076739
 166889051, 0.17, -9.91, 8.13, 649.77, 33.6223486, 72.9558124, 0.9937418, 0.007656321, -0.086076, 0.07077868
 166989011, 0.17, -9.89, 8.13, 650.03, 33.6223529, 72.9558132, 0.9937527, 0.007667901, -0.08593603, 0.07079399
 167088971, 0.18, -9.88, 8.13, 650.28, 33.6223571, 72.9558139, 0.9937627, 0.007681524, -0.08580846, 0.07080736
 167188931, 0.18, -9.84, 8.13, 650.52, 33.6223614, 72.9558147, 0.9937914, 0.007648882, -0.08545768, 0.07083233
 167288891, 0.17, -9.83, 8.13, 650.77, 33.6223656, 72.9558155, 0.9937981, 0.00762005, -0.08537756, 0.07083668
 167388851, 0.17, -9.82, 8.13, 651.02, 33.6223699, 72.9558163, 0.9938048, 0.007582431, -0.08533144, 0.07080361
 167488811, 0.17, -9.81, 8.12, 651.28, 33.6223742, 72.955817, 0.9938148, 0.007584576, -0.08525901, 0.07074931
 167588771, 0.17, -9.8, 8.12, 651.52, 33.6223785, 72.9558178, 0.9938322, 0.007587157, -0.08510432, 0.07069078
 167689564, 0.17, -9.78, 8.11, 651.77, 33.6223827, 72.9558186, 0.9938461, 0.007582128, -0.08498387, 0.07064207
 167789524, 0.17, -9.74, 8.11, 652.02, 33.622387, 72.9558194, 0.9938775, 0.007563781, -0.0846421, 0.07061161
 167889484, 0.17, -9.73, 8.11, 652.27, 33.6223912, 72.9558201, 0.9938906, 0.007511961, -0.08451153, 0.07058943
 167989444, 0.17, -9.62, 8.1, 652.51, 33.6223955, 72.9558209, 0.9939715, 0.00743543, -0.08357108, 0.0705779
 168089404, 0.16, -9.33, 8.1, 652.76, 33.6223998, 72.9558217, 0.9941837, 0.00716252, -0.08104121, 0.07056826
 168189364, 0.16, -8.86, 8.1, 653.01, 33.6224041, 72.9558225, 0.994503, 0.006907403, -0.07703158, 0.07058474
 168289324, 0.16, -8.3, 8.1, 653.26, 33.6224083, 72.9558232, 0.9948748, 0.006531186, -0.07209274, 0.0705974
 168389284, 0.16, -7.69, 8.1, 653.51, 33.6224126, 72.955824, 0.9952433, 0.00621517, -0.06682298, 0.07061848
 168489244, 0.17, -7.08, 8.1, 653.75, 33.6224167, 72.9558247, 0.9955826, 0.005892935, -0.06156855, 0.07063805
 168589204, 0.17, -6.48, 8.1, 653.99, 33.622421, 72.9558255, 0.9958933, 0.005544901, -0.0563502, 0.07064378
 168689164, 0.18, -5.88, 8.1, 654.23, 33.6224249, 72.9558262, 0.9961781, 0.005224323, -0.05109597, 0.07064719
 168789124, 0.18, -5.27, 8.1, 654.47, 33.622429, 72.9558269, 0.9964397, 0.00484535, -0.04576718, 0.07063861
 168889084, 0.18, -4.64, 8.09, 654.7, 33.6224329, 72.9558276, 0.9966775, 0.004479244, -0.04034211, 0.07061471
 168989044, 0.22, -3.87, 8.09, 654.93, 33.6224369, 72.9558284, 0.9969288, 0.004343569, -0.03360376, 0.07060351
 169089004, 0.33, -2.86, 8.09, 655.17, 33.6224406, 72.955829, 0.9971851, 0.004692164, -0.0247025, 0.07063717
 169188964, 0.53, -1.6, 8.1, 655.37, 33.6224445, 72.9558297, 0.9973843, 0.005614856, -0.01362981, 0.07076272
 169288924, 0.76, -0.19, 8.14, 655.6, 33.6224479, 72.9558304, 0.9974499, 0.006766508, -0.00125274, 0.0710367
 169388884, 1, 1.25, 8.21, 655.79, 33.6224516, 72.9558311, 0.997339, 0.007948612, 0.01154941, 0.07154354
 169488844, 1.25, 2.75, 8.33, 655.99, 33.6224547, 72.9558317, 0.9970263, 0.009191747, 0.02476776, 0.07239134
 169588804, 1.52, 4.3, 8.51, 656.18, 33.6224582, 72.9558323, 0.996483, 0.01047367, 0.03843081, 0.07372235
 169688764, 1.8, 5.89, 8.78, 656.36, 33.6224608, 72.9558329, 0.9956793, 0.0117327, 0.05250123, 0.07568815
 169789557, 2.12, 7.55, 9.16, 656.53, 33.6224641, 72.9558336, 0.9945619, 0.01320056, 0.06715168, 0.07850554
 169889517, 2.48, 9.25, 9.68, 656.68, 33.6224664, 72.9558342, 0.9931017, 0.01476441, 0.08215464, 0.08235162
 169989477, 2.92, 10.98, 10.37, 656.83, 33.6224693, 72.9558348, 0.9912343, 0.01667813, 0.09754889, 0.08752486
 170089437, 3.46, 12.7, 11.29, 656.97, 33.6224708, 72.9558355, 0.9889125, 0.01903676, 0.1130212, 0.09442442
 170189397, 4.12, 14.31, 12.51, 657.09, 33.6224733, 72.9558361, 0.9861495, 0.02190759, 0.1276248, 0.1036397
 170289357, 4.94, 15.68, 14.15, 657.21, 33.6224744, 72.9558366, 0.9829135, 0.02557989, 0.1405437, 0.1160782
 170389317, 5.99, 16.82, 16.39, 657.3, 33.6224764, 72.9558372, 0.9788844, 0.03037103, 0.1520146, 0.133246
 170489277, 7.37, 17.68, 19.49, 657.39, 33.6224769, 72.9558379, 0.9735017, 0.03667336, 0.1619459, 0.1572355
 170589237, 9.13, 18.1, 23.61, 657.46, 33.6224784, 72.9558385, 0.9661523, 0.04484992, 0.1696066, 0.1891343
 170689197, 11.2, 17.97, 28.69, 657.52, 33.6224782, 72.955839, 0.9561185, 0.05485198, 0.174541, 0.2288321
 170789157, 13.53, 17.31, 34.66, 657.55, 33.6224791, 72.9558396, 0.9424199, 0.06668139, 0.1773592, 0.2755758
 170889117, 15.99, 16.07, 41.35, 657.59, 33.6224782, 72.9558403, 0.9242423, 0.07997123, 0.1782103, 0.3280577
 170989077, 18.41, 14.22, 48.64, 657.61, 33.6224785, 72.9558409, 0.9007387, 0.09433451, 0.1767305, 0.3854052
 171089037, 20.55, 11.72, 56.33, 657.62, 33.622477, 72.9558417, 0.8715039, 0.1090304, 0.1723621, 0.4459647
 171188997, 22.3, 8.68, 64.28, 657.62, 33.6224768, 72.9558423, 0.8361586, 0.1237726, 0.1654871, 0.508068
 171288957, 23.55, 5.2, 72.42, 657.61, 33.6224747, 72.955843, 0.7944835, 0.138255, 0.1563803, 0.5702865
 171388917, 24.26, 1.48, 80.62, 657.59, 33.6224738, 72.9558437, 0.7471631, 0.1520866, 0.1456103, 0.6304083
 171488877, 24.42, -2.35, 88.83, 657.55, 33.622471, 72.9558446, 0.6948743, 0.1651249, 0.1336484, 0.6870383
 171588837, 23.96, -6.12, 96.98, 657.52, 33.6224696, 72.9558453, 0.6390556, 0.1765095, 0.1205985, 0.7388561
 171688797, 22.81, -9.61, 105, 657.47, 33.6224662, 72.9558461, 0.5814864, 0.1851332, 0.1063679, 0.7850382
 171788757, 21.12, -12.68, 112.8, 657.41, 33.6224641, 72.9558469, 0.5237809, 0.1912334, 0.09164371, 0.8250362
 171889550, 19.02, -15.29, 120.36, 657.35, 33.6224602, 72.9558479, 0.4669472, 0.1953069, 0.07684556, 0.8590171
 171989510, 16.73, -17.43, 127.46, 657.29, 33.6224575, 72.9558487, 0.4130461, 0.1981518, 0.06259199, 0.8866854
 172089470, 14.36, -19.2, 134.09, 657.21, 33.6224533, 72.9558498, 0.3622991, 0.2004601, 0.04900207, 0.9089301
 172189430, 11.97, -20.61, 140.26, 657.13, 33.6224501, 72.9558506, 0.3149931, 0.2022233, 0.03607091, 0.926598
 172289390, 9.63, -21.74, 145.99, 657.04, 33.6224453, 72.9558516, 0.2710178, 0.2038734, 0.02388125, 0.9404333
 172389350, 7.35, -22.65, 151.33, 656.96, 33.6224416, 72.9558525, 0.2300391, 0.2055101, 0.01241262, 0.9511538
 172489310, 5.15, -23.37, 156.35, 656.87, 33.6224366, 72.9558536, 0.1915157, 0.2071235, 0.001622601, 0.9593847
 172589270, 3.02, -23.94, 161.15, 656.77, 33.6224325, 72.9558545, 0.1547452, 0.2087619, -0.008517705, 0.9656085
 172689230, 0.93, -24.35, 165.82, 656.67, 33.6224271, 72.9558557, 0.1189004, 0.2103254, -0.0180948, 0.9702054
 172789190, -1.04, -24.64, 170.35, 656.57, 33.6224226, 72.9558567, 0.08405066, 0.2118717, -0.0268297, 0.9733067
