Time,ATT_DesRoll,ATT_Roll,ATT_DesPitch,ATT_Pitch,ATT_DesYaw,ATT_Yaw,ATT_ErrRP,ATT_ErrYaw,ATT_AEKF
 119789565, 0, 0.07, 0, 0.05, 0.99, 0.99, 0, 0, 3
 119889525, 0, 0.07, 0, 0.05, 0.99, 0.99, 0, 0, 3
 119989485, 0, 0.07, 0, 0.05, 0.99, 0.99, 0, 0, 3
 120089445, 0, 0.07, 0, 0.05, 0.99, 0.99, 0, 0, 3
 120189405, 0, 0.07, 0, 0.05, 0.99, 0.99, 0, 0, 3
 120289365, 0, 0.07, 0, 0.05, 0.99, 0.99, 0, 0, 3
 120389325, 0, 0.07, 0, 0.05, 0.99, 0.99, 0, 0, 3
 120489285, 0, 0.07, 0, 0.05, 0.99, 0.99, 0, 0, 3
 120589245, 0, 0.07, 0, 0.06, 1, 1, 0, 0, 3
 120689205, 0, 0.07, 0, 0.06, 1, 1, 0, 0, 3
 120789165, 0, 0.07, 0, 0.06, 1, 1, 0, 0, 3
 120889125, 0, 0.07, 0, 0.06, 1, 1, 0, 0, 3
 120989085, 0, 0.07, 0, 0.06, 1, 1, 0, 0, 3
 121089045, 0, 0.07, 0, 0.06, 1, 1, 0, 0, 3
 121189005, 0, 0.07, 0, 0.06, 1, 1, 0, 0, 3
 121288965, 0, 0.08, 0, 0.06, 1, 1, 0, 0, 3
 121388925, 0, 0.08, 0, 0.07, 1, 1, 0, 0, 3
 121488885, 0, 0.08, 0, 0.07, 1, 1, 0, 0, 3
 121588845, 0, 0.08, 0, 0.07, 1, 1, 0, 0, 3
 121688805, 0, 0.08, 0, 0.07, 1, 1, 0, 0, 3
 121788765, 0, 0.08, 0, 0.07, 1.01, 1.01, 0, 0, 3
 121889558, 0, 0.08, 0, 0.07, 1.01, 1.01, 0, 0, 3
 121989518, 0, 0.09, 0, 0.07, 1.01, 1.01, 0, 0, 3
 122089478, 0, 0.09, 0, 0.08, 1.01, 1.01, 0, 0, 3
 122189438, 0, 0.09, 0, 0.08, 1.01, 1.01, 0, 0, 3
 122289398, 0, 0.09, 0, 0.08, 1.01, 1.01, 0, 0, 3
 122389358, 0, 0.09, 0, 0.08, 1.01, 1.01, 0, 0, 3
 122489318, 0, 0.1, 0, 0.08, 1.01, 1.01, 0, 0, 3
 122589278, 0, 0.1, 0, 0.08, 1.01, 1.01, 0, 0, 3
 122689238, 0, 0.1, 0, 0.09, 1.01, 1.01, 0, 0, 3
 122789198, 0, 0.1, 0, 0.09, 1.01, 1.01, 0, 0, 3
 122889158, 0, 0.1, 0, 0.09, 1.02, 1.02, 0, 0, 3
 122989118, 0, 0.1, 0, 0.09, 1.02, 1.02, 0, 0, 3
 123089078, 0, 0.11, 0, 0.09, 1.02, 1.02, 0, 0, 3
 123189038, 0, 0.11, 0, 0.1, 1.02, 1.02, 0, 0, 3
 123288998, 0, 0.11, 0, 0.1, 1.02, 1.02, 0, 0, 3
 123388958, 0, 0.11, 0, 0.1, 1.02, 1.02, 0, 0, 3
 123488918, 0, 0.11, 0, 0.1, 1.02, 1.02, 0, 0, 3
 123588878, 0, 0.11, 0, 0.1, 1.02, 1.02, 0, 0, 3
 123688838, 0, 0.12, 0, 0.1, 1.02, 1.02, 0, 0, 3
 123788798, 0, 0.12, 0, 0.11, 1.02, 1.02, 0, 0, 3
 123888758, 0, 0.12, 0, 0.11, 1.03, 1.03, 0, 0, 3
 123989551, 0, 0.12, 0, 0.11, 1.03, 1.03, 0, 0, 3
 124089511, 0, 0.12, 0, 0.11, 1.03, 1.03, 0, 0, 3
 124189471, 0, 0.13, 0, 0.11, 1.03, 1.03, 0, 0, 3
 124289431, 0, 0.13, 0, 0.12, 1.03, 1.03, 0, 0, 3
 124389391, 0, 0.13, 0, 0.12, 1.03, 1.03, 0, 0, 3
 124489351, -0.03, 0.13, -0.03, 0.12, 1.03, 1.03, 0, 0, 3
 124589311, -0.05, 0.13, -0.05, 0.12, 1.03, 1.03, 0, 0, 3
 124689271, -0.06, 0.14, -0.06, 0.12, 1.03, 1.03, 0, 0, 3
 124789231, -0.07, 0.14, -0.07, 0.12, 1.03, 1.04, 0, 0, 3
 124889191, -0.08, 0.14, -0.07, 0.13, 1.03, 1.04, 0, 0, 3
 124989151, -0.09, 0.14, -0.08, 0.13, 1.03, 1.04, 0, 0, 3
 125089111, -0.1, 0.14, -0.09, 0.13, 1.03, 1.04, 0, 0, 3
 125189071, -0.11, 0.14, -0.1, 0.13, 1.03, 1.04, 0, 0, 3
 125289031, -0.12, 0.15, -0.12, 0.13, 1.03, 1.04, 0, 0, 3
 125388991, -0.14, 0.15, -0.14, 0.14, 1.03, 1.04, 0, 0, 3
 125488951, -0.16, 0.15, -0.15, 0.14, 1.03, 1.04, 0, 0, 3
 125588911, -0.18, 0.12, -0.17, 0.11, 1.03, 1.04, 0, 0, 3
 125688871, -0.18, -0.08, -0.18, -0.08, 1.03, 1.04, 0, 0, 3
 125788831, -0.14, -0.2, -0.14, -0.19, 1.03, 1.04, 0, 0, 3
 125888791, -0.06, -0.21, -0.06, -0.2, 1.03, 1.04, 0, 0, 3
 125988751, 0.03, -0.15, 0.02, -0.15, 1.03, 1.04, 0, 0, 3
 126089544, 0.12, -0.08, 0.11, -0.07, 1.03, 1.04, 0, 0, 3
 126189504, 0.19, 0, 0.18, 0, 1.03, 1.03, 0, 0, 3
 126289464, 0.24, 0.06, 0.22, 0.05, 1.03, 1.03, 0, 0, 3
 126389424, 0.28, 0.1, 0.25, 0.09, 1.03, 1.03, 0, 0, 3
 126489384, 0.3, 0.14, 0.28, 0.13, 1.03, 1.02, 0, 0, 3
 126589344, 0.32, 0.18, 0.3, 0.16, 1.03, 1.02, 0, 0, 3
 126689304, 0.34, 0.21, 0.31, 0.18, 1.03, 1.01, 0, 0, 3
 126789264, 0.35, 0.23, 0.32, 0.2, 1.03, 1.01, 0, 0, 3
 126889224, 0.36, 0.24, 0.33, 0.22, 1.03, 1.01, 0, 0, 3
 126989184, 0.37, 0.26, 0.34, 0.24, 0.19, 0.17, 0, 0, 3
 127089144, 0.37, 0.27, 0.35, 0.26, 0.19, 0.17, 0, 0, 3
 127189104, 0.37, 0.28, 0.36, 0.27, 0.19, 0.18, 0, 0, 3
 127289064, 0.37, 0.29, 0.36, 0.28, 0.19, 0.18, 0, 0, 3
 127389024, 0.37, 0.29, 0.35, 0.28, 0.19, 0.19, 0, 0, 3
 127488984, 0.37, 0.29, 0.35, 0.28, 0.19, 0.19, 0, 0, 3
 127588944, 0.36, 0.29, 0.35, 0.29, 0.19, 0.19, 0, 0, 3
 127688904, 0.36, 0.29, 0.35, 0.28, 0.19, 0.19, 0, 0, 3
 127788864, 0.35, 0.29, 0.34, 0.28, 0.19, 0.19, 0, 0, 3
 127888824, 0.34, 0.28, 0.33, 0.28, 0.19, 0.19, 0, 0, 3
 127988784, 0.32, 0.27, 0.32, 0.27, 0.19, 0.19, 0, 0, 3
 128088744, 0.31, 0.26, 0.31, 0.26, 0.19, 0.19, 0, 0, 3
 128189537, 0.29, 0.26, 0.3, 0.25, 0.19, 0.19, 0, 0, 3
 128289497, 0.28, 0.25, 0.3, 0.24, 0.19, 0.18, 0, 0, 3
 128389457, 0.27, 0.25, 0.29, 0.25, 0.19, 0.18, 0, 0, 3
 128489417, 0.26, 0.25, 0.28, 0.25, 0.19, 0.18, 0, 0, 3
 128589377, 0.25, 0.23, 0.27, 0.24, 0.19, 0.18, 0, 0, 3
 128689337, 0.24, 0.21, 0.26, 0.23, 0.19, 0.18, 0, 0, 3
 128789297, 0.24, 0.21, 0.25, 0.23, 0.19, 0.18, 0, 0, 3
 128889257, 0.24, 0.22, 0.24, 0.23, 0.19, 0.18, 0, 0, 3
 128989217, 0.23, 0.23, 0.23, 0.24, 0.19, 0.18, 0, 0, 3
 129089177, 0.23, 0.24, 0.22, 0.25, 0.19, 0.18, 0, 0, 3
 129189137, 0.21, 0.22, 0.2, 0.22, 0.19, 0.18, 0, 0, 3
 129289097, 0.21, 0.2, 0.2, 0.2, 0.19, 0.18, 0, 0, 3
 129389057, 0.2, 0.19, 0.19, 0.19, 0.19, 0.19, 0, 0, 3
 129489017, 0.2, 0.18, 0.19, 0.19, 0.19, 0.19, 0, 0, 3
 129588977, 0.2, 0.18, 0.19, 0.18, 0.19, 0.19, 0, 0, 3
 129688937, 0.21, 0.19, 0.19, 0.18, 0.19, 0.19, 0, 0, 3
 129788897, 0.21, 0.2, 0.19, 0.18, 0.19, 0.19, 0, 0, 3
 129888857, 0.21, 0.2, 0.19, 0.18, 0.19, 0.19, 0, 0, 3
 129988817, 0.21, 0.2, 0.18, 0.17, 0.19, 0.19, 0, 0, 3
 130088777, 0.21, 0.2, 0.17, 0.16, 0.19, 0.19, 0, 0, 3
 130188737, 0.21, 0.2, 0.17, 0.15, 0.19, 0.19, 0, 0, 3
 130289530, 0.2, 0.2, 0.17, 0.15, 0.19, 0.19, 0, 0, 3
 130389490, 0.2, 0.21, 0.17, 0.15, 0.19, 0.19, 0, 0, 3
 130489450, 0.2, 0.21, 0.17, 0.16, 0.19, 0.19, 0, 0, 3
 130589410, 0.2, 0.21, 0.17, 0.16, 0.19, 0.19, 0, 0, 3
 130689370, 0.2, 0.2, 0.17, 0.16, 0.19, 0.19, 0, 0, 3
 130789330, 0.2, 0.2, 0.17, 0.16, 0.19, 0.18, 0, 0, 3
 130889290, 0.2, 0.19, 0.16, 0.16, 0.19, 0.17, 0, 0, 3
 130989250, 0.19, 0.19, 0.14, 0.16, 0.19, 0.17, 0, 0, 3
 131089210, 0.18, 0.17, 0.13, 0.14, 0.19, 0.16, 0, 0, 3
 131189170, 0.17, 0.16, 0.12, 0.13, 0.19, 0.16, 0, 0, 3
 131289130, 0.16, 0.15, 0.11, 0.12, 0.19, 0.16, 0, 0, 3
 131389090, 0.16, 0.15, 0.11, 0.11, 0.19, 0.17, 0, 0, 3
 131489050, 0.16, 0.14, 0.11, 0.11, 0.19, 0.17, 0, 0, 3
 131589010, 0.16, 0.14, 0.11, 0.1, 0.19, 0.18, 0, 0, 3
 131688970, 0.16, 0.14, 0.12, 0.11, 0.19, 0.19, 0, 0, 3
 131788930, 0.16, 0.14, 0.13, 0.12, 0.19, 0.2, 0, 0, 3
 131888890, 0.16, 0.15, 0.13, 0.12, 0.19, 0.21, 0, 0, 3
 131988850, 0.16, 0.14, 0.13, 0.13, 0.19, 0.21, 0, 0, 3
 132088810, 0.16, 0.14, 0.14, 0.13, 0.19, 0.21, 0, 0, 3
 132188770, 0.16, 0.16, 0.14, 0.13, 0.19, 0.22, 0, 0, 3
 132289563, 0.16, 0.16, 0.14, 0.14, 0.19, 0.21, 0, 0, 3
 132389523, 0.16, 0.15, 0.15, 0.14, 0.19, 0.21, 0, 0, 3
 132489483, 0.17, 0.15, 0.15, 0.15, 0.19, 0.21, 0, 0, 3
 132589443, 0.17, 0.15, 0.15, 0.15, 0.19, 0.2, 0, 0, 3
 132689403, 0.18, 0.16, 0.16, 0.15, 0.19, 0.19, 0, 0, 3
 132789363, 0.18, 0.17, 0.16, 0.16, 0.19, 0.18, 0, 0, 3
 132889323, 0.19, 0.18, 0.16, 0.16, 0.19, 0.17, 0, 0, 3
 132989283, 0.19, 0.18, 0.17, 0.16, 0.19, 0.17, 0, 0, 3
 133089243, 0.19, 0.18, 0.17, 0.16, 0.19, 0.17, 0, 0, 3
 133189203, 0.2, 0.19, 0.17, 0.16, 0.19, 0.17, 0, 0, 3
 133289163, 0.2, 0.2, 0.18, 0.16, 0.19, 0.17, 0, 0, 3
 133389123, 0.2, 0.22, 0.18, 0.17, 0.19, 0.17, 0, 0, 3
 133489083, 0.2, 0.22, 0.18, 0.17, 0.19, 0.17, 0, 0, 3
 133589043, 0.19, 0.2, 0.18, 0.18, 0.19, 0.17, 0, 0, 3
 133689003, 0.19, 0.19, 0.19, 0.18, 0.19, 0.18, 0, 0, 3
 133788963, 0.19, 0.18, 0.2, 0.19, 0.19, 0.18, 0, 0, 3
 133888923, 0.19, 0.18, 0.21, 0.2, 0.19, 0.19, 0, 0, 3
 133988883, 0.19, 0.18, 0.21, 0.2, 0.19, 0.19, 0, 0, 3
 134088843, 0.2, 0.18, 0.22, 0.2, 0.19, 0.2, 0, 0, 3
 134188803, 0.2, 0.18, 0.22, 0.21, 0.19, 0.2, 0, 0, 3
 134288763, 0.21, 0.19, 0.22, 0.21, 0.19, 0.2, 0, 0, 3
 134389556, 0.21, 0.19, 0.22, 0.22, 0.19, 0.2, 0, 0, 3
 134489516, 0.21, 0.2, 0.23, 0.22, 0.19, 0.2, 0, 0, 3
 134589476, 0.22, 0.2, 0.23, 0.23, 0.19, 0.2, 0, 0, 3
 134689436, 0.23, 0.21, 0.24, 0.24, 0.19, 0.19, 0, 0, 3
 134789396, 0.24, 0.23, 0.25, 0.25, 0.19, 0.19, 0, 0, 3
 134889356, 0.24, 0.23, 0.25, 0.25, 0.19, 0.18, 0, 0, 3
 134989316, 0.24, 0.23, 0.26, 0.25, 0.19, 0.18, 0, 0, 3
 135089276, 0.25, 0.24, 0.26, 0.25, 0.19, 0.18, 0, 0, 3
 135189236, 0.25, 0.24, 0.27, 0.25, 0.19, 0.18, 0, 0, 3
 135289196, 0.26, 0.25, 0.27, 0.25, 0.19, 0.18, 0, 0, 3
 135389156, 0.27, 0.26, 0.27, 0.26, 0.19, 0.19, 0, 0, 3
 135489116, 0.28, 0.26, 0.27, 0.26, 0.19, 0.19, 0, 0, 3
 135589076, 0.28, 0.27, 0.27, 0.26, 0.19, 0.19, 0, 0, 3
 135689036, 0.28, 0.27, 0.27, 0.26, 0.19, 0.19, 0, 0, 3
 135788996, 0.28, 0.27, 0.27, 0.26, 0.19, 0.19, 0, 0, 3
 135888956, 0.28, 0.27, 0.26, 0.25, 0.19, 0.19, 0, 0, 3
 135988916, 0.28, 0.27, 0.26, 0.26, 0.19, 0.19, 0, 0, 3
 136088876, 0.28, 0.26, 0.26, 0.25, 0.19, 0.19, 0, 0, 3
 136188836, 0.28, 0.26, 0.26, 0.25, 0.19, 0.19, 0, 0, 3
 136288796, 0.27, 0.26, 0.26, 0.25, 0.19, 0.19, 0, 0, 3
 136388756, 0.27, 0.27, 0.25, 0.25, 0.19, 0.19, 0, 0, 3
 136489549, 0.27, 0.27, 0.25, 0.25, 0.19, 0.19, 0, 0, 3
 136589509, 0.26, 0.26, 0.24, 0.24, 0.19, 0.19, 0, 0, 3
 136689469, 0.25, 0.24, 0.23, 0.23, 0.19, 0.18, 0, 0, 3
 136789429, 0.24, 0.23, 0.23, 0.22, 0.19, 0.18, 0, 0, 3
 136889389, 0.24, 0.23, 0.23, 0.22, 0.19, 0.18, 0, 0, 3
 136989349, 0.24, 0.22, 0.23, 0.21, 0.19, 0.18, 0, 0, 3
 137089309, 0.24, 0.23, 0.23, 0.22, 0.19, 0.18, 0, 0, 3
 137189269, 0.24, 0.23, 0.23, 0.22, 0.19, 0.18, 0, 0, 3
 137289229, 0.24, 0.22, 0.23, 0.22, 0.19, 0.18, 0, 0, 3
 137389189, 0.23, 0.23, 0.23, 0.22, 0.19, 0.18, 0, 0, 3
 137489149, 0.23, 0.24, 0.22, 0.22, 0.19, 0.18, 0, 0, 3
 137589109, 0.22, 0.23, 0.22, 0.22, 0.19, 0.18, 0, 0, 3
 137689069, 0.22, 0.22, 0.22, 0.21, 0.19, 0.18, 0, 0, 3
 137789029, 0.22, 0.21, 0.21, 0.21, 0.19, 0.18, 0, 0, 3
 137888989, 0.22, 0.21, 0.22, 0.2, 0.19, 0.18, 0, 0, 3
 137988949, 0.22, 0.21, 0.22, 0.2, 0.19, 0.18, 0, 0, 3
 138088909, 0.23, 0.21, 0.22, 0.2, 0.19, 0.18, 0, 0, 3
 138188869, 0.22, 0.21, 0.22, 0.21, 0.19, 0.18, 0, 0, 3
 138288829, 0.23, 0.21, 0.22, 0.2, 0.19, 0.18, 0, 0, 3
 138388789, 0.22, 0.21, 0.22, 0.2, 0.19, 0.18, 0, 0, 3
 138488749, 0.23, 0.21, 0.22, 0.21, 0.19, 0.18, 0, 0, 3
 138589542, 0.23, 0.21, 0.22, 0.21, 0.19, 0.18, 0, 0, 3
 138689502, 0.23, 0.21, 0.22, 0.2, 0.19, 0.18, 0, 0, 3
 138789462, 0.23, 0.21, 0.21, 0.2, 0.19, 0.18, 0, 0, 3
 138889422, 0.23, 0.2, 0.21, 0.19, 0.19, 0.18, 0, 0, 3
 138989382, 0.23, 0.21, 0.21, 0.19, 0.19, 0.18, 0, 0, 3
 139089342, 0.23, 0.21, 0.21, 0.18, 0.19, 0.18, 0, 0, 3
 139189302, 0.23, 0.21, 0.22, 0.19, 0.19, 0.18, 0, 0, 3
 139289262, 0.23, 0.21, 0.22, 0.2, 0.19, 0.18, 0, 0, 3
 139389222, 0.23, 0.22, 0.22, 0.2, 0.19, 0.18, 0, 0, 3
 139489182, 0.23, 0.22, 0.21, 0.2, 0.19, 0.18, 0, 0, 3
 139589142, 0.22, 0.21, 0.2, 0.2, 0.19, 0.18, 0, 0, 3
 139689102, 0.22, 0.21, 0.19, 0.19, 0.19, 0.18, 0, 0, 3
 139789062, 0.22, 0.2, 0.19, 0.18, 0.19, 0.17, 0, 0, 3
 139889022, 0.22, 0.2, 0.18, 0.18, 0.19, 0.17, 0, 0, 3
 139988982, 0.22, 0.21, 0.18, 0.17, 0.19, 0.17, 0, 0, 3
 140088942, 0.22, 0.21, 0.17, 0.17, 0.19, 0.17, 0, 0, 3
 140188902, 0.22, 0.21, 0.17, 0.17, 0.19, 0.17, 0, 0, 3
 140288862, 0.21, 0.21, 0.17, 0.16, 0.19, 0.17, 0, 0, 3
 140388822, 0.21, 0.21, 0.16, 0.16, 0.19, 0.18, 0, 0, 3
 140488782, 0.21, 0.2, 0.16, 0.15, 0.19, 0.19, 0, 0, 3
 140588742, 0.21, 0.2, 0.16, 0.15, 0.19, 0.19, 0, 0, 3
 140689535, 0.21, 0.2, 0.17, 0.16, 0.19, 0.19, 0, 0, 3
 140789495, 0.21, 0.2, 0.17, 0.16, 0.19, 0.2, 0, 0, 3
 140889455, 0.21, 0.2, 0.17, 0.16, 0.19, 0.2, 0, 0, 3
 140989415, 0.21, 0.2, 0.18, 0.18, 0.19, 0.19, 0, 0, 3
 141089375, 0.21, 0.2, 0.18, 0.17, 0.19, 0.19, 0, 0, 3
 141189335, 0.21, 0.2, 0.18, 0.17, 0.19, 0.19, 0, 0, 3
 141289295, 0.21, 0.19, 0.18, 0.16, 0.19, 0.19, 0, 0, 3
 141389255, 0.21, 0.18, 0.18, 0.15, 0.19, 0.18, 0, 0, 3
 141489215, 0.21, 0.18, 0.19, 0.16, 0.19, 0.18, 0, 0, 3
 141589175, 0.22, 0.2, 0.19, 0.17, 0.19, 0.18, 0, 0, 3
 141689135, 0.22, 0.2, 0.19, 0.18, 0.19, 0.17, 0, 0, 3
 141789095, 0.21, 0.21, 0.19, 0.18, 0.19, 0.17, 0, 0, 3
 141889055, 0.21, 0.2, 0.19, 0.18, 0.19, 0.18, 0, 0, 3
 141989015, 0.21, 0.2, 0.18, 0.17, 0.19, 0.18, 0, 0, 3
 142088975, 0.21, 0.2, 0.16, 0.16, 0.19, 0.18, 0, 0, 3
 142188935, 0.2, 0.2, 0.15, 0.15, 0.19, 0.18, 0, 0, 3
 142288895, 0.2, 0.19, 0.14, 0.14, 0.19, 0.18, 0, 0, 3
 142388855, 0.2, 0.19, 0.13, 0.13, 0.19, 0.18, 0, 0, 3
 142488815, 0.2, 0.18, 0.12, 0.12, 0.19, 0.18, 0, 0, 3
 142588775, 0.2, 0.19, 0.12, 0.12, 0.19, 0.17, 0, 0, 3
 142688735, 0.19, 0.18, 0.11, 0.11, 0.19, 0.17, 0, 0, 3
 142789528, 0.19, 0.18, 0.11, 0.11, 0.19, 0.17, 0, 0, 3
 142889488, 0.2, 0.18, 0.12, 0.11, 0.19, 0.17, 0, 0, 3
 142989448, 0.2, 0.18, 0.11, 0.11, 0.19, 0.18, 0, 0, 3
 143089408, 0.2, 0.19, 0.12, 0.11, 0.19, 0.18, 0, 0, 3
 143189368, 0.2, 0.19, 0.11, 0.11, 0.19, 0.18, 0, 0, 3
 143289328, 0.2, 0.18, 0.12, 0.11, 0.19, 0.18, 0, 0, 3
 143389288, 0.2, 0.19, 0.12, 0.12, 0.19, 0.18, 0, 0, 3
 143489248, 0.2, 0.18, 0.13, 0.12, 0.19, 0.18, 0, 0, 3
 143589208, 0.2, 0.19, 0.13, 0.13, 0.19, 0.18, 0, 0, 3
 143689168, 0.2, 0.19, 0.13, 0.13, 0.19, 0.18, 0, 0, 3
 143789128, 0.2, 0.19, 0.14, 0.13, 0.19, 0.18, 0, 0, 3
 143889088, 0.2, 0.19, 0.14, 0.13, 0.19, 0.18, 0, 0, 3
 143989048, 0.2, 0.19, 0.14, 0.14, 0.19, 0.18, 0, 0, 3
 144089008, 0.2, 0.19, 0.15, 0.13, 0.19, 0.17, 0, 0, 3
 144188968, 0.19, 0.19, 0.15, 0.13, 0.19, 0.18, 0, 0, 3
 144288928, 0.19, 0.19, 0.15, 0.13, 0.19, 0.18, 0, 0, 3
 144388888, 0.19, 0.18, 0.16, 0.14, 0.19, 0.18, 0, 0, 3
 144488848, 0.18, 0.17, 0.16, 0.15, 0.19, 0.18, 0, 0, 3
 144588808, 0.19, 0.17, 0.16, 0.15, 0.19, 0.18, 0, 0, 3
 144688768, 0.19, 0.18, 0.16, 0.15, 0.19, 0.17, 0, 0, 3
 144789561, 0.19, 0.18, 0.16, 0.16, 0.19, 0.17, 0, 0, 3
 144889521, 0.19, 0.18, 0.16, 0.17, 0.19, 0.18, 0, 0, 3
 144989481, 0.19, 0.18, 0.17, 0.17, 0.19, 0.18, 0, 0, 3
 145089441, 0.19, 0.17, 0.17, 0.17, 0.19, 0.18, 0, 0, 3
 145189401, 0.19, 0.18, 0.18, 0.18, 0.19, 0.19, 0, 0, 3
 145289361, 0.19, 0.18, 0.19, 0.19, 0.19, 0.19, 0, 0, 3
 145389321, 0.19, 0.18, 0.2, 0.2, 0.19, 0.19, 0, 0, 3
 145489281, 0.19, 0.19, 0.2, 0.2, 0.19, 0.19, 0, 0, 3
 145589241, 0.18, 0.18, 0.2, 0.2, 0.19, 0.19, 0, 0, 3
 145689201, 0.18, 0.18, 0.2, 0.19, 0.19, 0.19, 0, 0, 3
 145789161, 0.18, 0.17, 0.2, 0.19, 0.19, 0.19, 0, 0, 3
 145889121, 0.18, 0.17, 0.2, 0.19, 0.19, 0.18, 0, 0, 3
 145989081, 0.18, 0.17, 0.21, 0.19, 0.19, 0.18, 0, 0, 3
 146089041, 0.18, 0.16, 0.2, 0.19, 0.19, 0.18, 0, 0, 3
 146189001, 0.18, 0.17, 0.2, 0.2, 0.19, 0.18, 0, 0, 3
 146288961, 0.18, 0.17, 0.2, 0.19, 0.19, 0.18, 0, 0, 3
 146388921, 0.18, 0.17, 0.19, 0.19, 0.19, 0.18, 0, 0, 3
 146488881, 0.18, 0.17, 0.19, 0.17, 0.19, 0.18, 0, 0, 3
 146588841, 0.18, 0.17, 0.18, 0.17, 0.19, 0.18, 0, 0, 3
 146688801, 0.18, 0.17, 0.18, 0.17, 0.19, 0.18, 0, 0, 3
 146788761, 0.18, 0.17, 0.18, 0.17, 0.19, 0.18, 0, 0, 3
 146889554, 0.19, 0.17, 0.18, 0.17, 0.19, 0.18, 0, 0, 3
 146989514, 0.19, 0.18, 0.18, 0.16, 0.19, 0.18, 0, 0, 3
 147089474, 0.19, 0.18, 0.17, 0.16, 0.19, 0.18, 0, 0, 3
 147189434, 0.19, 0.17, 0.17, 0.16, 0.19, 0.19, 0, 0, 3
 147289394, 0.19, 0.17, 0.17, 0.17, 0.19, 0.19, 0, 0, 3
 147389354, 0.19, 0.18, 0.16, 0.16, 0.19, 0.19, 0, 0, 3
 147489314, 0.18, 0.18, 0.15, 0.15, 0.19, 0.19, 0, 0, 3
 147589274, 0.19, 0.18, 0.1, 0.11, 0.19, 0.19, 0, 0, 3
 147689234, 0.22, 0.21, -0.09, -0.06, 0.19, 0.19, 0, 0, 3
 147789194, 0.28, 0.27, -0.52, -0.47, 0.19, 0.19, 0, 0, 3
 147889154, 0.36, 0.35, -1.07, -1.03, 0.19, 0.18, 0, 0, 3
 147989114, 0.44, 0.43, -1.65, -1.62, 0.18, 0.18, 0, 0, 3
 148089074, 0.52, 0.51, -2.19, -2.2, 0.18, 0.17, 0, 0, 3
 148189034, 0.59, 0.59, -2.7, -2.72, 0.18, 0.16, 0, 0, 3
 148288994, 0.66, 0.65, -3.18, -3.21, 0.17, 0.14, 0, 0, 3
 148388954, 0.72, 0.72, -3.65, -3.67, 0.17, 0.13, 0, 0, 3
 148488914, 0.79, 0.79, -4.1, -4.11, 0.16, 0.1, 0, 0, 3
 148588874, 0.85, 0.86, -4.56, -4.57, 0.16, 0.08, 0, 0, 3
 148688834, 0.92, 0.92, -5.01, -5.03, 0.15, 0.03, 0, 0, 3
 148788794, 0.91, 0.99, -5.48, -5.48, 0.98, 0, 0, 0, 3
 148888754, 0.65, 1.05, -5.99, -5.94, 4.11, 0.08, 0, 0, 3
 148989547, 0.45, 1.07, -6.48, -6.42, 6.27, 0.64, 0, 0, 3
 149089507, 0.35, 1.01, -6.98, -6.92, 7.37, 1.65, 0, 0, 3
 149189467, 0.29, 0.9, -7.51, -7.46, 7.93, 3.1, 0, 0, 3
 149289427, 0.27, 0.73, -8.02, -7.99, 8.22, 4.74, 0, 0, 3
 149389387, 0.27, 0.51, -8.56, -8.55, 8.37, 6.54, 0, 0.01, 3
 149489347, 0.27, 0.27, -9.11, -9.11, 8.44, 8.25, 0, 0.01, 3
 149589307, 0.28, 0.02, -9.68, -9.69, 8.48, 9.87, 0, 0.01, 3
 149689267, 0.3, -0.22, -10.27, -10.27, 8.49, 11.21, 0, 0.01, 3
 149789227, 0.31, -0.42, -10.87, -10.87, 8.5, 12.29, 0, 0.01, 3
 149889187, 0.32, -0.6, -11.47, -11.46, 8.5, 12.98, 0, 0.01, 3
 149989147, 0.32, -0.7, -11.96, -11.97, 8.5, 13.34, 0, 0.01, 3
 150089107, 0.32, -0.73, -12.32, -12.34, 8.5, 13.31, 0, 0.01, 3
 150189067, 0.32, -0.67, -12.54, -12.57, 8.5, 12.98, 0, 0, 3
 150289027, 0.31, -0.56, -12.7, -12.73, 8.5, 12.36, 0, 0, 3
 150388987, 0.29, -0.39, -12.74, -12.77, 8.51, 11.55, 0, 0, 3
 150488947, 0.27, -0.2, -12.62, -12.66, 8.51, 10.58, 0, 0, 3
 150588907, 0.25, 0, -12.46, -12.48, 8.51, 9.59, 0, 0, 3
 150688867, 0.22, 0.18, -12.34, -12.35, 8.52, 8.6, 0, 0, 3
 150788827, 0.18, 0.35, -12.25, -12.25, 8.52, 7.71, 0, 0, 3
 150888787, 0.14, 0.46, -12.18, -12.17, 8.52, 6.95, 0, 0, 3
 150988747, 0.1, 0.54, -12.12, -12.11, 8.53, 6.37, 0, 0, 3
 151089540, 0.06, 0.58, -12.05, -12.02, 8.53, 5.99, 0, 0, 3
 151189500, 0.02, 0.57, -11.99, -11.96, 8.54, 5.82, 0, 0, 3
 151289460, 0, 0.53, -11.93, -11.91, 8.54, 5.85, 0, 0, 3
 151389420, -0.03, 0.45, -11.85, -11.83, 8.54, 6.06, 0, 0, 3
 151489380, -0.05, 0.37, -11.77, -11.76, 8.54, 6.41, 0, 0, 3
 151589340, -0.07, 0.25, -11.67, -11.67, 8.55, 6.88, 0, 0, 3
 151689300, -0.08, 0.13, -11.55, -11.56, 8.55, 7.41, 0, 0, 3
 151789260, -0.08, 0.02, -11.41, -11.43, 8.55, 7.97, 0, 0, 3
 151889220, -0.08, -0.08, -11.25, -11.28, 8.55, 8.52, 0, 0, 3
 151989180, -0.07, -0.16, -11.07, -11.09, 8.55, 9.01, 0, 0, 3
 152089140, -0.06, -0.23, -10.88, -10.89, 8.54, 9.43, 0, 0, 3
 152189100, -0.04, -0.28, -10.69, -10.69, 8.54, 9.75, 0, 0, 3
 152289060, -0.03, -0.3, -10.44, -10.45, 8.54, 9.96, 0, 0, 3
 152389020, -0.01, -0.28, -10.17, -10.18, 8.54, 10.06, 0, 0, 3
 152488980, 0, -0.25, -9.9, -9.9, 8.54, 10.04, 0, 0, 3
 152588940, 0.02, -0.21, -9.69, -9.68, 8.54, 9.92, 0, 0, 3
 152688900, 0.03, -0.17, -9.68, -9.64, 8.54, 9.73, 0, 0, 3
 152788860, 0.04, -0.11, -9.8, -9.76, 8.54, 9.47, 0, 0, 3
 152888820, 0.05, -0.06, -9.93, -9.9, 8.53, 9.17, 0, 0, 3
 152988780, 0.06, 0, -10.04, -10.02, 8.53, 8.86, 0, 0, 3
 153088740, 0.06, 0.06, -10.12, -10.13, 8.53, 8.55, 0, 0, 3
 153189533, 0.06, 0.11, -10.15, -10.17, 8.53, 8.27, 0, 0, 3
 153289493, 0.06, 0.14, -10.19, -10.21, 8.53, 8.04, 0, 0, 3
 153389453, 0.06, 0.17, -10.2, -10.22, 8.53, 7.85, 0, 0, 3
 153489413, 0.06, 0.19, -10.2, -10.22, 8.53, 7.73, 0, 0, 3
 153589373, 0.06, 0.2, -10.21, -10.22, 8.53, 7.68, 0, 0, 3
 153689333, 0.06, 0.19, -10.22, -10.23, 8.53, 7.68, 0, 0, 3
 153789293, 0.06, 0.18, -10.21, -10.23, 8.53, 7.74, 0, 0, 3
 153889253, 0.07, 0.17, -10.19, -10.21, 8.53, 7.85, 0, 0, 3
 153989213, 0.08, 0.16, -10.17, -10.18, 8.53, 7.99, 0, 0, 3
 154089173, 0.09, 0.14, -10.14, -10.16, 8.53, 8.17, 0, 0, 3
 154189133, 0.1, 0.13, -10.11, -10.11, 8.53, 8.34, 0, 0, 3
 154289093, 0.11, 0.1, -10.12, -10.11, 8.53, 8.52, 0, 0, 3
 154389053, 0.12, 0.09, -10.08, -10.09, 8.53, 8.69, 0, 0, 3
 154489013, 0.13, 0.07, -10.04, -10.05, 8.53, 8.83, 0, 0, 3
 154588973, 0.14, 0.06, -10, -10.01, 8.53, 8.94, 0, 0, 3
 154688933, 0.16, 0.07, -9.94, -9.95, 8.53, 9.03, 0, 0, 3
 154788893, 0.17, 0.07, -9.92, -9.92, 8.52, 9.06, 0, 0, 3
 154888853, 0.18, 0.09, -9.9, -9.9, 8.52, 9.07, 0, 0, 3
 154988813, 0.18, 0.1, -9.87, -9.88, 8.52, 9.03, 0, 0, 3
 155088773, 0.19, 0.11, -9.84, -9.87, 8.52, 8.98, 0, 0, 3
 155189566, 0.19, 0.13, -9.81, -9.83, 8.52, 8.89, 0, 0, 3
 155289526, 0.2, 0.15, -9.78, -9.79, 8.52, 8.8, 0, 0, 3
 155389486, 0.2, 0.18, -9.81, -9.79, 8.52, 8.69, 0, 0, 3
 155489446, 0.2, 0.19, -9.81, -9.8, 8.52, 8.59, 0, 0, 3
 155589406, 0.2, 0.21, -9.82, -9.8, 8.52, 8.5, 0, 0, 3
 155689366, 0.2, 0.23, -9.84, -9.82, 8.52, 8.42, 0, 0, 3
 155789326, 0.19, 0.24, -9.84, -9.83, 8.52, 8.35, 0, 0, 3
 155889286, 0.19, 0.24, -9.84, -9.83, 8.52, 8.3, 0, 0, 3
 155989246, 0.19, 0.24, -9.83, -9.83, 8.52, 8.27, 0, 0, 3
 156089206, 0.18, 0.23, -9.82, -9.83, 8.52, 8.27, 0, 0, 3
 156189166, 0.18, 0.23, -9.81, -9.82, 8.52, 8.28, 0, 0, 3
 156289126, 0.17, 0.21, -9.82, -9.82, 8.52, 8.31, 0, 0, 3
 156389086, 0.17, 0.2, -9.83, -9.84, 8.52, 8.34, 0, 0, 3
 156489046, 0.17, 0.19, -9.81, -9.83, 8.52, 8.39, 0, 0, 3
 156589006, 0.17, 0.18, -9.79, -9.8, 8.52, 8.44, 0, 0, 3
 156688966, 0.18, 0.17, -9.77, -9.79, 8.52, 8.5, 0, 0, 3
 156788926, 0.18, 0.17, -9.73, -9.75, 8.52, 8.56, 0, 0, 3
 156888886, 0.18, 0.16, -9.73, -9.74, 8.52, 8.61, 0, 0, 3
 156988846, 0.18, 0.15, -9.73, -9.74, 8.52, 8.64, 0, 0, 3
 157088806, 0.17, 0.15, -9.73, -9.74, 8.52, 8.67, 0, 0, 3
 157188766, 0.17, 0.14, -9.73, -9.74, 8.52, 8.68, 0, 0, 3
 157289559, 0.17, 0.14, -9.72, -9.73, 8.52, 8.69, 0, 0, 3
 157389519, 0.17, 0.14, -9.68, -9.69, 8.52, 8.69, 0, 0, 3
 157489479, 0.17, 0.13, -9.68, -9.69, 8.52, 8.68, 0, 0, 3
 157589439, 0.16, 0.14, -9.66, -9.67, 8.53, 8.66, 0, 0, 3
 157689399, 0.16, 0.14, -9.66, -9.67, 8.53, 8.65, 0, 0, 3
 157789359, 0.15, 0.14, -9.67, -9.67, 8.53, 8.63, 0, 0, 3
 157889319, 0.14, 0.14, -9.68, -9.69, 8.53, 8.61, 0, 0, 3
 157989279, 0.14, 0.14, -9.69, -9.69, 8.53, 8.58, 0, 0, 3
 158089239, 0.13, 0.14, -9.69, -9.7, 8.53, 8.56, 0, 0, 3
 158189199, 0.13, 0.13, -9.69, -9.7, 8.53, 8.54, 0, 0, 3
 158289159, 0.13, 0.13, -9.7, -9.71, 8.53, 8.53, 0, 0, 3
 158389119, 0.13, 0.14, -9.73, -9.73, 8.53, 8.51, 0, 0, 3
 158489079, 0.13, 0.13, -9.75, -9.76, 8.53, 8.51, 0, 0, 3
 158589039, 0.13, 0.13, -9.74, -9.76, 8.53, 8.5, 0, 0, 3
 158688999, 0.13, 0.13, -9.74, -9.76, 8.53, 8.5, 0, 0, 3
 158788959, 0.13, 0.13, -9.73, -9.75, 8.53, 8.51, 0, 0, 3
 158888919, 0.13, 0.13, -9.71, -9.7, 8.53, 8.52, 0, 0, 3
 158988879, 0.13, 0.14, -9.73, -9.7, 8.53, 8.52, 0, 0, 3
 159088839, 0.14, 0.15, -9.75, -9.72, 8.53, 8.53, 0, 0, 3
 159188799, 0.14, 0.15, -9.76, -9.74, 8.53, 8.54, 0, 0, 3
 159288759, 0.13, 0.14, -9.76, -9.75, 8.53, 8.55, 0, 0, 3
 159389552, 0.13, 0.14, -9.75, -9.75, 8.53, 8.55, 0, 0, 3
 159489512, 0.13, 0.13, -9.73, -9.73, 8.53, 8.55, 0, 0, 3
 159589472, 0.13, 0.12, -9.73, -9.74, 8.53, 8.55, 0, 0, 3
 159689432, 0.14, 0.12, -9.7, -9.72, 8.53, 8.55, 0, 0, 3
 159789392, 0.14, 0.11, -9.7, -9.7, 8.53, 8.55, 0, 0, 3
 159889352, 0.15, 0.12, -9.74, -9.72, 8.53, 8.55, 0, 0, 3
 159989312, 0.16, 0.14, -9.78, -9.76, 8.53, 8.55, 0, 0, 3
 160089272, 0.16, 0.15, -9.81, -9.8, 8.53, 8.55, 0, 0, 3
 160189232, 0.16, 0.15, -9.83, -9.84, 8.53, 8.54, 0, 0, 3
 160289192, 0.15, 0.15, -9.84, -9.86, 8.53, 8.53, 0, 0, 3
 160389152, 0.16, 0.15, -9.85, -9.86, 8.53, 8.52, 0, 0, 3
 160489112, 0.16, 0.15, -9.88, -9.88, 8.52, 8.52, 0, 0, 3
 160589072, 0.16, 0.15, -9.89, -9.92, 8.52, 8.51, 0, 0, 3
 160689032, 0.16, 0.16, -9.87, -9.91, 8.52, 8.51, 0, 0, 3
 160788992, 0.16, 0.16, -9.86, -9.9, 8.52, 8.5, 0, 0, 3
 160888952, 0.16, 0.16, -9.84, -9.87, 8.52, 8.49, 0, 0, 3
 160988912, 0.16, 0.16, -9.82, -9.82, 8.52, 8.49, 0, 0, 3
 161088872, 0.16, 0.16, -9.84, -9.81, 8.52, 8.49, 0, 0, 3
 161188832, 0.17, 0.16, -9.85, -9.82, 8.52, 8.49, 0, 0, 3
 161288792, 0.16, 0.16, -9.85, -9.83, 8.52, 8.49, 0, 0, 3
 161388752, 0.16, 0.16, -9.85, -9.84, 8.52, 8.48, 0, 0, 3
 161489545, 0.17, 0.17, -9.82, -9.82, 8.52, 8.48, 0, 0, 3
 161589505, 0.17, 0.18, -9.8, -9.78, 8.52, 8.48, 0, 0, 3
 161689465, 0.16, 0.18, -9.81, -9.79, 8.52, 8.48, 0, 0, 3
 161789425, 0.16, 0.18, -9.78, -9.77, 8.52, 8.48, 0, 0, 3
 161889385, 0.16, 0.18, -9.79, -9.77, 8.53, 8.48, 0, 0, 3
 161989345, 0.16, 0.17, -9.79, -9.77, 8.53, 8.48, 0, 0, 3
 162089305, 0.16, 0.17, -9.79, -9.78, 8.53, 8.48, 0, 0, 3
 162189265, 0.16, 0.17, -9.79, -9.79, 8.53, 8.49, 0, 0, 3
 162289225, 0.16, 0.16, -9.78, -9.79, 8.53, 8.5, 0, 0, 3
 162389185, 0.16, 0.16, -9.77, -9.79, 8.53, 8.52, 0, 0, 3
 162489145, 0.16, 0.16, -9.75, -9.78, 8.53, 8.54, 0, 0, 3
 162589105, 0.16, 0.15, -9.77, -9.79, 8.53, 8.55, 0, 0, 3
 162689065, 0.16, 0.16, -9.77, -9.79, 8.52, 8.56, 0, 0, 3
 162789025, 0.17, 0.16, -9.75, -9.78, 8.52, 8.57, 0, 0, 3
 162888985, 0.17, 0.16, -9.74, -9.76, 8.52, 8.57, 0, 0, 3
 162988945, 0.18, 0.17, -9.71, -9.74, 8.52, 8.57, 0, 0, 3
 163088905, 0.18, 0.18, -9.71, -9.73, 8.52, 8.56, 0, 0, 3
 163188865, 0.17, 0.18, -9.72, -9.73, 8.52, 8.55, 0, 0, 3
 163288825, 0.17, 0.17, -9.72, -9.74, 8.52, 8.53, 0, 0, 3
 163388785, 0.17, 0.18, -9.72, -9.73, 8.52, 8.51, 0, 0, 3
 163488745, 0.17, 0.18, -9.71, -9.73, 8.52, 8.5, 0, 0, 3
 163589538, 0.17, 0.18, -9.69, -9.7, 8.52, 8.49, 0, 0, 3
 163689498, 0.17, 0.18, -9.68, -9.69, 8.52, 8.49, 0, 0, 3
 163789458, 0.17, 0.18, -9.68, -9.69, 8.52, 8.5, 0, 0, 3
 163889418, 0.17, 0.18, -9.66, -9.67, 8.52, 8.5, 0, 0, 3
 163989378, 0.17, 0.17, -9.68, -9.68, 8.52, 8.51, 0, 0, 3
 164089338, 0.17, 0.17, -9.68, -9.69, 8.52, 8.53, 0, 0, 3
 164189298, 0.18, 0.17, -9.67, -9.68, 8.52, 8.53, 0, 0, 3
 164289258, 0.18, 0.17, -9.67, -9.68, 8.52, 8.54, 0, 0, 3
 164389218, 0.19, 0.17, -9.67, -9.68, 8.52, 8.54, 0, 0, 3
 164489178, 0.19, 0.17, -9.67, -9.68, 8.52, 8.54, 0, 0, 3
 164589138, 0.19, 0.18, -9.67, -9.68, 8.52, 8.53, 0, 0, 3
 164689098, 0.19, 0.18, -9.7, -9.72, 8.52, 8.53, 0, 0, 3
 164789058, 0.2, 0.18, -9.71, -9.72, 8.52, 8.52, 0, 0, 3
 164889018, 0.2, 0.19, -9.7, -9.71, 8.52, 8.52, 0, 0, 3
 164988978, 0.2, 0.19, -9.7, -9.71, 8.52, 8.52, 0, 0, 3
 165088938, 0.21, 0.2, -9.67, -9.69, 8.52, 8.52, 0, 0, 3
 165188898, 0.2, 0.2, -9.68, -9.68, 8.52, 8.52, 0, 0, 3
 165288858, 0.2, 0.19, -9.72, -9.71, 8.52, 8.52, 0, 0, 3
 165388818, 0.2, 0.19, -9.76, -9.76, 8.52, 8.52, 0, 0, 3
 165488778, 0.2, 0.19, -9.79, -9.8, 8.52, 8.52, 0, 0, 3
 165588738, 0.2, 0.19, -9.82, -9.83, 8.52, 8.52, 0, 0, 3
 165689531, 0.2, 0.19, -9.81, -9.82, 8.52, 8.52, 0, 0, 3
 165789491, 0.2, 0.19, -9.83, -9.83, 8.52, 8.53, 0, 0, 3
 165889451, 0.2, 0.19, -9.84, -9.85, 8.52, 8.52, 0, 0, 3
 165989411, 0.21, 0.2, -9.85, -9.86, 8.52, 8.52, 0, 0, 3
 166089371, 0.21, 0.2, -9.87, -9.88, 8.52, 8.52, 0, 0, 3
 166189331, 0.21, 0.2, -9.88, -9.89, 8.52, 8.52, 0, 0, 3
 166289291, 0.2, 0.2, -9.89, -9.9, 8.52, 8.52, 0, 0, 3
 166389251, 0.2, 0.2, -9.89, -9.9, 8.52, 8.52, 0, 0, 3
 166489211, 0.2, 0.19, -9.89, -9.9, 8.52, 8.52, 0, 0, 3
 166589171, 0.2, 0.19, -9.89, -9.9, 8.52, 8.52, 0, 0, 3
 166689131, 0.2, 0.19, -9.88, -9.89, 8.52, 8.52, 0, 0, 3
 166789091, 0.2, 0.19, -9.89, -9.9, 8.52, 8.52, 0, 0, 3
 166889051, 0.2, 0.19, -9.88, -9.9, 8.52, 8.52, 0, 0, 3
 166989011, 0.2, 0.2, -9.86, -9.88, 8.52, 8.52, 0, 0, 3
 167088971, 0.2, 0.2, -9.85, -9.87, 8.52, 8.53, 0, 0, 3
 167188931, 0.2, 0.2, -9.81, -9.83, 8.52, 8.53, 0, 0, 3
 167288891, 0.2, 0.19, -9.81, -9.82, 8.52, 8.54, 0, 0, 3
 167388851, 0.2, 0.19, -9.8, -9.81, 8.52, 8.53, 0, 0, 3
 167488811, 0.2, 0.19, -9.79, -9.81, 8.52, 8.53, 0, 0, 3
 167588771, 0.2, 0.19, -9.78, -9.79, 8.52, 8.52, 0, 0, 3
 167689564, 0.2, 0.19, -9.77, -9.78, 8.52, 8.52, 0, 0, 3
 167789524, 0.2, 0.19, -9.73, -9.74, 8.52, 8.52, 0, 0, 3
 167889484, 0.2, 0.19, -9.72, -9.72, 8.52, 8.52, 0, 0, 3
 167989444, 0.2, 0.19, -9.59, -9.61, 8.52, 8.52, 0, 0, 3
 168089404, 0.2, 0.18, -9.27, -9.32, 8.52, 8.52, 0, 0, 3
 168189364, 0.2, 0.18, -8.79, -8.86, 8.52, 8.52, 0, 0, 3
 168289324, 0.2, 0.18, -8.23, -8.3, 8.52, 8.52, 0, 0, 3
 168389284, 0.2, 0.19, -7.66, -7.69, 8.53, 8.53, 0, 0, 3
 168489244, 0.2, 0.19, -7.08, -7.1, 8.53, 8.53, 0, 0, 3
 168589204, 0.2, 0.19, -6.5, -6.51, 8.53, 8.53, 0, 0, 3
 168689164, 0.2, 0.2, -5.91, -5.92, 8.53, 8.53, 0, 0, 3
 168789124, 0.2, 0.2, -5.31, -5.32, 8.53, 8.53, 0, 0, 3
 168889084, 0.21, 0.2, -4.69, -4.7, 8.53, 8.53, 0, 0, 3
 168989044, 0.25, 0.24, -3.9, -3.94, 8.55, 8.53, 0, 0, 3
 169089004, 0.37, 0.35, -2.86, -2.94, 8.6, 8.54, 0, 0, 3
 169188964, 0.57, 0.55, -1.61, -1.68, 8.71, 8.56, 0, 0, 3
 169288924, 0.79, 0.78, -0.23, -0.29, 8.88, 8.6, 0, 0, 3
 169388884, 1.04, 1.02, 1.17, 1.14, 9.12, 8.67, 0, 0, 3
 169488844, 1.3, 1.27, 2.64, 2.62, 9.45, 8.8, 0, 0, 3
 169588804, 1.6, 1.54, 4.15, 4.15, 9.89, 8.99, 0, 0, 3
 169688764, 1.94, 1.81, 5.7, 5.73, 10.46, 9.26, 0, 0, 3
 169789557, 2.34, 2.13, 7.3, 7.37, 11.21, 9.64, 0, 0, 3
 169889517, 2.82, 2.49, 8.94, 9.05, 12.2, 10.16, 0, 0, 3
 169989477, 3.43, 2.92, 10.6, 10.76, 13.52, 10.86, 0, 0, 3
 170089437, 4.22, 3.46, 12.21, 12.47, 15.33, 11.78, 0.01, 0, 3
 170189397, 5.27, 4.1, 13.62, 14.06, 17.87, 13, 0.01, 0, 3
 170289357, 6.72, 4.91, 14.66, 15.42, 21.61, 14.63, 0.01, 0, 3
 170389317, 8.8, 5.95, 15.17, 16.54, 27.26, 16.87, 0.01, 0, 3
 170489277, 11.15, 7.31, 15.18, 17.39, 33.58, 19.96, 0.01, 0, 3
 170589237, 13.47, 9.04, 14.68, 17.81, 39.82, 24.07, 0.01, 0, 3
 170689197, 15.66, 11.09, 13.72, 17.68, 45.96, 29.14, 0, 0.01, 3
 170789157, 17.69, 13.39, 12.37, 17.03, 51.97, 35.1, 0, 0.01, 3
 170889117, 19.53, 15.81, 10.73, 15.82, 57.87, 41.74, 0, 0.01, 3
 170989077, 21.09, 18.2, 8.8, 13.99, 63.64, 49.02, 0, 0.01, 3
 171089037, 22.29, 20.33, 6.63, 11.53, 69.28, 56.7, 0, 0.02, 3
 171188997, 23.17, 22.07, 4.28, 8.53, 74.83, 64.65, 0, 0.02, 3
 171288957, 23.75, 23.34, 1.82, 5.09, 80.31, 72.84, 0, 0.02, 3
 171388917, 24.06, 24.05, -0.69, 1.4, 85.76, 81.05, 0, 0.02, 3
 171488877, 24.13, 24.23, -3.25, -2.41, 91.19, 89.27, 0, 0.02, 3
 171588837, 23.85, 23.79, -5.77, -6.15, 96.65, 97.43, 0, 0.02, 3
 171688797, 23.14, 22.67, -8.21, -9.62, 102.18, 105.45, 0.01, 0.02, 3
 171788757, 22.07, 21, -10.52, -12.68, 107.79, 113.26, 0.01, 0.02, 3
 171889550, 20.68, 18.92, -12.7, -15.3, 113.5, 120.83, 0.01, 0.02, 3
 171989510, 19.05, 16.65, -14.76, -17.45, 119.3, 127.92, 0.01, 0.02, 3
 172089470, 17.2, 14.29, -16.7, -19.23, 125.2, 134.56, 0.01, 0.02, 3
 172189430, 15.13, 11.91, -18.48, -20.65, 131.21, 140.73, 0.01, 0.02, 3
 172289390, 12.87, 9.57, -20.11, -21.8, 137.33, 146.47, 0.01, 0.02, 3
 172389350, 10.43, 7.29, -21.54, -22.73, 143.57, 151.81, 0.01, 0.02, 3
 172489310, 7.83, 5.09, -22.75, -23.47, 149.92, 156.84, 0.01, 0.02, 3
 172589270, 5.11, 2.95, -23.71, -24.04, 156.38, 161.65, 0.01, 0.02, 3
 172689230, 2.66, 0.86, -24.36, -24.47, 162.06, 166.33, 0.01, 0.01, 3
 172789190, 1.3, -1.12, -24.76, -24.76, 165.17, 170.87, 0.01, 0.01, 3
 172889150, 0.69, -2.85, -25.08, -24.93, 166.74, 175.03, 0.01, 0.01, 3
 172989110, 0.52, -4.2, -25.37, -25.05, 167.51, 178.49, 0.01, 0.01, 3
 173089070, 0.56, -5.15, -25.59, -25.12, 167.87, 181.14, 0.01, 0.01, 3
 173189030, 0.71, -5.7, -25.77, -25.2, 168.03, 182.85, 0.01, 0.01, 3
 173288990, 0.87, -5.88, -25.95, -25.34, 168.09, 183.64, 0.01, 0.01, 3
 173388950, 1.04, -5.71, -26.11, -25.56, 168.1, 183.57, 0.01, 0.01, 3
 173488910, 1.19, -5.23, -26.29, -25.83, 168.09, 182.7, 0, 0, 3
 173588870, 1.32, -4.49, -26.52, -26.19, 168.07, 181.17, 0, 0, 3
 173688830, 1.41, -3.51, -26.76, -26.57, 168.05, 179.06, 0, 0, 3
 173788790, 1.47, -2.37, -26.99, -26.93, 168.04, 176.54, 0, 0, 3
 173888750, 1.46, -1.12, -27.23, -27.24, 168.04, 173.73, 0, 0, 3
 173989543, 1.37, 0.14, -27.43, -27.47, 168.06, 170.78, 0, 0, 3
 174089503, 1.2, 1.32, -27.63, -27.62, 168.1, 167.92, 0, 0, 3
 174189463, 0.96, 2.31, -27.82, -27.75, 168.15, 165.3, 0, 0, 3
 174289423, 0.65, 3.08, -27.92, -27.78, 168.23, 163.09, 0, 0, 3
 174389383, 0.33, 3.59, -28.02, -27.81, 168.31, 161.39, 0, 0, 3
 174489343, 0.01, 3.83, -28.08, -27.83, 168.39, 160.26, 0, 0, 3
 174589303, -0.28, 3.81, -28.09, -27.85, 168.46, 159.74, 0, 0, 3
 174689263, -0.55, 3.54, -28.07, -27.87, 168.53, 159.8, 0, 0, 3
 174789223, -0.78, 3.05, -28.02, -27.88, 168.59, 160.39, 0, 0, 3
 174889183, -0.96, 2.39, -27.96, -27.88, 168.63, 161.42, 0, 0, 3
 174989143, -1.08, 1.62, -27.87, -27.86, 168.66, 162.82, 0, 0, 3
 175089103, -1.15, 0.8, -27.81, -27.83, 168.68, 164.44, 0, 0, 3
 175189063, -1.14, -0.02, -27.68, -27.72, 168.68, 166.19, 0, 0, 3
 175289023, -1.07, -0.77, -27.51, -27.53, 168.66, 167.94, 0, 0, 3
 175388983, -0.93, -1.4, -27.3, -27.3, 168.62, 169.58, 0, 0, 3
 175488943, -0.74, -1.88, -27.03, -27, 168.57, 171.02, 0, 0, 3
 175588903, -0.5, -2.17, -26.83, -26.74, 168.51, 172.16, 0, 0, 3
 175688863, -0.26, -2.3, -26.76, -26.64, 168.46, 172.97, 0, 0, 3
 175788823, -0.01, -2.29, -26.8, -26.67, 168.4, 173.43, 0, 0, 3
 175888783, 0.2, -2.13, -26.88, -26.77, 168.34, 173.54, 0, 0, 3
 175988743, 0.39, -1.86, -26.96, -26.88, 168.3, 173.3, 0, 0, 3
 176089536, 0.54, -1.47, -26.99, -26.95, 168.26, 172.76, 0, 0, 3
 176189496, 0.66, -1.03, -27.05, -27.03, 168.23, 171.99, 0, 0, 3
 176289456, 0.73, -0.53, -27.13, -27.13, 168.22, 171.04, 0, 0, 3
 176389416, 0.75, -0.03, -27.2, -27.21, 168.21, 169.99, 0, 0, 3
 176489376, 0.72, 0.42, -27.3, -27.3, 168.22, 168.91, 0, 0, 3
 176589336, 0.65, 0.83, -27.38, -27.38, 168.23, 167.88, 0, 0, 3
 176689296, 0.54, 1.16, -27.45, -27.43, 168.26, 166.95, 0, 0, 3
 176789256, 0.41, 1.4, -27.49, -27.46, 168.29, 166.18, 0, 0, 3
 176889216, 0.27, 1.55, -27.53, -27.48, 168.33, 165.61, 0, 0, 3
 176989176, 0.12, 1.58, -27.56, -27.53, 168.36, 165.26, 0, 0, 3
 177089136, 0, 1.51, -27.59, -27.57, 168.4, 165.12, 0, 0, 3
 177189096, -0.13, 1.36, -27.65, -27.63, 168.43, 165.2, 0, 0, 3
 177289056, -0.22, 1.13, -27.66, -27.65, 168.45, 165.47, 0, 0, 3
 177389016, -0.29, 0.86, -27.66, -27.65, 168.47, 165.91, 0, 0, 3
 177488976, -0.33, 0.58, -27.67, -27.67, 168.48, 166.47, 0, 0, 3
 177588936, -0.34, 0.28, -27.64, -27.66, 168.48, 167.1, 0, 0, 3
 177688896, -0.31, 0, -27.65, -27.66, 168.47, 167.77, 0, 0, 3
 177788856, -0.26, -0.25, -27.68, -27.67, 168.46, 168.41, 0, 0, 3
 177888816, -0.19, -0.46, -27.7, -27.68, 168.44, 169, 0, 0, 3
 177988776, -0.11, -0.61, -27.71, -27.69, 168.42, 169.51, 0, 0, 3
 178088736, -0.01, -0.71, -27.72, -27.69, 168.4, 169.9, 0, 0, 3
 178189529, 0.09, -0.74, -27.68, -27.67, 168.37, 170.16, 0, 0, 3
 178289489, 0.2, -0.7, -27.68, -27.67, 168.34, 170.28, 0, 0, 3
 178389449, 0.3, -0.61, -27.67, -27.66, 168.32, 170.27, 0, 0, 3
 178489409, 0.37, -0.48, -27.66, -27.65, 168.3, 170.13, 0, 0, 3
 178589369, 0.44, -0.3, -27.68, -27.67, 168.28, 169.89, 0, 0, 3
 178689329, 0.47, -0.12, -27.7, -27.69, 168.28, 169.56, 0, 0, 3
 178789289, 0.48, 0.06, -27.71, -27.71, 168.27, 169.18, 0, 0, 3
 178889249, 0.48, 0.25, -27.73, -27.72, 168.27, 168.78, 0, 0, 3
 178989209, 0.46, 0.42, -27.74, -27.74, 168.28, 168.37, 0, 0, 3
 179089169, 0.42, 0.58, -27.76, -27.76, 168.29, 167.99, 0, 0, 3
 179189129, 0.37, 0.68, -27.77, -27.77, 168.3, 167.66, 0, 0, 3
 179289089, 0.31, 0.75, -27.82, -27.81, 168.31, 167.39, 0, 0, 3
 179389049, 0.25, 0.78, -27.82, -27.84, 168.33, 167.21, 0, 0, 3
 179489009, 0.19, 0.77, -27.81, -27.84, 168.35, 167.1, 0, 0, 3
 179588969, 0.12, 0.73, -27.8, -27.84, 168.36, 167.08, 0, 0, 3
 179688929, 0.07, 0.66, -27.76, -27.78, 168.37, 167.14, 0, 0, 3
 179788889, 0.03, 0.56, -27.77, -27.77, 168.38, 167.27, 0, 0, 3
 179888849, 0, 0.44, -27.79, -27.79, 168.39, 167.45, 0, 0, 3
 179988809, 0, 0.32, -27.8, -27.8, 168.4, 167.68, 0, 0, 3
 180088769, 0, 0.2, -27.8, -27.79, 168.4, 167.94, 0, 0, 3
 180189562, 0, 0.09, -27.81, -27.79, 168.39, 168.2, 0, 0, 3
 180289522, 0.02, 0, -27.77, -27.75, 168.39, 168.44, 0, 0, 3
 180389482, 0.06, -0.06, -27.79, -27.76, 168.38, 168.66, 0, 0, 3
 180489442, 0.1, -0.11, -27.76, -27.75, 168.37, 168.84, 0, 0, 3
 180589402, 0.14, -0.14, -27.76, -27.74, 168.36, 168.98, 0, 0, 3
 180689362, 0.18, -0.14, -27.8, -27.78, 168.35, 169.06, 0, 0, 3
 180789322, 0.22, -0.11, -27.86, -27.84, 168.34, 169.09, 0, 0, 3
 180889282, 0.25, -0.07, -27.91, -27.9, 168.33, 169.06, 0, 0, 3
 180989242, 0.28, -0.01, -27.96, -27.95, 168.32, 168.99, 0, 0, 3
 181089202, 0.3, 0.05, -27.99, -27.99, 168.32, 168.87, 0, 0, 3
 181189162, 0.31, 0.13, -28.02, -28.03, 168.31, 168.74, 0, 0, 3
 181289122, 0.31, 0.2, -28.06, -28.07, 168.31, 168.58, 0, 0, 3
 181389082, 0.3, 0.27, -28.09, -28.11, 168.32, 168.42, 0, 0, 3
 181489042, 0.29, 0.33, -28.1, -28.12, 168.32, 168.26, 0, 0, 3
 181589002, 0.28, 0.39, -28.1, -28.11, 168.32, 168.12, 0, 0, 3
 181688962, 0.26, 0.42, -28.1, -28.11, 168.33, 168, 0, 0, 3
 181788922, 0.23, 0.44, -28.07, -28.07, 168.33, 167.91, 0, 0, 3
 181888882, 0.21, 0.44, -28.08, -28.08, 168.34, 167.85, 0, 0, 3
 181988842, 0.19, 0.43, -28.09, -28.09, 168.34, 167.83, 0, 0, 3
 182088802, 0.18, 0.41, -28.1, -28.09, 168.35, 167.83, 0, 0, 3
 182188762, 0.18, 0.39, -28.09, -28.09, 168.35, 167.87, 0, 0, 3
 182289555, 0.17, 0.35, -28.07, -28.09, 168.35, 167.93, 0, 0, 3
 182389515, 0.16, 0.3, -28.03, -28.02, 168.35, 168.02, 0, 0, 3
 182489475, 0.16, 0.25, -28.03, -28.02, 168.35, 168.11, 0, 0, 3
 182589435, 0.16, 0.2, -28.01, -28, 168.35, 168.21, 0, 0, 3
 182689395, 0.17, 0.16, -28.01, -28.01, 168.35, 168.31, 0, 0, 3
 182789355, 0.18, 0.13, -28.02, -28.03, 168.35, 168.4, 0, 0, 3
 182889315, 0.2, 0.1, -28.03, -28.04, 168.34, 168.48, 0, 0, 3
 182989275, 0.22, 0.09, -28.03, -28.04, 168.34, 168.55, 0, 0, 3
 183089235, 0.24, 0.09, -28.03, -28.04, 168.33, 168.6, 0, 0, 3
 183189195, 0.25, 0.1, -28.03, -28.04, 168.33, 168.63, 0, 0, 3
 183289155, 0.27, 0.11, -28.04, -28.04, 168.32, 168.63, 0, 0, 3
 183389115, 0.29, 0.14, -28.07, -28.07, 168.32, 168.62, 0, 0, 3
 183489075, 0.3, 0.17, -28.1, -28.1, 168.32, 168.58, 0, 0, 3
 183589035, 0.31, 0.22, -28.09, -28.1, 168.31, 168.54, 0, 0, 3
 183688995, 0.31, 0.26, -28.08, -28.1, 168.31, 168.48, 0, 0, 3
 183788955, 0.3, 0.28, -28.05, -28.08, 168.32, 168.41, 0, 0, 3
 183888915, 0.3, 0.3, -28.01, -28.03, 168.32, 168.34, 0, 0, 3
 183988875, 0.29, 0.32, -28.02, -28.03, 168.32, 168.27, 0, 0, 3
 184088835, 0.29, 0.34, -28.03, -28.02, 168.32, 168.21, 0, 0, 3
 184188795, 0.28, 0.36, -28.04, -28.03, 168.32, 168.16, 0, 0, 3
 184288755, 0.27, 0.36, -28.05, -28.04, 168.32, 168.12, 0, 0, 3
 184389548, 0.26, 0.36, -28.02, -28.02, 168.33, 168.1, 0, 0, 3
 184489508, 0.25, 0.36, -28, -28, 168.33, 168.09, 0, 0, 3
 184589468, 0.24, 0.35, -28.01, -28.01, 168.33, 168.1, 0, 0, 3
 184689428, 0.24, 0.33, -27.97, -27.98, 168.33, 168.12, 0, 0, 3
 184789388, 0.23, 0.32, -27.98, -27.98, 168.33, 168.15, 0, 0, 3
 184889348, 0.22, 0.31, -27.98, -27.99, 168.34, 168.18, 0, 0, 3
 184989308, 0.21, 0.29, -27.98, -27.99, 168.34, 168.22, 0, 0, 3
 185089268, 0.21, 0.27, -27.97, -27.98, 168.34, 168.26, 0, 0, 3
 185189228, 0.2, 0.24, -27.96, -27.97, 168.34, 168.3, 0, 0, 3
 185289188, 0.21, 0.21, -27.96, -27.98, 168.34, 168.34, 0, 0, 3
 185389148, 0.21, 0.19, -27.96, -27.98, 168.34, 168.37, 0, 0, 3
 185489108, 0.22, 0.18, -28, -28.01, 168.34, 168.4, 0, 0, 3
 185589068, 0.23, 0.19, -28.02, -28.04, 168.33, 168.42, 0, 0, 3
 185689028, 0.24, 0.19, -28.01, -28.03, 168.33, 168.43, 0, 0, 3
 185788988, 0.25, 0.19, -28.01, -28.02, 168.33, 168.43, 0, 0, 3
 185888948, 0.26, 0.19, -27.99, -28.01, 168.33, 168.43, 0, 0, 3
 185988908, 0.26, 0.21, -27.98, -27.99, 168.33, 168.42, 0, 0, 3
 186088868, 0.27, 0.22, -28.03, -28.03, 168.32, 168.41, 0, 0, 3
 186188828, 0.28, 0.23, -28.1, -28.08, 168.32, 168.4, 0, 0, 3
 186288788, 0.28, 0.24, -28.15, -28.14, 168.32, 168.38, 0, 0, 3
 186388748, 0.28, 0.25, -28.2, -28.18, 168.32, 168.36, 0, 0, 3
 186489541, 0.28, 0.26, -28.19, -28.19, 168.32, 168.34, 0, 0, 3
 186589501, 0.28, 0.28, -28.2, -28.2, 168.32, 168.31, 0, 0, 3
 186689461, 0.28, 0.29, -28.22, -28.22, 168.32, 168.29, 0, 0, 3
 186789421, 0.28, 0.31, -28.21, -28.21, 168.32, 168.27, 0, 0, 3
 186889381, 0.27, 0.32, -28.24, -28.23, 168.32, 168.26, 0, 0, 3
 186989341, 0.26, 0.33, -28.27, -28.27, 168.33, 168.25, 0, 0, 3
 187089301, 0.25, 0.33, -28.3, -28.3, 168.33, 168.25, 0, 0, 3
 187189261, 0.24, 0.32, -28.32, -28.32, 168.33, 168.25, 0, 0, 3
 187289221, 0.23, 0.29, -28.33, -28.33, 168.33, 168.25, 0, 0, 3
 187389181, 0.23, 0.28, -28.33, -28.33, 168.33, 168.25, 0, 0, 3
 187489141, 0.23, 0.26, -28.33, -28.34, 168.33, 168.26, 0, 0, 3
 187589101, 0.24, 0.24, -28.39, -28.38, 168.33, 168.27, 0, 0, 3
 187689061, 0.26, 0.24, -28.39, -28.39, 168.33, 168.28, 0, 0, 3
 187789021, 0.27, 0.26, -28.37, -28.38, 168.32, 168.3, 0, 0, 3
 187888981, 0.28, 0.27, -28.35, -28.36, 168.32, 168.31, 0, 0, 3
 187988941, 0.29, 0.27, -28.3, -28.32, 168.32, 168.31, 0, 0, 3
 188088901, 0.29, 0.27, -28.29, -28.29, 168.32, 168.31, 0, 0, 3
 188188861, 0.3, 0.28, -28.29, -28.3, 168.32, 168.31, 0, 0, 3
 188288821, 0.3, 0.28, -28.29, -28.29, 168.31, 168.31, 0, 0, 3
 188388781, 0.31, 0.29, -28.28, -28.28, 168.31, 168.31, 0, 0, 3
 188488741, 0.31, 0.3, -28.26, -28.27, 168.31, 168.31, 0, 0, 3
 188589534, 0.32, 0.31, -28.19, -28.2, 168.31, 168.31, 0, 0, 3
 188689494, 0.32, 0.31, -28.18, -28.18, 168.31, 168.3, 0, 0, 3
 188789454, 0.31, 0.31, -28.15, -28.16, 168.31, 168.3, 0, 0, 3
 188889414, 0.31, 0.31, -28.11, -28.11, 168.31, 168.29, 0, 0, 3
 188989374, 0.31, 0.31, -28.11, -28.09, 168.31, 168.28, 0, 0, 3
 189089334, 0.31, 0.31, -28.09, -28.09, 168.31, 168.28, 0, 0, 3
 189189294, 0.31, 0.31, -28.08, -28.08, 168.31, 168.28, 0, 0, 3
 189289254, 0.31, 0.31, -28.06, -28.07, 168.32, 168.28, 0, 0, 3
 189389214, 0.3, 0.31, -28.05, -28.06, 168.32, 168.28, 0, 0, 3
 189489174, 0.3, 0.3, -28.04, -28.06, 168.32, 168.28, 0, 0, 3
 189589134, 0.3, 0.3, -28.04, -28.05, 168.32, 168.29, 0, 0, 3
 189689094, 0.29, 0.3, -28.07, -28.08, 168.32, 168.29, 0, 0, 3
 189789054, 0.29, 0.29, -28.06, -28.07, 168.32, 168.3, 0, 0, 3
 189889014, 0.28, 0.28, -28.04, -28.05, 168.32, 168.3, 0, 0, 3
 189988974, 0.27, 0.27, -28.04, -28.04, 168.33, 168.31, 0, 0, 3
 190088934, 0.27, 0.26, -27.99, -28.01, 168.33, 168.31, 0, 0, 3
 190188894, 0.27, 0.26, -27.99, -28.01, 168.33, 168.32, 0, 0, 3
 190288854, 0.27, 0.26, -28, -28.02, 168.32, 168.32, 0, 0, 3
 190388814, 0.27, 0.26, -28.01, -28.02, 168.32, 168.32, 0, 0, 3
 190488774, 0.28, 0.27, -28.01, -28.02, 168.32, 168.32, 0, 0, 3
 190588734, 0.28, 0.27, -28.01, -28.02, 168.32, 168.32, 0, 0, 3
 190689527, 0.28, 0.27, -27.97, -27.99, 168.32, 168.32, 0, 0, 3
 190789487, 0.28, 0.27, -27.98, -27.99, 168.32, 168.32, 0, 0, 3
 190889447, 0.28, 0.27, -27.96, -27.98, 168.32, 168.32, 0, 0, 3
 190989407, 0.28, 0.27, -27.96, -27.96, 168.32, 168.32, 0, 0, 3
 191089367, 0.28, 0.27, -27.98, -27.99, 168.32, 168.31, 0, 0, 3
 191189327, 0.27, 0.27, -28.01, -28.01, 168.32, 168.31, 0, 0, 3
 191289287, 0.28, 0.28, -28.03, -28.04, 168.32, 168.31, 0, 0, 3
 191389247, 0.28, 0.28, -28.05, -28.06, 168.32, 168.3, 0, 0, 3
 191489207, 0.29, 0.29, -28.07, -28.08, 168.32, 168.3, 0, 0, 3
 191589167, 0.29, 0.29, -28.09, -28.1, 168.32, 168.3, 0, 0, 3
 191689127, 0.29, 0.29, -28.12, -28.12, 168.32, 168.3, 0, 0, 3
 191789087, 0.29, 0.29, -28.17, -28.18, 168.32, 168.3, 0, 0, 3
 191889047, 0.29, 0.29, -28.18, -28.19, 168.32, 168.31, 0, 0, 3
 191989007, 0.29, 0.28, -28.18, -28.2, 168.32, 168.32, 0, 0, 3
 192088967, 0.29, 0.28, -28.18, -28.2, 168.32, 168.32, 0, 0, 3
 192188927, 0.29, 0.28, -28.15, -28.16, 168.32, 168.32, 0, 0, 3
 192288887, 0.29, 0.28, -28.19, -28.18, 168.32, 168.33, 0, 0, 3
 192388847, 0.29, 0.28, -28.26, -28.23, 168.32, 168.33, 0, 0, 3
 192488807, 0.29, 0.28, -28.33, -28.3, 168.32, 168.34, 0, 0, 3
 192588767, 0.29, 0.28, -28.38, -28.37, 168.32, 168.34, 0, 0, 3
 192689560, 0.29, 0.28, -28.4, -28.4, 168.32, 168.33, 0, 0, 3
 192789520, 0.3, 0.29, -28.38, -28.38, 168.32, 168.32, 0, 0, 3
 192889480, 0.3, 0.29, -28.4, -28.39, 168.31, 168.32, 0, 0, 3
 192989440, 0.31, 0.3, -28.38, -28.38, 168.31, 168.31, 0, 0, 3
 193089400, 0.31, 0.3, -28.38, -28.38, 168.31, 168.3, 0, 0, 3
 193189360, 0.31, 0.31, -28.4, -28.4, 168.31, 168.29, 0, 0, 3
 193289320, 0.32, 0.31, -28.4, -28.41, 168.31, 168.29, 0, 0, 3
 193389280, 0.32, 0.32, -28.4, -28.4, 168.31, 168.28, 0, 0, 3
 193489240, 0.32, 0.33, -28.38, -28.39, 168.31, 168.28, 0, 0, 3
 193589200, 0.33, 0.33, -28.36, -28.37, 168.31, 168.28, 0, 0, 3
 193689160, 0.32, 0.33, -28.35, -28.37, 168.31, 168.28, 0, 0, 3
 193789120, 0.32, 0.33, -28.36, -28.37, 168.31, 168.28, 0, 0, 3
 193889080, 0.32, 0.32, -28.37, -28.39, 168.31, 168.27, 0, 0, 3
 193989040, 0.32, 0.32, -28.35, -28.36, 168.31, 168.27, 0, 0, 3
 194089000, 0.33, 0.33, -28.32, -28.34, 168.31, 168.27, 0, 0, 3
 194188960, 0.33, 0.33, -28.3, -28.32, 168.31, 168.26, 0, 0, 3
 194288920, 0.33, 0.33, -28.25, -28.25, 168.31, 168.26, 0, 0, 3
 194388880, 0.33, 0.33, -28.25, -28.25, 168.31, 168.26, 0, 0, 3
 194488840, 0.33, 0.33, -28.25, -28.25, 168.31, 168.27, 0, 0, 3
 194588800, 0.32, 0.33, -28.25, -28.25, 168.31, 168.28, 0, 0, 3
 194688760, 0.32, 0.33, -28.23, -28.24, 168.31, 168.29, 0, 0, 3
 194789553, 0.32, 0.32, -28.2, -28.21, 168.31, 168.3, 0, 0, 3
 194889513, 0.32, 0.32, -28.15, -28.16, 168.31, 168.31, 0, 0, 3
 194989473, 0.32, 0.32, -28.15, -28.16, 168.31, 168.32, 0, 0, 3
 195089433, 0.32, 0.31, -28.11, -28.13, 168.31, 168.32, 0, 0, 3
 195189393, 0.32, 0.32, -28.12, -28.13, 168.31, 168.32, 0, 0, 3
 195289353, 0.31, 0.31, -28.13, -28.14, 168.31, 168.32, 0, 0, 3
 195389313, 0.31, 0.31, -28.14, -28.14, 168.32, 168.32, 0, 0, 3
 195489273, 0.31, 0.31, -28.14, -28.15, 168.32, 168.32, 0, 0, 3
 195589233, 0.31, 0.3, -28.15, -28.16, 168.31, 168.31, 0, 0, 3
 195689193, 0.31, 0.31, -28.15, -28.16, 168.31, 168.31, 0, 0, 3
 195789153, 0.31, 0.31, -28.16, -28.17, 168.31, 168.3, 0, 0, 3
 195889113, 0.31, 0.31, -28.2, -28.19, 168.31, 168.3, 0, 0, 3
 195989073, 0.31, 0.31, -28.21, -28.22, 168.31, 168.29, 0, 0, 3
 196089033, 0.3, 0.31, -28.2, -28.21, 168.32, 168.29, 0, 0, 3
 196188993, 0.29, 0.3, -28.19, -28.2, 168.32, 168.29, 0, 0, 3
 196288953, 0.29, 0.3, -28.16, -28.18, 168.32, 168.29, 0, 0, 3
 196388913, 0.29, 0.29, -28.14, -28.15, 168.32, 168.29, 0, 0, 3
 196488873, 0.29, 0.29, -28.14, -28.15, 168.32, 168.3, 0, 0, 3
 196588833, 0.29, 0.29, -28.14, -28.16, 168.32, 168.3, 0, 0, 3
 196688793, 0.29, 0.29, -28.15, -28.16, 168.32, 168.3, 0, 0, 3
 196788753, 0.29, 0.29, -28.15, -28.16, 168.32, 168.3, 0, 0, 3
 196889546, 0.3, 0.29, -28.12, -28.14, 168.32, 168.31, 0, 0, 3
 196989506, 0.3, 0.3, -28.1, -28.11, 168.32, 168.31, 0, 0, 3
 197089466, 0.3, 0.3, -28.14, -28.14, 168.32, 168.31, 0, 0, 3
 197189426, 0.3, 0.3, -28.15, -28.15, 168.32, 168.3, 0, 0, 3
 197289386, 0.3, 0.3, -28.2, -28.19, 168.32, 168.3, 0, 0, 3
 197389346, 0.3, 0.3, -28.25, -28.24, 168.32, 168.3, 0, 0, 3
 197489306, 0.3, 0.3, -28.28, -28.28, 168.32, 168.3, 0, 0, 3
 197589266, 0.31, 0.3, -28.3, -28.31, 168.31, 168.29, 0, 0, 3
 197689226, 0.31, 0.3, -28.31, -28.33, 168.31, 168.29, 0, 0, 3
 197789186, 0.29, 0.31, -28.32, -28.33, 168.32, 168.29, 0, 0, 3
 197889146, -0.94, -0.57, -27.94, -28.03, 168.63, 168.29, 0, 0, 3
 197989106, -2.8, -2.26, -27.38, -27.49, 169.08, 168.36, 0, 0, 3
 198089066, -0.87, -1.72, -23.32, -24.47, 168.47, 168.41, 0.03, 0, 3
 198189026, 2.67, 2.16, -14.07, -15, 168.07, 168.71, 0.03, 0.01, 3
 198288986, 3.1, 2.99, -14.93, -13.74, 168.07, 168.92, 0.03, 0.02, 3
 198388946, 3.32, 3.16, -20.72, -19.47, 167.83, 168.73, 0.03, 0.02, 3
 198488906, 3.4, 3.16, -24.74, -24.21, 167.67, 168.56, 0.07, 0.02, 3
 198588866, 3.32, 3.03, -27.19, -27.17, 167.6, 168.46, 0.07, 0.02, 3
 198688826, 3.12, 2.8, -28.48, -28.71, 167.61, 168.42, 0.14, 0.01, 3
 198788786, 2.84, 2.54, -29.01, -29.3, 167.66, 168.39, 0.14, 0.01, 3
 198888746, 2.54, 2.27, -29.08, -29.34, 167.74, 168.35, 0.14, 0.01, 3
 198989539, 2.23, 2.01, -28.81, -29.03, 167.82, 168.3, 0.14, 0.01, 3
 199089499, 1.94, 1.79, -28.64, -28.74, 167.9, 168.22, 0.12, 0.01, 3
 199189459, 1.67, 1.59, -28.57, -28.61, 167.97, 168.12, 0.12, 0.01, 3
 199289419, 1.42, 1.41, -28.48, -28.5, 168.03, 168.02, 0.1, 0.01, 3
 199389379, 1.18, 1.25, -28.38, -28.38, 168.09, 167.94, 0.1, 0.01, 3
 199489339, 0.97, 1.09, -28.28, -28.27, 168.15, 167.87, 0.08, 0, 3
 199589299, 0.78, 0.94, -28.2, -28.18, 168.2, 167.82, 0.08, 0, 3
 199689259, 0.6, 0.8, -28.14, -28.13, 168.24, 167.81, 0.07, 0, 3
 199789219, 0.44, 0.65, -28.11, -28.09, 168.28, 167.82, 0.07, 0, 3
 199889179, 0.3, 0.51, -28.05, -28.04, 168.32, 167.86, 0.06, 0, 3
 199989139, 0.19, 0.37, -28.01, -28, 168.35, 167.92, 0.06, 0, 3
 200089099, 0.09, 0.25, -27.98, -27.98, 168.37, 168.01, 0.05, 0, 3
 200189059, 0, 0.13, -27.98, -27.97, 168.39, 168.1, 0.05, 0, 3
 200289019, -0.05, 0.02, -27.98, -27.98, 168.41, 168.21, 0.04, 0, 3
 200388979, -0.09, -0.06, -27.99, -27.99, 168.42, 168.32, 0.04, 0, 3
 200488939, -0.12, -0.15, -28.04, -28.03, 168.43, 168.42, 0.03, 0, 3
 200588899, -0.14, -0.21, -28.09, -28.08, 168.43, 168.51, 0.03, 0, 3
 200688859, -0.14, -0.24, -28.2, -28.18, 168.43, 168.58, 0.03, 0, 3
 200788819, -0.14, -0.26, -28.25, -28.25, 168.43, 168.64, 0.03, 0, 3
 200888779, -0.13, -0.27, -28.25, -28.27, 168.43, 168.68, 0.02, 0, 3
 200988739, -0.11, -0.26, -28.24, -28.27, 168.42, 168.69, 0.02, 0, 3
 201089532, -0.08, -0.22, -28.11, -28.13, 168.41, 168.68, 0.02, 0, 3
 201189492, -0.06, -0.19, -28.17, -28.15, 168.41, 168.65, 0.02, 0, 3
 201289452, -0.03, -0.14, -28.27, -28.26, 168.4, 168.6, 0.02, 0, 3
 201389412, 0, -0.08, -28.34, -28.34, 168.39, 168.54, 0.02, 0, 3
 201489372, 0.01, -0.02, -28.36, -28.38, 168.39, 168.47, 0.01, 0, 3
 201589332, 0.03, 0.02, -28.37, -28.39, 168.38, 168.39, 0.01, 0, 3
 201689292, 0.05, 0.07, -28.38, -28.4, 168.38, 168.32, 0.01, 0, 3
 201789252, 0.06, 0.11, -28.4, -28.41, 168.38, 168.25, 0.01, 0, 3
 201889212, 0.08, 0.16, -28.42, -28.43, 168.37, 168.19, 0.01, 0, 3
 201989172, 0.1, 0.2, -28.44, -28.44, 168.37, 168.14, 0.01, 0, 3
 202089132, 0.13, 0.23, -28.45, -28.45, 168.36, 168.11, 0.01, 0, 3
 202189092, 0.15, 0.25, -28.46, -28.45, 168.35, 168.09, 0.01, 0, 3
 202289052, 0.18, 0.27, -28.43, -28.43, 168.35, 168.09, 0.01, 0, 3
 202389012, 0.2, 0.29, -28.39, -28.39, 168.34, 168.1, 0.01, 0, 3
 202488972, 0.23, 0.31, -28.34, -28.35, 168.33, 168.13, 0, 0, 3
 202588932, 0.25, 0.32, -28.3, -28.3, 168.33, 168.16, 0, 0, 3
 202688892, 0.27, 0.32, -28.26, -28.27, 168.32, 168.2, 0, 0, 3
 202788852, 0.29, 0.33, -28.31, -28.31, 168.32, 168.24, 0, 0, 3
 202888812, 0.31, 0.33, -28.26, -28.27, 168.31, 168.27, 0, 0, 3
 202988772, 0.33, 0.33, -28.04, -28.08, 168.31, 168.3, 0, 0, 3
 203089565, 0.34, 0.33, -27.61, -27.68, 168.31, 168.33, 0, 0, 3
 203189525, 0.36, 0.34, -26.87, -26.94, 168.31, 168.35, 0, 0, 3
 203289485, 0.37, 0.34, -26.32, -26.35, 168.3, 168.36, 0, 0, 3
 203389445, 0.38, 0.35, -25.8, -25.81, 168.3, 168.36, 0, 0, 3
 203489405, 0.39, 0.35, -25.19, -25.22, 168.31, 168.35, 0, 0, 3
 203589365, 0.4, 0.37, -24.52, -24.53, 168.31, 168.35, 0, 0, 3
 203689325, 0.4, 0.37, -23.78, -23.8, 168.31, 168.33, 0, 0, 3
 203789285, 0.39, 0.38, -23, -23.02, 168.31, 168.32, 0, 0, 3
 203889245, 0.38, 0.39, -22.16, -22.17, 168.32, 168.3, 0, 0, 3
 203989205, 0.37, 0.39, -21.28, -21.29, 168.32, 168.29, 0, 0, 3
 204089165, 0.35, 0.38, -20.35, -20.37, 168.33, 168.28, 0, 0, 3
 204189125, 0.32, 0.35, -19.37, -19.38, 168.34, 168.27, 0, 0, 3
 204289085, 0.3, 0.33, -18.33, -18.35, 168.34, 168.26, 0, 0, 3
 204389045, 0.28, 0.32, -17.23, -17.26, 168.35, 168.25, 0, 0, 3
 204489005, 0.26, 0.29, -16.07, -16.1, 168.36, 168.24, 0, 0, 3
 204588965, 0.24, 0.27, -14.86, -14.88, 168.36, 168.24, 0, 0, 3
 204688925, 0.22, 0.24, -13.57, -13.59, 168.37, 168.24, 0, 0, 3
 204788885, 0.2, 0.22, -12.22, -12.23, 168.37, 168.25, 0, 0, 3
 204888845, 0.18, 0.2, -10.88, -10.89, 168.38, 168.26, 0, 0, 3
 204988805, 0.17, 0.18, -9.43, -9.43, 168.38, 168.28, 0, 0, 3
 205088765, 0.18, 0.18, -7.9, -7.91, 168.39, 168.29, 0, 0, 3
 205189558, 0.31, 0.29, -6.31, -6.3, 168.42, 168.31, 0, 0, 3
 205289518, 0.64, 0.61, -4.63, -4.6, 168.53, 168.34, 0, 0, 3
 205389478, 1.11, 1.09, -3.09, -3.03, 168.72, 168.39, 0, 0, 3
 205489438, 1.62, 1.61, -1.68, -1.6, 169.01, 168.48, 0, 0, 3
 205589398, 2.15, 2.15, -0.48, -0.37, 169.42, 168.63, 0, 0, 3
 205689358, 2.69, 2.69, 0.52, 0.64, 169.96, 168.84, 0, 0, 3
 205795149, 3.2, 3.19, 1.7, 1.84, 170.66, 169.19, 0, 0.01, 3
 205895109, 3.79, 3.72, 2.47, 2.67, 171.52, 169.64, 0, 0.01, 3
 205995069, 4.43, 4.31, 3.17, 3.39, 172.57, 170.25, 0, 0.01, 3
 206095029, 5.1, 4.92, 3.89, 4.15, 173.86, 171.05, 0, 0.01, 3
 206194989, 5.82, 5.56, 4.54, 4.87, 175.41, 172.09, 0, 0.01, 3
 206294949, 6.61, 6.26, 5.09, 5.53, 177.28, 173.4, 0, 0.01, 3
 206394909, 7.46, 7.03, 5.5, 6.08, 179.51, 175.04, 0, 0.01, 3
 206494869, 8.39, 7.86, 5.73, 6.48, 182.17, 177.02, 0, 0.01, 3
 206594829, 9.37, 8.75, 5.69, 6.65, 185.31, 179.4, 0, 0.02, 3
 206694789, 10.32, 9.66, 5.23, 6.46, 188.95, 182.22, 0, 0.02, 3
 206794749, 11.13, 10.5, 4.36, 5.85, 193.06, 185.53, 0, 0.02, 3
 206894709, 11.67, 11.15, 3.27, 4.94, 197.59, 189.38, 0, 0.02, 3
 206994669, 11.96, 11.57, 2.1, 3.89, 202.47, 193.85, 0, 0.03, 3
 207094629, 12.12, 11.89, 0.83, 2.66, 207.63, 198.93, 0, 0.03, 3
 207194589, 12.13, 12.09, -0.5, 1.27, 212.96, 204.58, 0, 0.03, 3
 207294549, 12, 12.14, -1.87, -0.27, 218.34, 210.74, 0, 0.04, 3
 207394509, 11.71, 11.99, -3.22, -1.93, 223.62, 217.36, 0, 0.04, 3
 207494469, 11.26, 11.57, -4.51, -3.65, 228.69, 224.29, 0, 0.05, 3
 207594429, 10.68, 10.88, -5.67, -5.32, 233.42, 231.41, 0, 0.05, 3
 207694389, 9.97, 9.89, -6.57, -6.76, 237.74, 238.52, 0, 0.05, 3
 207795182, 9.17, 8.69, -7.16, -7.82, 241.61, 245.42, 0, 0.05, 3
 207895142, 8.35, 7.41, -7.47, -8.48, 245.02, 251.85, 0, 0.05, 3
 207995102, 7.61, 6.21, -7.74, -8.93, 247.99, 257.57, 0, 0.05, 3
 208095062, 6.9, 5.12, -7.89, -9.17, 250.57, 262.42, 0, 0.05, 3
 208195022, 6.22, 4.18, -7.96, -9.2, 252.79, 266.32, 0, 0.05, 3
 208294982, 5.56, 3.38, -7.96, -9.11, 254.68, 269.27, 0.01, 0.04, 3
 208394942, 4.94, 2.72, -7.92, -8.93, 256.28, 271.29, 0.01, 0.04, 3
 208494902, 4.35, 2.21, -7.82, -8.68, 257.62, 272.44, 0.01, 0.03, 3
 208594862, 3.76, 1.78, -7.69, -8.39, 258.72, 272.81, 0.01, 0.02, 3
 208694822, 3.2, 1.44, -7.53, -8.06, 259.6, 272.48, 0.01, 0.02, 3
 208794782, 2.65, 1.15, -7.34, -7.72, 260.27, 271.54, 0.01, 0.02, 3
 208894742, 2.11, 0.91, -7.12, -7.38, 260.74, 270.13, 0.01, 0.02, 3
 208994702, 1.56, 0.68, -6.86, -7.02, 261.04, 268.34, 0.01, 0.02, 3
 209094662, 1.04, 0.44, -6.59, -6.65, 261.17, 266.29, 0.01, 0.02, 3
 209194622, 0.66, 0.31, -6.34, -6.36, 261.21, 264.11, 0.01, 0.02, 3
 209294582, 0.49, 0.36, -6.15, -6.14, 261.22, 261.94, 0.01, 0.02, 3
 209394542, 0.44, 0.53, -6.12, -6.06, 261.22, 259.92, 0.01, 0.02, 3
 209494502, 0.43, 0.72, -6.21, -6.13, 261.22, 258.16, 0, 0.02, 3
 209594462, 0.4, 0.87, -6.34, -6.26, 261.22, 256.75, 0, 0.02, 3
 209694422, 0.36, 0.96, -6.45, -6.38, 261.22, 255.76, 0, 0.02, 3
 209794382, 0.31, 0.99, -6.55, -6.47, 261.22, 255.2, 0, 0.02, 3
 209895175, 0.26, 0.96, -6.59, -6.54, 261.23, 255.09, 0, 0.01, 3
 209995135, 0.21, 0.89, -6.59, -6.56, 261.23, 255.39, 0, 0.01, 3
 210095095, 0.17, 0.77, -6.68, -6.65, 261.23, 256.04, 0, 0.01, 3
 210195055, 0.12, 0.62, -6.7, -6.69, 261.24, 256.97, 0, 0.01, 3
 210295015, 0.07, 0.45, -6.7, -6.7, 261.24, 258.09, 0, 0, 3
 210394975, 0.04, 0.27, -6.69, -6.69, 261.24, 259.32, 0, 0, 3
 210494935, 0.01, 0.09, -6.68, -6.68, 261.24, 260.55, 0, 0, 3
 210594895, -0.01, -0.06, -6.66, -6.66, 261.24, 261.72, 0, 0, 3
 210694855, -0.03, -0.2, -6.65, -6.64, 261.24, 262.74, 0, 0, 3
 210794815, -0.04, -0.31, -6.63, -6.62, 261.24, 263.57, 0, 0, 3
 210894775, -0.04, -0.38, -6.61, -6.59, 261.25, 264.17, 0, 0, 3
 210994735, -0.05, -0.42, -6.57, -6.57, 261.25, 264.52, 0, 0, 3
 211094695, -0.05, -0.43, -6.51, -6.51, 261.25, 264.62, 0, 0, 3
 211194655, -0.04, -0.41, -6.47, -6.45, 261.25, 264.48, 0, 0, 3
 211294615, -0.05, -0.37, -6.46, -6.43, 261.25, 264.13, 0, 0, 3
 211394575, -0.06, -0.32, -6.45, -6.42, 261.25, 263.63, 0, 0, 3
 211494535, -0.06, -0.26, -6.43, -6.41, 261.25, 263.01, 0, 0, 3
 211594495, -0.07, -0.19, -6.4, -6.39, 261.25, 262.33, 0, 0, 3
 211694455, -0.07, -0.12, -6.37, -6.36, 261.25, 261.63, 0, 0, 3
 211794415, -0.08, -0.05, -6.34, -6.34, 261.25, 260.97, 0, 0.01, 3
 211894375, -0.09, 0, -6.32, -6.31, 261.25, 260.38, 0, 0.01, 3
 211995168, -0.1, 0.05, -6.27, -6.26, 261.25, 259.9, 0, 0.01, 3
 212095128, -0.11, 0.07, -6.25, -6.22, 261.25, 259.55, 0, 0.01, 3
 212195088, -0.11, 0.08, -6.27, -6.26, 261.25, 259.34, 0, 0.01, 3
 212295048, -0.11, 0.08, -6.23, -6.23, 261.25, 259.27, 0, 0, 3
 212395008, -0.11, 0.08, -6.18, -6.19, 261.25, 259.33, 0, 0, 3
 212494968, -0.1, 0.07, -6.14, -6.15, 261.25, 259.51, 0, 0, 3
 212594928, -0.1, 0.04, -6.11, -6.12, 261.25, 259.79, 0, 0, 3
 212694888, -0.09, 0.01, -6.1, -6.1, 261.25, 260.13, 0, 0, 3
 212794848, -0.07, -0.01, -6.1, -6.09, 261.25, 260.52, 0, 0, 3
 212894808, -0.06, -0.03, -6.1, -6.09, 261.25, 260.91, 0, 0, 3
 212994768, -0.04, -0.05, -6.08, -6.08, 261.24, 261.29, 0, 0, 3
 213094728, -0.02, -0.06, -6.07, -6.06, 261.24, 261.64, 0, 0, 3
 213194688, 0, -0.07, -6.03, -6.02, 261.24, 261.92, 0, 0, 3
 213294648, 0.02, -0.07, -6.02, -6.01, 261.24, 262.13, 0, 0, 3
 213394608, 0.04, -0.06, -6.03, -6.02, 261.24, 262.26, 0, 0, 3
 213494568, 0.05, -0.05, -6.04, -6.03, 261.24, 262.31, 0, 0, 3
 213594528, 0.06, -0.04, -6.04, -6.04, 261.24, 262.28, 0, 0, 3
 213694488, 0.07, -0.03, -6.04, -6.05, 261.24, 262.19, 0, 0, 3
 213794448, 0.09, 0, -6.03, -6.04, 261.24, 262.03, 0, 0, 3
 213894408, 0.1, 0.03, -6.04, -6.04, 261.24, 261.84, 0, 0, 3
 213994368, 0.11, 0.06, -6.04, -6.05, 261.24, 261.62, 0, 0, 3
 214095161, 0.12, 0.09, -6.02, -6.02, 261.24, 261.4, 0, 0, 3
 214195121, 0.12, 0.12, -6.03, -6.03, 261.24, 261.18, 0, 0, 3
 214295081, 0.13, 0.14, -6.07, -6.07, 261.24, 260.98, 0, 0, 3
 214395041, 0.13, 0.17, -6.06, -6.06, 261.24, 260.81, 0, 0, 3
 214495001, 0.13, 0.18, -6.04, -6.04, 261.24, 260.69, 0, 0, 3
 214594961, 0.13, 0.19, -6.03, -6.03, 261.24, 260.61, 0, 0, 3
 214694921, 0.13, 0.19, -6.02, -6.02, 261.24, 260.58, 0, 0, 3
 214794881, 0.12, 0.19, -6.01, -6.01, 261.24, 260.59, 0, 0, 3
 214894841, 0.13, 0.18, -6.01, -6, 261.24, 260.64, 0, 0, 3
 214994801, 0.13, 0.16, -6.01, -6, 261.24, 260.72, 0, 0, 3
 215094761, 0.14, 0.16, -6.02, -6.01, 261.23, 260.83, 0, 0, 3
 215194721, 0.14, 0.17, -6.04, -6.04, 261.23, 260.96, 0, 0, 3
 215294681, 0.14, 0.16, -6.01, -6.02, 261.23, 261.09, 0, 0, 3
 215394641, 0.14, 0.16, -6.01, -6.02, 261.23, 261.21, 0, 0, 3
 215494601, 0.14, 0.14, -6.02, -6.02, 261.23, 261.33, 0, 0, 3
 215594561, 0.14, 0.12, -6.02, -6.03, 261.23, 261.43, 0, 0, 3
 215694521, 0.14, 0.11, -6.02, -6.03, 261.23, 261.5, 0, 0, 3
 215794481, 0.14, 0.11, -6.02, -6.03, 261.23, 261.55, 0, 0, 3
 215894441, 0.14, 0.1, -6.02, -6.02, 261.23, 261.57, 0, 0, 3
 215994401, 0.15, 0.1, -6.02, -6.02, 261.23, 261.56, 0, 0, 3
 216094361, 0.15, 0.11, -6.01, -6.02, 261.23, 261.53, 0, 0, 3
 216195154, 0.16, 0.13, -5.97, -5.98, 261.23, 261.48, 0, 0, 3
 216295114, 0.16, 0.13, -6.01, -6, 261.23, 261.42, 0, 0, 3
 216395074, 0.16, 0.15, -6.04, -6.03, 261.23, 261.35, 0, 0, 3
 216495034, 0.15, 0.15, -6.02, -6.03, 261.23, 261.28, 0, 0, 3
 216594994, 0.15, 0.15, -6, -6, 261.23, 261.21, 0, 0, 3
 216694954, 0.15, 0.14, -5.98, -5.98, 261.23, 261.15, 0, 0, 3
 216794914, 0.15, 0.14, -5.97, -5.95, 261.23, 261.1, 0, 0, 3
 216894874, 0.15, 0.14, -5.98, -5.96, 261.23, 261.06, 0, 0, 3
 216994834, 0.16, 0.15, -5.99, -5.99, 261.23, 261.03, 0, 0, 3
 217094794, 0.16, 0.15, -5.99, -5.99, 261.23, 261.02, 0, 0, 3
 217194754, 0.17, 0.15, -5.99, -5.98, 261.23, 261.01, 0, 0, 3
 217294714, 0.17, 0.16, -5.98, -5.98, 261.23, 261.02, 0, 0, 3
 217394674, 0.16, 0.18, -5.94, -5.93, 261.23, 261.04, 0, 0, 3
 217494634, 0, 0.11, -5.82, -5.88, 261.24, 261.07, 0, 0, 3
 217594594, -1.49, -1.2, -4.48, -4.72, 261.3, 261.1, 0, 0, 3
 217694554, -3.32, -3.1, -2.74, -2.98, 261.32, 261.1, 0, 0, 3
 217794514, -5.2, -5.05, -0.87, -1.08, 261.28, 261.06, 0, 0.01, 3
 217894474, -7.21, -7.09, 1.19, 0.98, 261.17, 260.96, 0.1, 0.01, 3
 217994434, -9.4, -9.28, 3.52, 3.28, 260.95, 260.78, 0.1, 0.01, 3
