Time,SIM_Roll,SIM_Pitch,SIM_Yaw,SIM_Alt,SIM_Lat,SIM_Lng,SIM_Q1,SIM_Q2,SIM_Q3,SIM_Q4
 119789565, 0, 0, 0, 558.09, 33.6216408, 72.955685, 1, 0, 0, 0
 119889525, 0, 0, 0, 558.09, 33.6216408, 72.955685, 1, 0, 0, 0
 119989485, 0, 0, 0, 558.09, 33.6216408, 72.955685, 1, 0, 0, 0
 120089445, 0, 0, 0, 558.09, 33.6216408, 72.955685, 1, 0, 0, 0
 120189405, 0, 0, 0, 558.09, 33.6216408, 72.955685, 1, 0, 0, 0
 120289365, 0, 0, 0, 558.09, 33.6216408, 72.955685, 1, 0, 0, 0
 120389325, 0, 0, 0, 558.09, 33.6216408, 72.955685, 1, 0, 0, 0
 120489285, 0, 0, 0, 558.09, 33.6216408, 72.955685, 1, 0, 0, 0
 120589245, 0, 0, 0, 558.09, 33.6216408, 72.955685, 1, 0, 0, 0
 120689205, 0, 0, 0, 558.09, 33.6216408, 72.955685, 1, 0, 0, 0
 120789165, 0, 0, 0, 558.09, 33.6216408, 72.955685, 1, 0, 0, 0
 120889125, 0, 0, 0, 558.09, 33.6216408, 72.955685, 1, 0, 0, 0
 120989085, 0, 0, 0, 558.09, 33.6216408, 72.955685, 1, 0, 0, 0
 121089045, 0, 0, 0, 558.09, 33.6216408, 72.955685, 1, 0, 0, 0
 121189005, 0, 0, 0, 558.09, 33.6216408, 72.955685, 1, 0, 0, 0
 121288965, 0, 0, 0, 558.09, 33.6216408, 72.955685, 1, 0, 0, 0
 121388925, 0, 0, 0, 558.09, 33.6216408, 72.955685, 1, 0, 0, 0
 121488885, 0, 0, 0, 558.09, 33.6216408, 72.955685, 1, 0, 0, 0
 121588845, 0, 0, 0, 558.09, 33.6216408, 72.955685, 1, 0, 0, 0
 121688805, 0, 0, 0, 558.09, 33.6216408, 72.955685, 1, 0, 0, 0
 121788765, 0, 0, 0, 558.09, 33.6216408, 72.955685, 1, 0, 0, 0
 121889558, 0, 0, 0, 558.09, 33.6216408, 72.955685, 1, 0, 0, 0
 121989518, 0, 0, 0, 558.09, 33.6216408, 72.955685, 1, 0, 0, 0
 122089478, 0, 0, 0, 558.09, 33.6216408, 72.955685, 1, 0, 0, 0
 122189438, 0, 0, 0, 558.09, 33.6216408, 72.955685, 1, 0, 0, 0
 122289398, 0, 0, 0, 558.09, 33.6216408, 72.955685, 1, 0, 0, 0
 122389358, 0, 0, 0, 558.09, 33.6216408, 72.955685, 1, 0, 0, 0
 122489318, 0, 0, 0, 558.09, 33.6216408, 72.955685, 1, 0, 0, 0
 122589278, 0, 0, 0, 558.09, 33.6216408, 72.955685, 1, 0, 0, 0
 122689238, 0, 0, 0, 558.09, 33.6216408, 72.955685, 1, 0, 0, 0
 122789198, 0, 0, 0, 558.09, 33.6216408, 72.955685, 1, 0, 0, 0
 122889158, 0, 0, 0, 558.09, 33.6216408, 72.955685, 1, 0, 0, 0
 122989118, 0, 0, 0, 558.09, 33.6216408, 72.955685, 1, 0, 0, 0
 123089078, 0, 0, 0, 558.09, 33.6216408, 72.955685, 1, 0, 0, 0
 123189038, 0, 0, 0, 558.09, 33.6216408, 72.955685, 1, 0, 0, 0
 123288998, 0, 0, 0, 558.09, 33.6216408, 72.955685, 1, 0, 0, 0
 123388958, 0, 0, 0, 558.09, 33.6216408, 72.955685, 1, 0, 0, 0
 123488918, 0, 0, 0, 558.09, 33.6216408, 72.955685, 1, 0, 0, 0
 123588878, 0, 0, 0, 558.09, 33.6216408, 72.955685, 1, 0, 0, 0
 123688838, 0, 0, 0, 558.09, 33.6216408, 72.955685, 1, 0, 0, 0
 123788798, 0, 0, 0, 558.09, 33.6216408, 72.955685, 1, 0, 0, 0
 123888758, 0, 0, 0, 558.09, 33.6216408, 72.955685, 1, 0, 0, 0
 123989551, 0, 0, 0, 558.09, 33.6216408, 72.955685, 1, 0, 0, 0
 124089511, 0, 0, 0, 558.09, 33.6216408, 72.955685, 1, 0, 0, 0
 124189471, 0, 0, 0, 558.09, 33.6216408, 72.955685, 1, 0, 0, 0
 124289431, 0, 0, 0, 558.09, 33.6216408, 72.955685, 1, 0, 0, 0
 124389391, 0, 0, 0, 558.09, 33.6216408, 72.955685, 1, 0, 0, 9.421845E-11
 124489351, 0, 0, 360, 558.09, 33.6216408, 72.955685, 1, 0, 0, -1.273778E-09
 124589311, 0, 0, 360, 558.09, 33.6216408, 72.955685, 1, 0, 0, -9.901513E-09
 124689271, 0, 0, 360, 558.09, 33.6216408, 72.955685, 1, 0, 0, -2.417152E-08
 124789231, 0, 0, 360, 558.09, 33.6216408, 72.955685, 1, 0, 0, -5.185881E-08
 124889191, 0, 0, 360, 558.09, 33.6216408, 72.955685, 1, 0, 0, -8.423609E-08
 124989151, 0, 0, 360, 558.09, 33.6216408, 72.955685, 1, 0, 0, -1.285631E-07
 125089111, 0, 0, 359.99, 558.09, 33.6216408, 72.955685, 1, 0, 0, -1.951272E-07
 125189071, 0, 0, 359.99, 558.1, 33.6216408, 72.955685, 1, 0, 0, -3.002104E-07
 125289031, 0, 0, 359.99, 558.11, 33.6216408, 72.955685, 1, 0, 0, -4.071061E-07
 125388991, 0, 0, 359.99, 558.13, 33.6216408, 72.955685, 1, 0, 0, -5.133538E-07
 125488951, 0, 0, 359.99, 558.17, 33.6216408, 72.955685, 1, 0, 0, -6.576652E-07
 125588911, -0.03, -0.03, 359.99, 558.22, 33.6216408, 72.955685, 0.9999999, -0.0003093085, -0.0002979217, -3.952081E-07
 125688871, -0.23, -0.22, 360, 558.31, 33.6216408, 72.955685, 0.9999958, -0.002078037, -0.001991364, -4.171868E-06
 125788831, -0.35, -0.34, 359.99, 558.45, 33.6216408, 72.955685, 0.9999906, -0.003131452, -0.0030019, -2.220285E-05
 125888791, -0.37, -0.35, 359.99, 558.63, 33.6216408, 72.955685, 0.9999899, -0.003250064, -0.003090848, -4.64548E-05
 125988751, -0.32, -0.3, 359.99, 558.82, 33.6216408, 72.955685, 0.9999926, -0.002803051, -0.002628486, -7.980974E-05
 126089544, -0.24, -0.22, 359.98, 559.01, 33.6216408, 72.955685, 0.9999957, -0.002136068, -0.00200585, -0.000116556
 126189504, -0.16, -0.16, 359.98, 559.21, 33.6216408, 72.955685, 0.999998, -0.001451427, -0.001397194, -0.0001536123
 126289464, -0.1, -0.09, 359.97, 559.42, 33.6216409, 72.9556849, 0.9999992, -0.0008760833, -0.0008636248, -0.0001961169
 126389424, -0.05, -0.05, 359.97, 559.63, 33.6216409, 72.9556849, 0.9999997, -0.0005146597, -0.000499277, -0.0002428067
 126489384, -0.02, -0.02, 359.96, 559.86, 33.6216409, 72.9556849, 0.9999999, -0.0001944927, -0.0001837379, -0.0002902105
 126589344, 0.01, 0.01, 359.96, 560.1, 33.6216409, 72.9556848, 0.9999999, 0.0001118502, 0.0001068713, -0.0003378995
 126689304, 0.04, 0.02, 359.95, 560.34, 33.6216411, 72.9556848, 0.9999998, 0.0003892315, 0.0002604577, -0.000381453
 126789264, 0.06, 0.04, 359.95, 560.59, 33.6216411, 72.9556848, 0.9999996, 0.000584068, 0.0003915703, -0.0004193
 126889224, 0.07, 0.06, 359.94, 560.85, 33.6216411, 72.9556846, 0.9999995, 0.0006903303, 0.0005771067, -0.0004442628
 126989184, 0.09, 0.08, 359.94, 561.11, 33.6216411, 72.9556846, 0.9999993, 0.000812238, 0.0007266325, -0.0004621567
 127089144, 0.1, 0.1, 359.94, 561.38, 33.6216411, 72.9556846, 0.9999991, 0.0009084678, 0.0008793629, -0.0004746403
 127189104, 0.11, 0.11, 359.94, 561.64, 33.6216412, 72.9556846, 0.9999989, 0.0009864299, 0.001024403, -0.0004835952
 127289064, 0.11, 0.12, 359.94, 561.91, 33.6216412, 72.9556846, 0.9999987, 0.001032212, 0.001089074, -0.0004912961
 127389024, 0.11, 0.12, 359.94, 562.17, 33.6216412, 72.9556846, 0.9999987, 0.001026661, 0.001084318, -0.0005002022
 127488984, 0.11, 0.12, 359.94, 562.43, 33.6216412, 72.9556846, 0.9999988, 0.001013778, 0.001078176, -0.0005121445
 127588944, 0.12, 0.12, 359.93, 562.69, 33.6216412, 72.9556846, 0.9999987, 0.001051474, 0.001117359, -0.0005262563
 127688904, 0.11, 0.12, 359.93, 562.95, 33.6216412, 72.9556846, 0.9999987, 0.001012199, 0.00108517, -0.0005412621
 127788864, 0.11, 0.12, 359.93, 563.2, 33.6216412, 72.9556846, 0.9999988, 0.0009758065, 0.001055253, -0.0005561818
 127888824, 0.1, 0.11, 359.93, 563.45, 33.6216412, 72.9556846, 0.9999989, 0.000942066, 0.001027428, -0.0005710156
 127988784, 0.09, 0.11, 359.93, 563.7, 33.6216412, 72.9556846, 0.999999, 0.0008722159, 0.0009765343, -0.0005880192
 128088744, 0.08, 0.09, 359.92, 563.94, 33.6216412, 72.9556846, 0.9999992, 0.0007831075, 0.0008588064, -0.0006152116
 128189537, 0.08, 0.09, 359.92, 564.19, 33.6216412, 72.9556846, 0.9999992, 0.000726855, 0.0008187187, -0.000644114
 128289497, 0.08, 0.08, 359.92, 564.43, 33.6216412, 72.9556846, 0.9999992, 0.0007108191, 0.0007275251, -0.0006682447
 128389457, 0.07, 0.08, 359.91, 564.68, 33.6216412, 72.9556846, 0.9999992, 0.0006765315, 0.0007600823, -0.0007005317
 128489417, 0.07, 0.08, 359.91, 564.92, 33.6216412, 72.9556846, 0.9999992, 0.0006641172, 0.0007537825, -0.000735733
 128589377, 0.06, 0.08, 359.91, 565.16, 33.6216412, 72.9556846, 0.9999993, 0.000534362, 0.0007357037, -0.0007636609
 128689337, 0.04, 0.07, 359.91, 565.4, 33.6216412, 72.9556846, 0.9999995, 0.0003878862, 0.0006385847, -0.0007783836
 128789297, 0.04, 0.06, 359.9, 565.64, 33.6216412, 72.9556846, 0.9999995, 0.0003588157, 0.0005998005, -0.0007907528
 128889257, 0.04, 0.07, 359.9, 565.88, 33.6216412, 72.9556846, 0.9999994, 0.0004117148, 0.0006168913, -0.000800173
 128989217, 0.05, 0.08, 359.9, 566.12, 33.6216412, 72.9556846, 0.9999993, 0.0005140825, 0.0007154253, -0.0008087064
 129089177, 0.06, 0.09, 359.9, 566.36, 33.6216412, 72.9556846, 0.9999992, 0.0006095088, 0.0008071804, -0.0008171889
 129189137, 0.04, 0.06, 359.9, 566.59, 33.6216412, 72.9556846, 0.9999994, 0.0004305396, 0.0005738164, -0.000826405
 129289097, 0.02, 0.04, 359.9, 566.83, 33.6216412, 72.9556846, 0.9999996, 0.0002553824, 0.0003775498, -0.0008326502
 129389057, 0.01, 0.03, 359.9, 567.07, 33.6216412, 72.9556846, 0.9999996, 0.000164366, 0.0003064893, -0.0008401432
 129489017, 0.01, 0.02, 359.9, 567.31, 33.6216412, 72.9556846, 0.9999996, 0.0001123773, 0.0002341666, -0.0008521308
 129588977, 0, 0.02, 359.9, 567.55, 33.6216412, 72.9556846, 0.9999996, 7.685242E-05, 0.0001836003, -0.0008665951
 129688937, 0.01, 0.02, 359.89, 567.79, 33.6216412, 72.9556846, 0.9999996, 0.0001275593, 0.0001974825, -0.0008925145
 129788897, 0.02, 0.02, 359.89, 568.03, 33.6216411, 72.9556846, 0.9999995, 0.0001991672, 0.0001946265, -0.0009221067
 129888857, 0.02, 0.01, 359.89, 568.27, 33.6216411, 72.9556846, 0.9999995, 0.0001828242, 0.0001162553, -0.0009497167
 129988817, 0.01, 0, 359.88, 568.51, 33.6216411, 72.9556846, 0.9999995, 0.0001703695, 5.935778E-05, -0.0009684347
 130088777, 0.02, 0, 359.88, 568.75, 33.6216411, 72.9556846, 0.9999995, 0.0001801191, -7.379712E-05, -0.000986315
 130188737, 0.02, -0.01, 359.88, 568.99, 33.6216411, 72.9556846, 0.9999995, 0.0002025033, -0.0001342632, -0.001005343
 130289530, 0.02, -0.01, 359.88, 569.23, 33.6216411, 72.9556846, 0.9999995, 0.0002236402, -0.0001292926, -0.001025957
 130389490, 0.02, -0.01, 359.88, 569.46, 33.6216411, 72.9556846, 0.9999994, 0.0002432199, -0.0001247476, -0.001046282
 130489450, 0.02, -0.01, 359.87, 569.7, 33.6216409, 72.9556846, 0.9999993, 0.0002615161, -0.0001205602, -0.001066489
 130589410, 0.02, -0.01, 359.87, 569.94, 33.6216409, 72.9556848, 0.9999993, 0.0002365083, -0.0001187291, -0.001090843
 130689370, 0.01, -0.01, 359.86, 570.18, 33.6216409, 72.9556848, 0.9999993, 0.0001196593, -0.0001222725, -0.0011505
 130789330, 0.01, -0.01, 359.85, 570.42, 33.6216409, 72.9556848, 0.9999992, 9.011463E-05, -0.0001183336, -0.001234429
 130889290, 0, -0.01, 359.84, 570.66, 33.6216409, 72.9556848, 0.9999991, 7.102363E-05, -0.0001147227, -0.001318938
 130989250, 0, -0.02, 359.83, 570.89, 33.6216409, 72.9556848, 0.999999, 2.768073E-06, -0.0001809939, -0.001403435
 131089210, -0.01, -0.04, 359.83, 571.13, 33.6216409, 72.9556848, 0.9999989, -0.0001380301, -0.0003628755, -0.001468046
 131189170, -0.02, -0.05, 359.82, 571.37, 33.6216409, 72.9556848, 0.9999987, -0.0002576774, -0.0004737923, -0.001501798
 131289130, -0.03, -0.06, 359.82, 571.61, 33.6216409, 72.9556848, 0.9999986, -0.0003283416, -0.0005664225, -0.001520717
 131389090, -0.04, -0.07, 359.82, 571.84, 33.6216409, 72.9556849, 0.9999986, -0.0003824655, -0.0006447871, -0.001524123
 131489050, -0.05, -0.07, 359.82, 572.08, 33.6216408, 72.9556849, 0.9999986, -0.0004654369, -0.0006835629, -0.001500282
 131589010, -0.05, -0.08, 359.83, 572.32, 33.6216408, 72.9556849, 0.9999986, -0.0004725213, -0.0007297887, -0.001453199
 131688970, -0.05, -0.08, 359.83, 572.56, 33.6216408, 72.9556849, 0.9999986, -0.0005166163, -0.000709383, -0.001406732
 131788930, -0.05, -0.06, 359.84, 572.8, 33.6216408, 72.9556849, 0.9999987, -0.0005086085, -0.0005772838, -0.001366641
 131888890, -0.05, -0.06, 359.84, 573.04, 33.6216408, 72.9556849, 0.9999988, -0.0004865557, -0.0005884976, -0.00133604
 131988850, -0.06, -0.06, 359.84, 573.29, 33.6216408, 72.9556849, 0.9999988, -0.0005285065, -0.0005473581, -0.001322903
 132088810, -0.06, -0.06, 359.84, 573.53, 33.6216408, 72.9556849, 0.9999988, -0.0005611199, -0.0005755576, -0.001326559
 132188770, -0.05, -0.06, 359.84, 573.77, 33.6216408, 72.9556849, 0.9999988, -0.0004391991, -0.0005892132, -0.001338201
 132289563, -0.05, -0.06, 359.84, 574.02, 33.6216408, 72.9556849, 0.9999988, -0.0004589633, -0.0005407347, -0.001370182
 132389523, -0.06, -0.05, 359.83, 574.26, 33.6216408, 72.9556849, 0.9999987, -0.0005360002, -0.0004949768, -0.001430685
 132489483, -0.06, -0.05, 359.82, 574.5, 33.6216408, 72.9556849, 0.9999986, -0.0005524957, -0.0004501657, -0.001498833
 132589443, -0.05, -0.05, 359.81, 574.74, 33.6216408, 72.9556849, 0.9999985, -0.000520692, -0.0004674254, -0.001594344
 132689403, -0.05, -0.04, 359.8, 574.98, 33.6216408, 72.9556849, 0.9999984, -0.0004420625, -0.0004347896, -0.001693692
 132789363, -0.04, -0.04, 359.79, 575.23, 33.6216408, 72.9556849, 0.9999982, -0.0003857607, -0.0004314793, -0.001790986
 132889323, -0.04, -0.04, 359.78, 575.47, 33.6216408, 72.9556849, 0.999998, -0.0003652466, -0.0004204657, -0.001882346
 132989283, -0.04, -0.05, 359.77, 575.71, 33.6216408, 72.9556849, 0.9999979, -0.0003745112, -0.0004408788, -0.001962691
 133089243, -0.04, -0.04, 359.76, 575.95, 33.6216408, 72.9556849, 0.9999978, -0.0003822572, -0.0004266143, -0.002015617
 133189203, -0.03, -0.04, 359.76, 576.18, 33.6216408, 72.9556849, 0.9999978, -0.0002722994, -0.0004186217, -0.002040586
 133289163, -0.01, -0.04, 359.76, 576.42, 33.6216408, 72.9556849, 0.9999977, -0.0001698163, -0.0004230563, -0.002060457
 133389123, 0, -0.04, 359.76, 576.66, 33.6216408, 72.9556849, 0.9999978, -7.417676E-05, -0.0003819354, -0.002072082
 133489083, 0, -0.03, 359.76, 576.9, 33.6216409, 72.9556849, 0.9999977, -4.974305E-05, -0.0003454608, -0.002082041
 133589043, -0.02, -0.03, 359.76, 577.14, 33.6216409, 72.9556849, 0.9999977, -0.0002376736, -0.0003171825, -0.002081838
 133689003, -0.03, -0.03, 359.76, 577.38, 33.6216409, 72.9556849, 0.9999977, -0.0003352624, -0.0002791081, -0.002074586
 133788963, -0.04, -0.02, 359.76, 577.61, 33.6216409, 72.9556849, 0.9999977, -0.0003998888, -0.0002266764, -0.002065256
 133888923, -0.04, -0.01, 359.76, 577.85, 33.6216409, 72.9556849, 0.9999978, -0.000419281, -0.0001545663, -0.002049447
 133988883, -0.04, -0.01, 359.76, 578.09, 33.6216409, 72.9556849, 0.9999979, -0.0004244388, -0.0001173807, -0.002023646
 134088843, -0.04, -0.01, 359.76, 578.33, 33.6216409, 72.9556849, 0.9999979, -0.0004245489, -0.0001185929, -0.002007614
 134188803, -0.04, 0, 359.77, 578.57, 33.6216409, 72.9556849, 0.9999979, -0.0004306098, -8.483711E-05, -0.002006141
 134288763, -0.04, 0, 359.76, 578.8, 33.6216411, 72.9556848, 0.9999979, -0.0003835146, -2.300852E-05, -0.002017652
 134389556, -0.04, 0, 359.76, 579.04, 33.6216411, 72.9556848, 0.9999979, -0.0003655696, -9.66066E-07, -0.002037878
 134489516, -0.03, 0, 359.76, 579.28, 33.6216411, 72.9556848, 0.9999978, -0.0003405371, 2.560891E-05, -0.002075518
 134589476, -0.03, 0, 359.75, 579.52, 33.6216411, 72.9556848, 0.9999976, -0.0002920012, 7.418479E-05, -0.00214216
 134689436, -0.02, 0.01, 359.74, 579.76, 33.6216411, 72.9556848, 0.9999976, -0.0001828091, 0.0001655266, -0.002212539
 134789396, 0, 0.03, 359.73, 579.99, 33.6216411, 72.9556848, 0.9999973, -3.892606E-05, 0.0002880258, -0.002284892
 134889356, 0, 0.03, 359.72, 580.23, 33.6216411, 72.9556848, 0.9999972, -4.601073E-05, 0.0002820342, -0.00236244
 134989316, 0, 0.03, 359.72, 580.47, 33.6216411, 72.9556846, 0.999997, -3.434235E-05, 0.0002942098, -0.002427155
 135089276, 0, 0.03, 359.71, 580.71, 33.6216411, 72.9556846, 0.9999969, -1.892045E-06, 0.0002881259, -0.002470239
 135189236, 0, 0.03, 359.71, 580.94, 33.6216412, 72.9556846, 0.9999968, 3.891666E-05, 0.0003066067, -0.002491261
 135289196, 0.01, 0.03, 359.71, 581.18, 33.6216412, 72.9556846, 0.9999968, 0.0001384293, 0.0003212208, -0.002487031
 135389156, 0.02, 0.04, 359.71, 581.42, 33.6216412, 72.9556846, 0.9999968, 0.0002075953, 0.0003546755, -0.002485899
 135489116, 0.02, 0.04, 359.71, 581.65, 33.6216412, 72.9556846, 0.9999968, 0.0002448641, 0.0003739448, -0.002485466
 135589076, 0.03, 0.05, 359.71, 581.89, 33.6216412, 72.9556846, 0.9999967, 0.0003098565, 0.0004382338, -0.002495363
 135689036, 0.03, 0.04, 359.71, 582.12, 33.6216412, 72.9556846, 0.9999967, 0.0003053518, 0.0004143656, -0.002511592
 135788996, 0.03, 0.04, 359.71, 582.36, 33.6216412, 72.9556846, 0.9999967, 0.0003089147, 0.000393335, -0.002530312
 135888956, 0.03, 0.04, 359.7, 582.61, 33.6216412, 72.9556846, 0.9999966, 0.0003101298, 0.0003651388, -0.002557719
 135988916, 0.03, 0.04, 359.7, 582.85, 33.6216412, 72.9556846, 0.9999965, 0.0002887428, 0.0003849493, -0.002589385
 136088876, 0.02, 0.03, 359.69, 583.09, 33.6216412, 72.9556846, 0.9999965, 0.0002189288, 0.0003288857, -0.002625016
 136188836, 0.02, 0.03, 359.69, 583.34, 33.6216412, 72.9556846, 0.9999964, 0.0002475438, 0.0003303038, -0.002666449
 136288796, 0.03, 0.03, 359.68, 583.58, 33.6216412, 72.9556846, 0.9999962, 0.0002787948, 0.0003283111, -0.002707305
 136388756, 0.03, 0.03, 359.68, 583.82, 33.6216412, 72.9556846, 0.9999961, 0.0003272865, 0.0003456351, -0.002747926
 136489549, 0.04, 0.04, 359.68, 584.06, 33.6216412, 72.9556846, 0.9999959, 0.0003728884, 0.0003618608, -0.002788646
 136589509, 0.03, 0.03, 359.67, 584.3, 33.6216412, 72.9556846, 0.9999959, 0.0002752733, 0.0002890296, -0.002828571
 136689469, 0.01, 0.02, 359.67, 584.53, 33.6216412, 72.9556846, 0.9999959, 0.0001133051, 0.0001945479, -0.002868458
 136789429, 0, 0.01, 359.66, 584.77, 33.6216412, 72.9556846, 0.9999958, 1.337907E-05, 0.0001191689, -0.002906542
 136889389, 0, 0.01, 359.66, 585, 33.6216412, 72.9556846, 0.9999956, -2.027728E-05, 9.437227E-05, -0.002942542
 136989349, 0, 0, 359.65, 585.24, 33.6216412, 72.9556846, 0.9999955, -4.803428E-05, 8.468943E-05, -0.002977394
 137089309, 0, 0.01, 359.65, 585.47, 33.6216412, 72.9556846, 0.9999955, -2.005784E-05, 0.0001230267, -0.00301052
 137189269, 0, 0.01, 359.65, 585.7, 33.6216412, 72.9556846, 0.9999954, 2.493705E-06, 0.0001673305, -0.003042816
 137289229, 0, 0.01, 359.64, 585.94, 33.6216412, 72.9556846, 0.9999953, -1.624375E-05, 0.0001568928, -0.00306953
 137389189, 0, 0.02, 359.64, 586.17, 33.6216412, 72.9556846, 0.9999952, 5.304195E-05, 0.0001853997, -0.003093793
 137489149, 0.01, 0.02, 359.64, 586.41, 33.6216412, 72.9556846, 0.9999951, 0.000104099, 0.0002119905, -0.003117582
 137589109, 0, 0.02, 359.64, 586.64, 33.6216412, 72.9556846, 0.9999951, 4.20715E-05, 0.0001796472, -0.003133846
 137689069, 0, 0.01, 359.63, 586.88, 33.6216412, 72.9556846, 0.9999951, -5.156117E-05, 0.0001131943, -0.003147909
 137789029, -0.01, 0, 359.63, 587.11, 33.6216412, 72.9556846, 0.999995, -0.0001117426, 8.055186E-05, -0.003161978
 137888989, -0.01, 0, 359.63, 587.35, 33.6216412, 72.9556846, 0.9999949, -0.0001179135, 6.38017E-05, -0.00317444
 137988949, -0.01, 0, 359.63, 587.59, 33.6216412, 72.9556846, 0.9999949, -0.0001165119, 8.225631E-05, -0.003187381
 138088909, 0, 0.01, 359.63, 587.82, 33.6216412, 72.9556846, 0.9999949, -7.910244E-05, 8.926962E-05, -0.003201613
 138188869, 0, 0.01, 359.63, 588.06, 33.6216412, 72.9556846, 0.9999948, -3.702664E-05, 0.0001220752, -0.003218185
 138288829, 0, 0.01, 359.62, 588.3, 33.6216412, 72.9556846, 0.9999948, -5.411543E-05, 0.0001222723, -0.003236834
 138388789, 0, 0.01, 359.62, 588.53, 33.6216412, 72.9556846, 0.9999947, -5.59058E-05, 0.0001198554, -0.003256698
 138488749, 0, 0.01, 359.62, 588.77, 33.6216412, 72.9556846, 0.9999946, -4.283536E-05, 0.0001513423, -0.003284109
 138589542, 0, 0.01, 359.62, 589.01, 33.6216412, 72.9556846, 0.9999945, -3.05155E-05, 0.0001493186, -0.003308738
 138689502, 0, 0.01, 359.61, 589.25, 33.6216412, 72.9556846, 0.9999945, -4.77586E-05, 0.0001032074, -0.003325072
 138789462, 0, 0.01, 359.61, 589.48, 33.6216412, 72.9556846, 0.9999944, 6.050298E-06, 0.0001094512, -0.00334085
 138889422, 0, 0, 359.61, 589.72, 33.6216412, 72.9556846, 0.9999943, -6.61395E-05, 6.431216E-05, -0.003362122
 138989382, 0, 0, 359.61, 589.96, 33.6216412, 72.9556846, 0.9999943, -2.503012E-05, 1.824198E-05, -0.00338109
 139089342, 0, 0, 359.61, 590.2, 33.6216412, 72.9556846, 0.9999942, 1.346395E-05, 9.987073E-06, -0.003399105
 139189302, 0, 0, 359.6, 590.43, 33.6216412, 72.9556846, 0.9999942, 4.878712E-05, 6.549526E-05, -0.00341545
 139289262, 0, 0.01, 359.6, 590.67, 33.6216411, 72.9556846, 0.9999941, 6.499161E-05, 0.0001407694, -0.003434029
 139389222, 0.01, 0.02, 359.6, 590.91, 33.6216411, 72.9556846, 0.999994, 9.76064E-05, 0.0001938176, -0.003458913
 139489182, 0, 0.02, 359.6, 591.15, 33.6216411, 72.9556846, 0.9999939, 8.41431E-05, 0.0001867655, -0.003488503
 139589142, 0, 0.01, 359.59, 591.38, 33.6216411, 72.9556846, 0.9999938, 6.436477E-05, 0.00014535, -0.003520447
 139689102, 0, 0, 359.59, 591.62, 33.6216411, 72.9556846, 0.9999936, 3.225201E-05, 7.795179E-05, -0.003566503
 139789062, 0, 0, 359.58, 591.86, 33.6216411, 72.9556846, 0.9999934, -6.394056E-06, 2.627136E-05, -0.003621677
 139889022, 0, 0, 359.57, 592.09, 33.6216411, 72.9556846, 0.9999933, 1.972462E-05, 3.591325E-06, -0.003672164
 139988982, 0.01, 0, 359.57, 592.33, 33.6216411, 72.9556846, 0.9999931, 0.0001081257, -2.810873E-05, -0.0037119
 140088942, 0.01, 0, 359.57, 592.57, 33.6216411, 72.9556846, 0.999993, 9.666156E-05, -4.67241E-05, -0.003741553
 140188902, 0, 0, 359.57, 592.81, 33.6216411, 72.9556846, 0.999993, 7.936936E-05, -8.349569E-05, -0.003734181
 140288862, 0, -0.01, 359.57, 593.04, 33.6216411, 72.9556846, 0.9999931, 6.942722E-05, -0.0001344623, -0.003693101
 140388822, 0, -0.01, 359.58, 593.28, 33.6216411, 72.9556846, 0.9999934, 8.603389E-05, -0.0001423204, -0.003641682
 140488782, 0, -0.02, 359.58, 593.52, 33.6216411, 72.9556846, 0.9999935, 6.997428E-05, -0.0001750352, -0.003606588
 140588742, 0, -0.02, 359.58, 593.75, 33.6216411, 72.9556846, 0.9999936, 1.136461E-05, -0.0002054319, -0.003590724
 140689535, 0, -0.01, 359.59, 593.99, 33.6216411, 72.9556846, 0.9999936, 3.973361E-05, -0.0001444987, -0.003575023
 140789495, 0, 0, 359.59, 594.23, 33.6216411, 72.9556846, 0.9999936, 6.357949E-05, -7.549039E-05, -0.003572625
 140889455, 0, 0, 359.58, 594.46, 33.6216411, 72.9556846, 0.9999936, 2.591439E-05, -7.258811E-05, -0.003587728
 140989415, 0, 0, 359.58, 594.7, 33.6216411, 72.9556846, 0.9999935, 3.281307E-05, 6.086049E-05, -0.00360981
 141089375, 0, 0, 359.58, 594.94, 33.6216411, 72.9556846, 0.9999934, 5.263142E-05, 1.400762E-05, -0.003636441
 141189335, 0, 0, 359.57, 595.17, 33.6216411, 72.9556846, 0.9999933, 4.62345E-05, -2.964827E-05, -0.003669067
 141289295, 0, 0, 359.57, 595.41, 33.6216411, 72.9556846, 0.9999931, -1.504687E-05, -7.020166E-05, -0.003702909
 141389255, 0, -0.01, 359.57, 595.65, 33.6216411, 72.9556846, 0.999993, -7.214829E-05, -0.0001080766, -0.003736553
 141489215, 0, 0, 359.56, 595.88, 33.6216411, 72.9556846, 0.9999929, -6.03639E-05, -6.929152E-05, -0.003770241
 141589175, 0, 0, 359.56, 596.12, 33.6216411, 72.9556846, 0.9999928, 6.73233E-05, 7.785712E-05, -0.003803372
 141689135, 0.01, 0.01, 359.56, 596.36, 33.6216411, 72.9556846, 0.9999926, 0.0001121612, 0.0001377796, -0.003835185
 141789095, 0.01, 0.02, 359.55, 596.59, 33.6216409, 72.9556846, 0.9999925, 0.0001659508, 0.0001751868, -0.003848488
 141889055, 0.01, 0.01, 359.55, 596.83, 33.6216409, 72.9556846, 0.9999925, 0.0001492125, 0.0001237159, -0.003850868
 141989015, 0.01, 0.01, 359.55, 597.07, 33.6216409, 72.9556846, 0.9999925, 0.0001315294, 9.467486E-05, -0.003849701
 142088975, 0.01, 0, 359.55, 597.3, 33.6216409, 72.9556846, 0.9999926, 0.0001268024, -2.828116E-05, -0.003846026
 142188935, 0.01, -0.01, 359.55, 597.54, 33.6216409, 72.9556846, 0.9999926, 0.0001484356, -0.0001519545, -0.003844413
 142288895, 0, -0.02, 359.55, 597.78, 33.6216409, 72.9556846, 0.9999925, 8.069209E-05, -0.0002110886, -0.003856399
 142388855, 0, -0.03, 359.55, 598.02, 33.6216409, 72.9556846, 0.9999924, 5.911736E-05, -0.0002700765, -0.003887255
 142488815, 0, -0.04, 359.55, 598.25, 33.6216409, 72.9556846, 0.9999923, 2.487304E-05, -0.0003870468, -0.003918246
 142588775, 0, -0.04, 359.54, 598.49, 33.6216409, 72.9556846, 0.9999921, 5.963943E-05, -0.0004015211, -0.003948587
 142688735, 0, -0.05, 359.54, 598.73, 33.6216409, 72.9556846, 0.999992, 4.004511E-05, -0.0004439657, -0.003974928
 142789528, 0, -0.05, 359.54, 598.97, 33.6216409, 72.9556846, 0.999992, 3.200172E-05, -0.0004583172, -0.003984993
 142889488, 0, -0.04, 359.54, 599.21, 33.6216409, 72.9556846, 0.999992, 6.031256E-05, -0.0004365377, -0.003979285
 142989448, 0, -0.04, 359.54, 599.44, 33.6216409, 72.9556846, 0.999992, 2.819862E-05, -0.0004199893, -0.003968788
 143089408, 0, -0.04, 359.54, 599.68, 33.6216409, 72.9556846, 0.9999921, 8.136371E-05, -0.0004275705, -0.003955008
 143189368, 0, -0.05, 359.54, 599.92, 33.6216409, 72.9556846, 0.9999921, 7.7554E-05, -0.000449153, -0.003946932
 143289328, 0, -0.04, 359.54, 600.16, 33.6216409, 72.9556846, 0.9999921, 5.10986E-05, -0.0003966055, -0.003949724
 143389288, 0, -0.03, 359.54, 600.39, 33.6216409, 72.9556846, 0.9999921, 8.449754E-05, -0.0003285538, -0.003959573
 143489248, 0.01, -0.03, 359.54, 600.63, 33.6216409, 72.9556846, 0.999992, 8.974659E-05, -0.00029813, -0.003974384
 143589208, 0.01, -0.02, 359.54, 600.86, 33.6216409, 72.9556846, 0.999992, 0.0001009931, -0.0002562796, -0.003986489
 143689168, 0.01, -0.02, 359.54, 601.09, 33.6216409, 72.9556846, 0.999992, 0.0001234897, -0.0002478793, -0.003998642
 143789128, 0.01, -0.02, 359.54, 601.31, 33.6216409, 72.9556846, 0.9999919, 0.0001634649, -0.0002266576, -0.004008051
 143889088, 0.02, -0.02, 359.53, 601.53, 33.6216409, 72.9556846, 0.9999919, 0.0001891581, -0.0001831973, -0.004018812
 143989048, 0.01, -0.01, 359.53, 601.74, 33.6216409, 72.9556846, 0.9999919, 0.0001535389, -0.0001360633, -0.004027958
 144089008, 0.01, -0.02, 359.53, 601.95, 33.6216409, 72.9556846, 0.9999918, 0.0001406076, -0.0001849574, -0.004036785
 144188968, 0.01, -0.02, 359.53, 602.15, 33.6216409, 72.9556846, 0.9999918, 0.0001403035, -0.0002002577, -0.0040437
 144288928, 0.01, -0.02, 359.53, 602.35, 33.6216409, 72.9556846, 0.9999918, 0.0001510449, -0.0001775562, -0.004051007
 144388888, 0.01, -0.01, 359.53, 602.54, 33.6216409, 72.9556846, 0.9999918, 0.0001144212, -8.969944E-05, -0.004057323
 144488848, 0, 0, 359.53, 602.72, 33.6216409, 72.9556846, 0.9999917, -1.749772E-05, -4.631355E-05, -0.004061681
 144588808, 0, 0, 359.53, 602.9, 33.6216409, 72.9556846, 0.9999917, -1.254238E-06, -3.962399E-05, -0.004075634
 144688768, 0, 0, 359.53, 603.07, 33.6216409, 72.9556846, 0.9999916, 5.637942E-05, -4.344706E-05, -0.004091539
 144789561, 0, 0, 359.53, 603.24, 33.6216411, 72.9556846, 0.9999916, 8.074172E-05, 3.058523E-05, -0.004096915
 144889521, 0.01, 0.01, 359.53, 603.4, 33.6216411, 72.9556846, 0.9999916, 0.0001129539, 0.0001321203, -0.004092458
 144989481, 0.01, 0.01, 359.53, 603.56, 33.6216411, 72.9556846, 0.9999917, 8.859431E-05, 0.0001611474, -0.004080578
 145089441, 0, 0.02, 359.53, 603.71, 33.6216411, 72.9556846, 0.9999917, 1.393814E-05, 0.0001995768, -0.00406009
 145189401, 0, 0.02, 359.53, 603.85, 33.6216411, 72.9556846, 0.9999918, 7.961651E-05, 0.0002609182, -0.004049375
 145289361, 0.01, 0.04, 359.53, 603.99, 33.6216411, 72.9556846, 0.9999917, 0.0001107482, 0.0003520482, -0.004045341
 145389321, 0.01, 0.04, 359.53, 604.13, 33.6216411, 72.9556846, 0.9999917, 0.0001318963, 0.00040616, -0.004044184
 145489281, 0.02, 0.05, 359.53, 604.26, 33.6216411, 72.9556846, 0.9999917, 0.0001841753, 0.0004728789, -0.004045818
 145589241, 0.01, 0.05, 359.53, 604.38, 33.6216411, 72.9556846, 0.9999916, 0.0001387377, 0.0004595242, -0.004063304
 145689201, 0, 0.04, 359.53, 604.5, 33.6216411, 72.9556846, 0.9999915, 8.001927E-05, 0.0003770422, -0.004095131
 145789161, 0, 0.03, 359.52, 604.62, 33.6216411, 72.9556846, 0.9999914, 3.755425E-05, 0.0003363121, -0.004130477
 145889121, 0, 0.03, 359.52, 604.72, 33.6216411, 72.9556846, 0.9999912, 5.099037E-06, 0.0003429416, -0.00416669
 145989081, 0, 0.04, 359.51, 604.83, 33.6216411, 72.9556846, 0.9999911, -2.778146E-05, 0.0003907174, -0.004199793
 146089041, 0, 0.04, 359.51, 604.93, 33.6216411, 72.9556846, 0.9999909, -4.31206E-05, 0.0004304304, -0.004232626
 146189001, 0, 0.05, 359.51, 605.02, 33.6216411, 72.9556846, 0.9999908, -1.286708E-05, 0.000443043, -0.004260656
 146288961, 0, 0.04, 359.5, 605.11, 33.6216411, 72.9556846, 0.9999908, -7.943372E-06, 0.0004132626, -0.004280348
 146388921, 0, 0.04, 359.5, 605.19, 33.6216411, 72.9556846, 0.9999907, 4.379502E-05, 0.0004201513, -0.004296672
 146488881, 0, 0.02, 359.5, 605.26, 33.6216411, 72.9556846, 0.9999906, 5.819861E-05, 0.0002593108, -0.004319454
 146588841, 0, 0.02, 359.5, 605.34, 33.6216411, 72.9556846, 0.9999905, 5.150907E-05, 0.0002462056, -0.004340654
 146688801, 0, 0.03, 359.49, 605.4, 33.6216411, 72.9556846, 0.9999904, -1.802254E-05, 0.0002638174, -0.004364428
 146788761, 0, 0.02, 359.49, 605.46, 33.6216411, 72.9556846, 0.9999903, -2.014144E-05, 0.0002247194, -0.004384841
 146889554, 0, 0.02, 359.49, 605.52, 33.6216411, 72.9556846, 0.9999903, 2.238801E-05, 0.0001983811, -0.004408858
 146989514, 0, 0.02, 359.49, 605.57, 33.6216411, 72.9556846, 0.9999902, 7.657641E-05, 0.0001775238, -0.004434254
 147089474, 0, 0.02, 359.48, 605.61, 33.6216411, 72.9556846, 0.99999, 6.950428E-05, 0.000175502, -0.004453118
 147189434, 0, 0.01, 359.48, 605.65, 33.6216411, 72.9556846, 0.99999, 2.320833E-05, 0.0001661172, -0.004471027
 147289394, 0, 0.02, 359.48, 605.68, 33.6216411, 72.9556846, 0.9999899, 5.305193E-05, 0.0002304033, -0.004491808
 147389354, 0.01, 0.02, 359.48, 605.7, 33.6216411, 72.9556846, 0.9999898, 0.0001261737, 0.0002003195, -0.004510525
 147489314, 0.01, 0.01, 359.48, 605.72, 33.6216411, 72.9556846, 0.9999897, 0.0001317042, 0.0001184011, -0.004526745
 147589274, 0.01, -0.02, 359.47, 605.73, 33.6216411, 72.9556846, 0.9999896, 0.0001298472, -0.0002421489, -0.004544389
 147689234, 0.03, -0.21, 359.47, 605.73, 33.6216411, 72.9556846, 0.9999878, 0.0003173777, -0.001851731, -0.004565352
 147789194, 0.09, -0.61, 359.47, 605.72, 33.6216411, 72.9556846, 0.9999746, 0.0008199067, -0.005390471, -0.004588889
 147889154, 0.17, -1.17, 359.46, 605.72, 33.6216411, 72.9556846, 0.9999353, 0.001505522, -0.01029164, -0.004614777
 147989114, 0.26, -1.77, 359.46, 605.71, 33.6216411, 72.9556846, 0.9998665, 0.002229232, -0.01551031, -0.004643338
 148089074, 0.34, -2.34, 359.45, 605.7, 33.6216411, 72.9556846, 0.9997749, 0.002895982, -0.02049143, -0.004671059
 148189034, 0.41, -2.86, 359.45, 605.7, 33.6216412, 72.9556846, 0.9996687, 0.003527479, -0.02505959, -0.004694907
 148288994, 0.48, -3.35, 359.44, 605.7, 33.6216413, 72.9556848, 0.9995509, 0.004093103, -0.02931094, -0.004712064
 148388954, 0.55, -3.81, 359.44, 605.7, 33.6216414, 72.9556848, 0.9994234, 0.004679554, -0.03329849, -0.004717027
 148488914, 0.62, -4.26, 359.43, 605.7, 33.6216418, 72.9556848, 0.9992832, 0.005239202, -0.03719511, -0.004705484
 148588874, 0.69, -4.71, 359.43, 605.71, 33.621642, 72.9556849, 0.9991238, 0.005851867, -0.04117993, -0.00466963
 148688834, 0.75, -5.17, 359.43, 605.73, 33.6216424, 72.955685, 0.9989489, 0.006378689, -0.04515701, -0.00460693
 148788794, 0.82, -5.62, 359.44, 605.75, 33.6216429, 72.955685, 0.9987582, 0.00693506, -0.04913374, -0.00445665
 148888754, 0.88, -6.09, 359.6, 605.78, 33.6216433, 72.9556851, 0.9985529, 0.007532599, -0.05316176, -0.003045775
 148989547, 0.89, -6.56, 0.21, 605.81, 33.6216439, 72.9556851, 0.9983248, 0.007939897, -0.05726539, 0.002282165
 149089507, 0.84, -7.06, 1.32, 605.85, 33.6216447, 72.9556853, 0.9980006, 0.008074166, -0.06153031, 0.01198646
 149189467, 0.73, -7.59, 2.83, 605.89, 33.6216455, 72.9556855, 0.9974677, 0.008011856, -0.06605735, 0.02510834
 149289427, 0.55, -8.12, 4.59, 605.94, 33.6216463, 72.9556856, 0.9966577, 0.007681476, -0.07060687, 0.04036152
 149389387, 0.33, -8.67, 6.46, 606, 33.6216474, 72.9556858, 0.9955307, 0.007187906, -0.07534982, 0.05647335
 149489347, 0.08, -9.23, 8.3, 606.07, 33.6216485, 72.955686, 0.9941304, 0.00659967, -0.08022872, 0.07228071
 149589307, -0.16, -9.8, 10, 606.14, 33.6216498, 72.9556862, 0.9925565, 0.006012186, -0.08524339, 0.08676954
 149689267, -0.41, -10.38, 11.46, 606.22, 33.6216511, 72.9556865, 0.9909464, 0.005461428, -0.09038516, 0.09912569
 149789227, -0.62, -10.97, 12.6, 606.31, 33.6216527, 72.9556867, 0.9894419, 0.005118346, -0.09564575, 0.1087681
 149889187, -0.79, -11.56, 13.39, 606.41, 33.6216542, 72.955687, 0.9881821, 0.004874688, -0.1008652, 0.115319
 149989147, -0.9, -12.07, 13.8, 606.51, 33.621656, 72.9556874, 0.9873151, 0.004873498, -0.1053723, 0.1186673
 150089107, -0.92, -12.44, 13.84, 606.63, 33.6216579, 72.9556877, 0.9869341, 0.005076477, -0.1085982, 0.1189194
 150189067, -0.87, -12.68, 13.54, 606.75, 33.6216601, 72.9556881, 0.9870115, 0.005530098, -0.1105984, 0.116386
 150289027, -0.75, -12.84, 12.97, 606.89, 33.6216624, 72.9556884, 0.9874293, 0.006110653, -0.1118668, 0.1114987
 150388987, -0.58, -12.89, 12.18, 607.03, 33.6216648, 72.9556889, 0.9881156, 0.006831256, -0.1121979, 0.1048452
 150488947, -0.39, -12.78, 11.25, 607.18, 33.6216673, 72.9556894, 0.9890235, 0.007504026, -0.1111619, 0.09705284
 150588907, -0.18, -12.61, 10.26, 607.34, 33.62167, 72.9556899, 0.989974, 0.008201301, -0.1095567, 0.08877802
 150688867, 0, -12.48, 9.3, 607.51, 33.6216728, 72.9556905, 0.9907963, 0.008815686, -0.1083688, 0.08062949
 150788827, 0.16, -12.38, 8.42, 607.68, 33.6216757, 72.9556911, 0.9914642, 0.009376252, -0.1075032, 0.07317055
 150888787, 0.28, -12.31, 7.67, 607.87, 33.6216788, 72.9556917, 0.9919792, 0.009628344, -0.106852, 0.06683724
 150988747, 0.35, -12.25, 7.1, 608.06, 33.6216819, 72.9556923, 0.9923449, 0.00972511, -0.1063718, 0.0619844
 151089540, 0.39, -12.18, 6.73, 608.26, 33.6216852, 72.9556929, 0.992611, 0.009673968, -0.1057048, 0.0587908
 151189500, 0.39, -12.11, 6.57, 608.46, 33.6216885, 72.9556935, 0.9927563, 0.009429583, -0.105141, 0.05737003
 151289460, 0.34, -12.06, 6.6, 608.67, 33.6216919, 72.9556942, 0.9927852, 0.009022145, -0.1047627, 0.0576268
 151389420, 0.26, -11.98, 6.82, 608.88, 33.6216955, 72.9556948, 0.9927568, 0.008546446, -0.1040714, 0.05941497
 151489380, 0.17, -11.91, 7.18, 609.09, 33.6216991, 72.9556954, 0.9926364, 0.008044467, -0.1034652, 0.06247453
 151589340, 0.05, -11.82, 7.65, 609.32, 33.6217027, 72.9556961, 0.9924537, 0.007357462, -0.102786, 0.06645714
 151689300, -0.06, -11.71, 8.19, 609.54, 33.6217065, 72.9556968, 0.992237, 0.006739126, -0.1018562, 0.07103191
 151789260, -0.17, -11.58, 8.76, 609.77, 33.6217101, 72.9556975, 0.9920029, 0.006166405, -0.1007075, 0.07583085
 151889220, -0.28, -11.42, 9.31, 610, 33.6217141, 72.9556983, 0.991769, 0.005575038, -0.09940927, 0.08050461
 151989180, -0.37, -11.24, 9.8, 610.23, 33.621718, 72.955699, 0.9915702, 0.005127129, -0.09785854, 0.08477055
 152089140, -0.44, -11.03, 10.23, 610.47, 33.6217219, 72.9556997, 0.9914278, 0.004698126, -0.0961082, 0.08838574
 152189100, -0.49, -10.82, 10.55, 610.7, 33.6217259, 72.9557004, 0.991345, 0.004381366, -0.09436102, 0.09116925
 152289060, -0.51, -10.59, 10.76, 610.94, 33.6217299, 72.9557011, 0.9913673, 0.004171242, -0.09232047, 0.09300763
 152389020, -0.5, -10.31, 10.86, 611.18, 33.6217338, 72.9557018, 0.991505, 0.004166741, -0.08992548, 0.09388301
 152488980, -0.46, -10.04, 10.84, 611.42, 33.621738, 72.9557027, 0.991728, 0.004242853, -0.08750175, 0.09381355
 152588940, -0.42, -9.82, 10.73, 611.66, 33.6217421, 72.9557033, 0.9919826, 0.004311136, -0.08557939, 0.09288769
 152688900, -0.38, -9.78, 10.54, 611.9, 33.621746, 72.955704, 0.9921679, 0.004467236, -0.0852062, 0.09122912
 152788860, -0.33, -9.89, 10.28, 612.14, 33.6217502, 72.9557047, 0.9922822, 0.004811721, -0.08617146, 0.08903661
 152888820, -0.27, -10.03, 9.98, 612.38, 33.6217543, 72.9557056, 0.9924032, 0.00518916, -0.08732918, 0.08650185
 152988780, -0.21, -10.15, 9.67, 612.61, 33.6217584, 72.9557063, 0.992541, 0.005576622, -0.08834258, 0.08382715
 153088740, -0.15, -10.26, 9.36, 612.85, 33.6217624, 72.9557069, 0.9926739, 0.005933147, -0.08927219, 0.08120201
 153189533, -0.1, -10.3, 9.08, 613.09, 33.6217667, 72.9557076, 0.9928356, 0.006229466, -0.08962046, 0.07878245
 153289493, -0.07, -10.34, 8.84, 613.33, 33.6217708, 72.9557085, 0.9929691, 0.006301379, -0.08991981, 0.07672737
 153389453, -0.04, -10.35, 8.65, 613.56, 33.621775, 72.9557092, 0.9930806, 0.006450098, -0.09003241, 0.07512312
 153489413, -0.02, -10.35, 8.53, 613.8, 33.6217791, 72.9557099, 0.9931667, 0.00650968, -0.08996502, 0.07405208
 153589373, -0.01, -10.35, 8.46, 614.04, 33.6217833, 72.9557107, 0.9932033, 0.006532022, -0.09000508, 0.07350906
 153689333, -0.01, -10.36, 8.46, 614.27, 33.6217874, 72.9557114, 0.9932002, 0.006515267, -0.09008449, 0.0734563
 153789293, -0.02, -10.35, 8.5, 614.51, 33.6217916, 72.9557121, 0.9931754, 0.006448277, -0.09002437, 0.07386913
 153889253, -0.03, -10.33, 8.6, 614.74, 33.6217958, 72.9557129, 0.9931287, 0.006434673, -0.08986054, 0.07469269
 153989213, -0.04, -10.31, 8.73, 614.98, 33.6218001, 72.9557136, 0.9930625, 0.006461294, -0.08963124, 0.07583781
 154089173, -0.06, -10.28, 8.89, 615.21, 33.6218043, 72.9557143, 0.9929817, 0.006379551, -0.08939265, 0.07717283
 154189133, -0.08, -10.23, 9.06, 615.45, 33.6218086, 72.955715, 0.9929043, 0.006349035, -0.08900501, 0.07860585
 154289093, -0.09, -10.23, 9.22, 615.68, 33.6218128, 72.9557159, 0.9927958, 0.006313802, -0.08897243, 0.08000308
 154389053, -0.11, -10.21, 9.37, 615.92, 33.6218171, 72.9557166, 0.992707, 0.006273917, -0.08880991, 0.08127827
 154489013, -0.12, -10.17, 9.49, 616.16, 33.6218213, 72.9557173, 0.9926508, 0.00622111, -0.08846111, 0.08234199
 154588973, -0.13, -10.13, 9.58, 616.39, 33.6218256, 72.9557181, 0.9926178, 0.006176397, -0.08808019, 0.08314776
 154688933, -0.12, -10.06, 9.64, 616.63, 33.6218299, 72.9557188, 0.9926251, 0.006258651, -0.0875004, 0.08366664
 154788893, -0.12, -10.03, 9.66, 616.86, 33.6218341, 72.9557196, 0.9926322, 0.006308837, -0.08725249, 0.08383638
 154888853, -0.1, -10.01, 9.64, 617.1, 33.6218384, 72.9557203, 0.992661, 0.006427862, -0.08707713, 0.08366863
 154988813, -0.08, -9.99, 9.58, 617.34, 33.6218427, 72.955721, 0.9927189, 0.006506849, -0.08685472, 0.0832052
 155088773, -0.07, -9.98, 9.5, 617.57, 33.6218469, 72.9557219, 0.9927856, 0.006587133, -0.08674446, 0.08251483
 155189566, -0.05, -9.94, 9.4, 617.81, 33.6218512, 72.9557226, 0.9928876, 0.006656093, -0.08640399, 0.08163569
 155289526, -0.02, -9.9, 9.28, 618.05, 33.6218554, 72.9557234, 0.9930018, 0.006748401, -0.08603407, 0.08062331
 155389486, 0, -9.9, 9.15, 618.29, 33.6218597, 72.9557241, 0.9930869, 0.006861729, -0.08605014, 0.07954123
 155489446, 0.01, -9.91, 9.03, 618.52, 33.6218639, 72.9557248, 0.9931636, 0.006945602, -0.08615102, 0.07845928
 155589406, 0.03, -9.91, 8.91, 618.76, 33.6218682, 72.9557255, 0.9932424, 0.007046444, -0.08613528, 0.07746378
 155689366, 0.05, -9.93, 8.81, 618.99, 33.6218724, 72.9557264, 0.9932975, 0.007150189, -0.08628939, 0.07657167
 155789326, 0.07, -9.94, 8.72, 619.23, 33.6218767, 72.9557272, 0.9933484, 0.007214159, -0.08637992, 0.07579783
 155889286, 0.07, -9.94, 8.64, 619.47, 33.621881, 72.9557279, 0.9933934, 0.007173809, -0.08641107, 0.07517494
 155989246, 0.07, -9.94, 8.59, 619.7, 33.6218852, 72.9557287, 0.9934269, 0.007184119, -0.08640064, 0.07474242
 156089206, 0.07, -9.94, 8.56, 619.94, 33.6218895, 72.9557294, 0.9934495, 0.007108547, -0.08636558, 0.07448873
 156189166, 0.06, -9.93, 8.56, 620.18, 33.6218938, 72.9557301, 0.9934605, 0.007048383, -0.08631372, 0.07440656
 156289126, 0.05, -9.93, 8.56, 620.41, 33.621898, 72.955731, 0.9934568, 0.006939204, -0.08632714, 0.07445204
 156389086, 0.04, -9.95, 8.58, 620.65, 33.6219023, 72.9557318, 0.99343, 0.006890424, -0.08650714, 0.07460431
 156489046, 0.03, -9.93, 8.61, 620.88, 33.6219065, 72.9557325, 0.9934255, 0.006815146, -0.08636567, 0.07483439
 156589006, 0.02, -9.9, 8.64, 621.12, 33.6219108, 72.9557332, 0.9934279, 0.0067312, -0.08610717, 0.07510883
 156688966, 0.02, -9.89, 8.68, 621.36, 33.6219151, 72.9557341, 0.9934136, 0.00671019, -0.08600098, 0.0754208
 156788926, 0.02, -9.85, 8.71, 621.59, 33.6219193, 72.9557349, 0.9934183, 0.006710687, -0.08566792, 0.07573685
 156888886, 0.01, -9.85, 8.74, 621.83, 33.6219236, 72.9557356, 0.9934046, 0.006664053, -0.08561596, 0.07597963
 156988846, 0.01, -9.84, 8.76, 622.06, 33.6219278, 72.9557363, 0.9933977, 0.006651973, -0.0855662, 0.07612702
 157088806, 0, -9.84, 8.77, 622.3, 33.6219321, 72.9557372, 0.9933925, 0.006604655, -0.08556773, 0.07619616
 157188766, 0, -9.84, 8.77, 622.54, 33.6219363, 72.955738, 0.9933915, 0.006574288, -0.08557598, 0.07620288
 157289559, 0, -9.84, 8.76, 622.77, 33.6219406, 72.9557387, 0.9934027, 0.006541151, -0.08551955, 0.07612318
 157389519, 0, -9.8, 8.74, 623.01, 33.6219449, 72.9557396, 0.993444, 0.006507427, -0.08518324, 0.0759638
 157489479, 0, -9.79, 8.72, 623.25, 33.6219491, 72.9557403, 0.9934639, 0.006469664, -0.08514985, 0.0757442
 157589439, 0, -9.77, 8.69, 623.48, 33.6219534, 72.9557411, 0.9934974, 0.006514302, -0.08496561, 0.07550641
 157689399, 0, -9.77, 8.65, 623.72, 33.6219576, 72.9557418, 0.9935209, 0.006484283, -0.08494251, 0.07522579
 157789359, 0, -9.78, 8.62, 623.96, 33.6219619, 72.9557427, 0.9935358, 0.006459476, -0.08502492, 0.07493692
 157889319, 0, -9.79, 8.59, 624.19, 33.6219661, 72.9557434, 0.9935497, 0.006441331, -0.08512391, 0.07464211
 157989279, 0, -9.8, 8.55, 624.43, 33.6219703, 72.9557442, 0.993568, 0.006421367, -0.0851832, 0.07433201
 158089239, 0, -9.8, 8.51, 624.67, 33.6219746, 72.9557449, 0.9935877, 0.00637826, -0.08523919, 0.07400791
 158189199, 0, -9.8, 8.48, 624.91, 33.6219789, 72.9557458, 0.9936084, 0.00635148, -0.08525242, 0.07371644
 158289159, 0, -9.82, 8.45, 625.14, 33.6219831, 72.9557465, 0.9936165, 0.006341362, -0.08537482, 0.07346498
 158389119, 0, -9.84, 8.43, 625.38, 33.6219874, 72.9557473, 0.993616, 0.006386004, -0.0855531, 0.07325969
 158489079, 0, -9.87, 8.41, 625.62, 33.6219916, 72.955748, 0.9936073, 0.006350672, -0.08581027, 0.0730808
 158589039, 0, -9.86, 8.39, 625.86, 33.6219959, 72.9557488, 0.9936208, 0.006317182, -0.08577394, 0.07294322
 158688999, 0, -9.86, 8.38, 626.09, 33.6220001, 72.9557495, 0.9936272, 0.006309494, -0.08578084, 0.07284772
 158788959, 0, -9.85, 8.38, 626.33, 33.6220043, 72.9557504, 0.9936401, 0.006288773, -0.0856779, 0.07279579
 158888919, 0, -9.81, 8.37, 626.57, 33.6220086, 72.9557512, 0.9936742, 0.006265549, -0.08530233, 0.07277298
 158988879, 0.01, -9.81, 8.37, 626.81, 33.6220128, 72.9557519, 0.9936759, 0.006348032, -0.08529525, 0.07275054
 159088839, 0.02, -9.82, 8.36, 627.05, 33.6220171, 72.9557526, 0.9936659, 0.006434174, -0.08542889, 0.07272304
 159188799, 0.02, -9.84, 8.36, 627.28, 33.6220213, 72.9557535, 0.9936555, 0.006485974, -0.0855711, 0.07269299
 159288759, 0.01, -9.86, 8.36, 627.52, 33.6220255, 72.9557542, 0.9936456, 0.006419847, -0.08572351, 0.07265476
 159389552, 0, -9.85, 8.35, 627.76, 33.6220298, 72.955755, 0.993652, 0.006348169, -0.08569629, 0.0726051
 159489512, 0, -9.83, 8.35, 628, 33.622034, 72.9557557, 0.9936725, 0.006273939, -0.08551829, 0.07254025
 159589472, 0, -9.84, 8.34, 628.24, 33.6220383, 72.9557566, 0.9936733, 0.006223273, -0.08557503, 0.07246773
 159689432, 0, -9.82, 8.33, 628.48, 33.6220425, 72.9557573, 0.9936956, 0.006161925, -0.08539382, 0.07238146
 159789392, -0.01, -9.8, 8.32, 628.71, 33.6220467, 72.9557581, 0.9937159, 0.006107544, -0.08523668, 0.07229099
 159889352, 0, -9.82, 8.31, 628.95, 33.622051, 72.9557588, 0.9937057, 0.00616542, -0.08542285, 0.07220686
 159989312, 0.01, -9.86, 8.3, 629.19, 33.6220552, 72.9557595, 0.9936807, 0.006355658, -0.08576272, 0.07213261
 160089272, 0.02, -9.91, 8.29, 629.43, 33.6220594, 72.9557604, 0.9936551, 0.006438132, -0.08613645, 0.07203212
 160189232, 0.02, -9.94, 8.27, 629.66, 33.6220637, 72.9557612, 0.9936358, 0.006469286, -0.08647195, 0.07189363
 160289192, 0.02, -9.96, 8.25, 629.9, 33.6220679, 72.9557619, 0.9936335, 0.006456583, -0.08661437, 0.07175472
 160389152, 0.02, -9.96, 8.24, 630.14, 33.622072, 72.9557626, 0.9936398, 0.006504016, -0.08663478, 0.07163917
 160489112, 0.03, -9.99, 8.23, 630.38, 33.6220764, 72.9557635, 0.9936308, 0.006509941, -0.0868343, 0.07152137
 160589072, 0.03, -10.02, 8.21, 630.61, 33.6220805, 72.9557641, 0.9936123, 0.006525723, -0.08714429, 0.07140025
 160689032, 0.03, -10.02, 8.2, 630.85, 33.6220849, 72.955765, 0.9936219, 0.006533815, -0.08713471, 0.07127611
 160788992, 0.03, -10.01, 8.18, 631.09, 33.622089, 72.9557657, 0.9936408, 0.006561337, -0.08701716, 0.0711544
 160888952, 0.04, -9.98, 8.17, 631.32, 33.6220934, 72.9557665, 0.9936693, 0.006550989, -0.08677481, 0.07105309
 160988912, 0.03, -9.93, 8.16, 631.56, 33.6220975, 72.9557672, 0.9937131, 0.006510552, -0.08634349, 0.07097015
 161088872, 0.03, -9.92, 8.15, 631.8, 33.6221018, 72.9557681, 0.9937256, 0.006496115, -0.08626425, 0.07089259
 161188832, 0.03, -9.93, 8.14, 632.03, 33.622106, 72.9557688, 0.9937262, 0.006492336, -0.08631898, 0.07081784
 161288792, 0.03, -9.94, 8.14, 632.27, 33.6221103, 72.9557696, 0.9937243, 0.006491689, -0.08640125, 0.07074426
 161388752, 0.03, -9.94, 8.13, 632.51, 33.6221145, 72.9557703, 0.9937229, 0.006491669, -0.08647649, 0.07067117
 161489545, 0.04, -9.93, 8.12, 632.75, 33.6221188, 72.955771, 0.9937396, 0.00650329, -0.08634017, 0.07060175
 161589505, 0.05, -9.89, 8.11, 632.98, 33.6221232, 72.9557719, 0.9937749, 0.006563382, -0.08597843, 0.07054179
 161689465, 0.05, -9.9, 8.1, 633.22, 33.6221273, 72.9557727, 0.9937715, 0.006614614, -0.08606339, 0.0704819
 161789425, 0.06, -9.87, 8.1, 633.46, 33.6221317, 72.9557734, 0.9937942, 0.006612941, -0.08584622, 0.07042543
 161889385, 0.05, -9.87, 8.09, 633.69, 33.6221358, 72.9557741, 0.9937982, 0.006547292, -0.08585315, 0.07036724
 161989345, 0.04, -9.88, 8.08, 633.93, 33.6221401, 72.955775, 0.9937989, 0.006490684, -0.08589464, 0.07031196
 162089305, 0.04, -9.89, 8.08, 634.16, 33.6221443, 72.9557757, 0.9937943, 0.006469568, -0.08596759, 0.07028955
 162189265, 0.04, -9.89, 8.08, 634.4, 33.6221486, 72.9557765, 0.9937872, 0.006466388, -0.08603314, 0.07030919
 162289225, 0.04, -9.89, 8.09, 634.64, 33.6221528, 72.9557773, 0.9937823, 0.006456028, -0.08604191, 0.07037
 162389185, 0.03, -9.89, 8.1, 634.87, 33.6221571, 72.955778, 0.9937767, 0.006432305, -0.0860339, 0.07046025
 162489145, 0.03, -9.88, 8.11, 635.11, 33.6221613, 72.9557787, 0.9937786, 0.006408558, -0.08594224, 0.07054786
 162589105, 0.03, -9.89, 8.12, 635.35, 33.6221656, 72.9557796, 0.9937683, 0.006379892, -0.08600957, 0.0706129
 162689065, 0.03, -9.9, 8.13, 635.58, 33.6221698, 72.9557803, 0.9937614, 0.006397914, -0.08605415, 0.07065585
 162789025, 0.03, -9.88, 8.13, 635.82, 33.6221741, 72.9557811, 0.9937709, 0.006404837, -0.08592913, 0.07067211
 162888985, 0.03, -9.87, 8.13, 636.06, 33.6221783, 72.9557818, 0.9937815, 0.006444461, -0.08581409, 0.07065962
 162988945, 0.04, -9.84, 8.12, 636.29, 33.6221826, 72.9557825, 0.9938039, 0.006509402, -0.08559498, 0.07060467
 163088905, 0.05, -9.83, 8.11, 636.53, 33.6221868, 72.9557834, 0.9938212, 0.006542705, -0.08548039, 0.07049637
 163188865, 0.05, -9.83, 8.09, 636.77, 33.6221911, 72.9557842, 0.9938313, 0.006543553, -0.08548822, 0.07034422
 163288825, 0.05, -9.84, 8.07, 637, 33.6221953, 72.9557849, 0.9938369, 0.006481812, -0.0855765, 0.07016244
 163388785, 0.05, -9.84, 8.05, 637.24, 33.6221996, 72.9557856, 0.9938518, 0.006479243, -0.08554169, 0.0699947
 163488745, 0.05, -9.83, 8.03, 637.48, 33.6222038, 72.9557865, 0.9938674, 0.006462713, -0.08548233, 0.06984721
 163589538, 0.05, -9.81, 8.02, 637.72, 33.6222081, 72.9557872, 0.9938926, 0.006498409, -0.0852705, 0.06974491
 163689498, 0.05, -9.79, 8.01, 637.96, 33.6222124, 72.955788, 0.9939054, 0.006486163, -0.08516838, 0.06968734
 163789458, 0.05, -9.79, 8.01, 638.19, 33.6222166, 72.9557887, 0.993906, 0.006476961, -0.08516617, 0.0696815
 163889418, 0.05, -9.78, 8.01, 638.43, 33.6222208, 72.9557895, 0.9939172, 0.006413773, -0.08502015, 0.06970686
 163989378, 0.04, -9.78, 8.02, 638.67, 33.6222251, 72.9557902, 0.9939084, 0.006370613, -0.08508452, 0.06975783
 164089338, 0.04, -9.79, 8.03, 638.91, 33.6222294, 72.9557909, 0.9939001, 0.006378015, -0.08512874, 0.0698214
 164189298, 0.04, -9.78, 8.03, 639.14, 33.6222336, 72.9557918, 0.9939014, 0.006374433, -0.08507715, 0.06986645
 164289258, 0.04, -9.78, 8.03, 639.38, 33.6222379, 72.9557926, 0.9939049, 0.00640829, -0.08502748, 0.06987328
 164389218, 0.04, -9.78, 8.03, 639.62, 33.6222421, 72.9557933, 0.9939068, 0.006378529, -0.08504061, 0.06983396
 164489178, 0.04, -9.78, 8.02, 639.86, 33.6222464, 72.955794, 0.9939117, 0.006398187, -0.08503031, 0.06977396
 164589138, 0.05, -9.78, 8.01, 640.1, 33.6222506, 72.9557949, 0.9939135, 0.006431374, -0.08506215, 0.06970727
 164689098, 0.05, -9.82, 8.01, 640.33, 33.6222548, 72.9557956, 0.9938933, 0.006466061, -0.08535753, 0.06963111
 164789058, 0.05, -9.82, 8, 640.57, 33.6222591, 72.9557964, 0.993897, 0.006463112, -0.08536907, 0.06956349
 164889018, 0.06, -9.81, 7.99, 640.81, 33.6222633, 72.9557971, 0.9939066, 0.006548813, -0.08527841, 0.06952958
 164988978, 0.06, -9.81, 7.99, 641.05, 33.6222675, 72.9557978, 0.9939087, 0.00655347, -0.08527526, 0.06950317
 165088938, 0.07, -9.79, 7.99, 641.29, 33.6222718, 72.9557987, 0.9939229, 0.006583253, -0.0851232, 0.06948297
 165188898, 0.07, -9.78, 7.98, 641.53, 33.622276, 72.9557994, 0.99393, 0.006570384, -0.0850604, 0.0694604
 165288858, 0.06, -9.81, 7.98, 641.76, 33.6222802, 72.9558002, 0.9939078, 0.006549265, -0.08534185, 0.06943487
 165388818, 0.07, -9.86, 7.98, 642, 33.6222845, 72.9558009, 0.9938729, 0.006596146, -0.08576028, 0.06941454
 165488778, 0.06, -9.9, 7.98, 642.24, 33.6222887, 72.9558017, 0.9938466, 0.006588097, -0.08608594, 0.06938818
 165588738, 0.06, -9.93, 7.97, 642.48, 33.6222929, 72.9558024, 0.993826, 0.006605451, -0.08634204, 0.06936403
 165689531, 0.06, -9.93, 7.97, 642.72, 33.6222972, 72.9558031, 0.9938291, 0.006625038, -0.08632103, 0.0693444
 165789491, 0.06, -9.94, 7.97, 642.96, 33.6223014, 72.955804, 0.993822, 0.006620471, -0.0864214, 0.06932116
 165889451, 0.06, -9.96, 7.97, 643.2, 33.6223057, 72.9558048, 0.993807, 0.006643957, -0.08661386, 0.06929394
 165989411, 0.07, -9.97, 7.96, 643.43, 33.6223099, 72.9558055, 0.9938033, 0.006678434, -0.08667522, 0.06926546
 166089371, 0.07, -9.99, 7.96, 643.67, 33.6223142, 72.9558062, 0.9937914, 0.006703389, -0.08683748, 0.06923177
 166189331, 0.08, -10, 7.95, 643.91, 33.6223184, 72.9558071, 0.9937835, 0.006751047, -0.0869514, 0.06919649
 166289291, 0.07, -10.01, 7.95, 644.15, 33.6223225, 72.9558078, 0.9937802, 0.00670158, -0.08702936, 0.069151
 166389251, 0.07, -10.01, 7.95, 644.38, 33.6223269, 72.9558086, 0.9937845, 0.006692448, -0.08700979, 0.06911444
 166489211, 0.07, -10.01, 7.94, 644.62, 33.622331, 72.9558093, 0.9937854, 0.006666834, -0.08702691, 0.06908282
 166589171, 0.06, -10.01, 7.94, 644.86, 33.6223354, 72.95581, 0.993784, 0.006641516, -0.08706744, 0.06905378
 166689131, 0.06, -10, 7.94, 645.1, 33.6223397, 72.9558109, 0.9937965, 0.006604593, -0.08694658, 0.06902996
 166789091, 0.06, -10.01, 7.94, 645.33, 33.6223439, 72.9558117, 0.9937876, 0.006640504, -0.08704343, 0.06903247
 166889051, 0.07, -10.01, 7.94, 645.57, 33.6223482, 72.9558124, 0.9937898, 0.006664435, -0.08701033, 0.06904095
 166989011, 0.07, -9.99, 7.94, 645.81, 33.6223523, 72.9558132, 0.9938009, 0.006678632, -0.08687339, 0.06905268
 167088971, 0.07, -9.98, 7.94, 646.05, 33.6223567, 72.955814, 0.9938109, 0.006691592, -0.08674832, 0.069064
 167188931, 0.07, -9.94, 7.94, 646.28, 33.622361, 72.9558146, 0.9938399, 0.006656386, -0.08640002, 0.06908661
 167288891, 0.07, -9.93, 7.94, 646.52, 33.6223652, 72.9558155, 0.9938466, 0.006622807, -0.08632237, 0.0690905
 167388851, 0.06, -9.92, 7.94, 646.76, 33.6223695, 72.9558163, 0.9938528, 0.006582963, -0.08628204, 0.06905612
 167488811, 0.06, -9.92, 7.93, 647, 33.6223737, 72.955817, 0.9938624, 0.006586744, -0.08621676, 0.06899855
 167588771, 0.07, -9.9, 7.92, 647.23, 33.622378, 72.9558177, 0.9938797, 0.006589648, -0.08606666, 0.06893706
 167689564, 0.07, -9.88, 7.92, 647.47, 33.6223823, 72.9558186, 0.9938933, 0.006582852, -0.08594933, 0.06888668
 167789524, 0.07, -9.85, 7.91, 647.71, 33.6223866, 72.9558194, 0.9939251, 0.006563575, -0.08561028, 0.06885213
 167889484, 0.06, -9.83, 7.91, 647.95, 33.6223908, 72.9558201, 0.9939384, 0.006513221, -0.08548028, 0.0688277
 167989444, 0.06, -9.72, 7.91, 648.18, 33.6223951, 72.9558208, 0.9940203, 0.006438073, -0.08453891, 0.06881434
 168089404, 0.05, -9.43, 7.91, 648.42, 33.6223993, 72.9558217, 0.9942341, 0.006170672, -0.08201474, 0.06880398
 168189364, 0.06, -8.97, 7.91, 648.66, 33.6224036, 72.9558224, 0.9945564, 0.005922812, -0.07801776, 0.06881719
 168289324, 0.05, -8.41, 7.91, 648.89, 33.6224078, 72.9558232, 0.9949299, 0.005561897, -0.07311688, 0.06882884
 168389284, 0.06, -7.8, 7.9, 649.13, 33.622412, 72.9558239, 0.9953009, 0.005257747, -0.06788597, 0.06884702
 168489244, 0.07, -7.21, 7.9, 649.36, 33.6224161, 72.9558246, 0.9956404, 0.0049528, -0.06271977, 0.06886214
 168589204, 0.07, -6.62, 7.9, 649.6, 33.6224203, 72.9558255, 0.9959514, 0.004621566, -0.05759177, 0.068867
 168689164, 0.07, -6.03, 7.9, 649.82, 33.6224244, 72.9558261, 0.9962379, 0.004315273, -0.05242641, 0.06886856
 168789124, 0.07, -5.42, 7.9, 650.05, 33.6224283, 72.9558268, 0.9965031, 0.003952029, -0.04716489, 0.06885755
 168889084, 0.08, -4.8, 7.89, 650.27, 33.6224324, 72.9558275, 0.9967454, 0.003594851, -0.04180861, 0.06883115
 168989044, 0.12, -4.04, 7.89, 650.49, 33.6224361, 72.9558282, 0.9970042, 0.003473355, -0.0351414, 0.06881576
 169089004, 0.23, -3.03, 7.89, 650.7, 33.62244, 72.955829, 0.9972731, 0.003844282, -0.02630532, 0.06884535
 169188964, 0.42, -1.79, 7.9, 650.91, 33.6224437, 72.9558297, 0.9974895, 0.004782956, -0.01536001, 0.06896279
 169288924, 0.65, -0.4, 7.93, 651.11, 33.6224473, 72.9558304, 0.9975783, 0.005950539, -0.003099893, 0.06922776
 169388884, 0.89, 1.03, 8, 651.31, 33.6224507, 72.955831, 0.9974945, 0.007147046, 0.009587996, 0.06972528
 169488844, 1.14, 2.52, 8.12, 651.49, 33.6224541, 72.9558316, 0.9972149, 0.00838656, 0.02264001, 0.07056558
 169588804, 1.4, 4.05, 8.3, 651.67, 33.6224573, 72.9558323, 0.9967107, 0.009667477, 0.03613787, 0.07189077
 169688764, 1.67, 5.62, 8.56, 651.84, 33.6224603, 72.955833, 0.9959531, 0.01091562, 0.05004047, 0.07385303
 169789557, 1.99, 7.26, 8.93, 652.01, 33.6224631, 72.9558335, 0.99489, 0.01236864, 0.06452243, 0.07666626
 169889517, 2.34, 8.94, 9.44, 652.16, 33.6224657, 72.9558342, 0.9934905, 0.01392156, 0.07937925, 0.08051025
 169989477, 2.77, 10.65, 10.13, 652.3, 33.6224681, 72.9558347, 0.9916922, 0.01582299, 0.09462839, 0.08568328
 170089437, 3.3, 12.37, 11.04, 652.42, 33.6224702, 72.9558354, 0.9894477, 0.01815823, 0.1099615, 0.09258541
 170189397, 3.94, 13.96, 12.26, 652.54, 33.6224722, 72.9558359, 0.9867684, 0.02099843, 0.1244297, 0.1018058
 170289357, 4.74, 15.32, 13.88, 652.64, 33.6224738, 72.9558366, 0.9836197, 0.02462234, 0.1372309, 0.1142522
 170389317, 5.77, 16.46, 16.11, 652.74, 33.6224751, 72.9558373, 0.9796863, 0.02934325, 0.1485887, 0.1314346
 170489277, 7.13, 17.32, 19.21, 652.82, 33.6224762, 72.9558378, 0.9744045, 0.03554292, 0.158462, 0.1554424
 170589237, 8.85, 17.75, 23.31, 652.88, 33.6224771, 72.9558385, 0.9671664, 0.0435845, 0.1660804, 0.187368
 170689197, 10.88, 17.64, 28.38, 652.94, 33.6224775, 72.955839, 0.9572434, 0.05341876, 0.171043, 0.2271031
 170789157, 13.18, 17.01, 34.35, 652.98, 33.6224778, 72.9558397, 0.9436634, 0.06505685, 0.1739104, 0.2739017
 170889117, 15.61, 15.82, 41.06, 653.01, 33.6224777, 72.9558404, 0.9255128, 0.07819561, 0.1748927, 0.3266864
 170989077, 18, 14.01, 48.36, 653.03, 33.6224773, 72.9558409, 0.9020976, 0.09234244, 0.1735512, 0.3841519
 171089037, 20.13, 11.58, 56.06, 653.03, 33.6224767, 72.9558416, 0.872925, 0.1068406, 0.1694371, 0.4448348
 171188997, 21.88, 8.6, 64.04, 653.03, 33.6224756, 72.9558424, 0.8376254, 0.1213928, 0.1628395, 0.5070806
 171288957, 23.15, 5.21, 72.19, 653.02, 33.6224743, 72.9558431, 0.7961503, 0.1357287, 0.1541335, 0.5691795
 171388917, 23.89, 1.55, 80.42, 653, 33.6224726, 72.9558438, 0.7488557, 0.1494919, 0.1437437, 0.6294483
 171488877, 24.09, -2.23, 88.66, 652.97, 33.6224707, 72.9558445, 0.6965681, 0.1625749, 0.1321768, 0.6862153
 171588837, 23.67, -5.95, 96.83, 652.93, 33.6224684, 72.9558454, 0.6407262, 0.1740246, 0.1195204, 0.7381736
 171688797, 22.58, -9.41, 104.86, 652.88, 33.6224659, 72.9558462, 0.583118, 0.1827814, 0.10564, 0.7844773
 171788757, 20.94, -12.46, 112.68, 652.83, 33.6224632, 72.9558469, 0.5253518, 0.1890306, 0.09125104, 0.8245885
 171889550, 18.9, -15.07, 120.24, 652.77, 33.6224601, 72.9558479, 0.468447, 0.1933202, 0.07668983, 0.8586637
 171989510, 16.66, -17.23, 127.33, 652.7, 33.6224568, 72.9558488, 0.4144751, 0.1963846, 0.06265639, 0.8864071
 172089470, 14.33, -19.01, 133.96, 652.63, 33.6224531, 72.9558497, 0.3636595, 0.198934, 0.04918513, 0.9087122
 172189430, 11.97, -20.44, 140.13, 652.56, 33.6224494, 72.9558507, 0.3162751, 0.2009318, 0.03635589, 0.9264312
 172289390, 9.65, -21.6, 145.85, 652.48, 33.6224453, 72.9558516, 0.2722323, 0.2028291, 0.02422216, 0.9402995
 172389350, 7.4, -22.54, 151.19, 652.39, 33.6224412, 72.9558526, 0.2311915, 0.2047111, 0.01280092, 0.9510415
 172489310, 5.21, -23.29, 156.21, 652.3, 33.6224367, 72.9558536, 0.1926251, 0.2065241, 0.00204384, 0.959291
 172589270, 3.09, -23.88, 161.01, 652.21, 33.6224322, 72.9558546, 0.1558137, 0.20836, -0.008066188, 0.9655274
 172689230, 1.01, -24.32, 165.68, 652.12, 33.6224274, 72.9558557, 0.1199425, 0.2100965, -0.01761587, 0.9701355
 172789190, -0.95, -24.63, 170.21, 652.02, 33.6224225, 72.9558567, 0.08507066, 0.2118128, -0.02632513, 0.9732447
 172889150, -2.68, -24.81, 174.36, 651.92, 33.6224173, 72.9558579, 0.05303543, 0.213448, -0.03339034, 0.9749422
 172989110, -4.03, -24.94, 177.84, 651.82, 33.6224122, 72.9558591, 0.02598157, 0.2151601, -0.03844744, 0.9754757
 173089070, -4.98, -25.02, 180.47, 651.71, 33.6224068, 72.9558603, 0.005413346, 0.216636, -0.04157132, 0.9753519
 173189030, -5.53, -25.11, 182.17, 651.61, 33.6224013, 72.9558617, -0.008017434, 0.2180178, -0.04299019, 0.9749645
 173288990, -5.71, -25.26, 182.96, 651.5, 33.6223956, 72.9558629, -0.01428783, 0.2196182, -0.04300903, 0.9745327
 173388950, -5.55, -25.48, 182.88, 651.39, 33.6223898, 72.9558644, -0.01383004, 0.2214038, -0.04172579, 0.974191
 173488910, -5.08, -25.75, 182.02, 651.27, 33.6223838, 72.9558658, -0.007327456, 0.2233911, -0.03928901, 0.9739092
 173588870, -4.34, -26.11, 180.49, 651.16, 33.6223777, 72.9558674, 0.00437899, 0.2259479, -0.03597624, 0.973465
 173688830, -3.38, -26.49, 178.4, 651.04, 33.6223716, 72.9558689, 0.02033163, 0.2286433, -0.03191141, 0.9727747
 173788790, -2.24, -26.85, 175.87, 650.92, 33.6223653, 72.9558705, 0.03950401, 0.2313418, -0.0273743, 0.9716846
 173888750, -1, -27.16, 173.07, 650.8, 33.6223589, 72.955872, 0.0607764, 0.2338873, -0.02267405, 0.9700974
 173989543, 0.25, -27.38, 170.12, 650.68, 33.6223523, 72.9558737, 0.08309596, 0.2360625, -0.01818659, 0.9680076
 174089503, 1.42, -27.54, 167.26, 650.55, 33.6223456, 72.9558753, 0.1047288, 0.2379237, -0.01439823, 0.9655138
 174189463, 2.41, -27.66, 164.66, 650.43, 33.6223389, 72.9558768, 0.1245715, 0.2396594, -0.01164362, 0.9627615
 174289423, 3.17, -27.69, 162.44, 650.3, 33.6223321, 72.9558785, 0.1415138, 0.2405862, -0.009935575, 0.9602048
 174389383, 3.67, -27.73, 160.74, 650.17, 33.6223253, 72.9558801, 0.1546914, 0.241397, -0.009349782, 0.9579722
 174489343, 3.92, -27.75, 159.62, 650.04, 33.6223182, 72.9558818, 0.1635698, 0.2418179, -0.009728291, 0.9563861
 174589303, 3.89, -27.78, 159.09, 649.91, 33.6223112, 72.9558833, 0.1679801, 0.2419418, -0.01107809, 0.9555753
 174689263, 3.62, -27.79, 159.15, 649.78, 33.622304, 72.955885, 0.1680631, 0.2416866, -0.01327357, 0.9555973
 174789223, 3.13, -27.81, 159.74, 649.65, 33.6222968, 72.9558866, 0.1641927, 0.24117, -0.0161355, 0.9563563
 174889183, 2.47, -27.81, 160.77, 649.52, 33.6222895, 72.9558883, 0.1569191, 0.2404541, -0.019463, 0.9576949
