Time,Status,ATT_DesRoll,ATT_Roll,ATT_DesPitch,ATT_Pitch,CTUN_ThO,RATE_RDes,RATE_R,RATE_PDes,RATE_P
209893509,0,1.2385714285714289,1.170952380952381,-29.733809523809523,-29.73619047619048,0.3909256363636363,-0.4093124208333333,-0.3376253541666666,1.0719498020833331,1.0206235354166666
209893509,0,1.2357142857142858,1.1678571428571427,-29.731428571428573,-29.73357142857143,0.3909045090909091,-0.4117762416666666,-0.3433791083333333,1.0688096041666668,1.017691070833333
209893509,0,1.2328571428571429,1.1647619047619049,-29.72904761904762,-29.73095238095238,0.3908833818181818,-0.4142400625,-0.3491328625,1.06566940625,1.01475860625
209893509,0,1.23,1.1616666666666666,-29.726666666666667,-29.72833333333333,0.3908622545454546,-0.4167038833333333,-0.3548866166666666,1.0625292083333335,1.0118261416666663
209893509,0,1.227142857142857,1.1585714285714286,-29.72428571428572,-29.72571428571429,0.3908411272727273,-0.4191677041666666,-0.3606403708333333,1.0593890104166668,1.0088936770833332
209893509,0,1.2242857142857142,1.1554761904761903,-29.721904761904764,-29.72309523809524,0.39082,-0.421631525,-0.366394125,1.0562488125,1.0059612125
209893509,0,1.2214285714285713,1.1523809523809525,-29.71952380952381,-29.72047619047619,0.3907988727272727,-0.4240953458333333,-0.3721478791666666,1.0531086145833335,1.0030287479166666
209893509,0,1.2185714285714286,1.1492857142857142,-29.717142857142857,-29.717857142857145,0.3907777454545454,-0.4265591666666666,-0.3779016333333333,1.0499684166666667,1.0000962833333331
209893509,0,1.2157142857142855,1.1461904761904762,-29.714761904761904,-29.715238095238096,0.3907566181818182,-0.4290229875,-0.3836553875,1.04682821875,0.99716381875
209893509,0,1.2128571428571429,1.143095238095238,-29.71238095238096,-29.71261904761905,0.3907354909090909,-0.4314868083333333,-0.3894091416666667,1.0436880208333337,0.9942313541666666
209893509,0,1.21,1.14,-29.71,-29.71,0.3907143636363636,-0.4339506291666666,-0.3951628958333333,1.0405478229166667,0.9912988895833332
209893509,0,1.2054166666666666,1.135,-29.70625,-29.70625,0.3906932363636364,-0.43641445,-0.40091665,1.0374076250000002,0.988366425
209893509,0,1.2008333333333332,1.13,-29.7025,-29.7025,0.3906721090909091,-0.4388782708333333,-0.4066704041666666,1.0342674270833334,0.9854339604166666
209893509,0,1.19625,1.125,-29.69875,-29.69875,0.3906509818181818,-0.4413420916666666,-0.4124241583333333,1.0311272291666669,0.9825014958333332
209893509,0,1.1916666666666669,1.12,-29.695,-29.695,0.3906298545454545,-0.4438059125,-0.4181779125,1.02798703125,0.97956903125
209893509,0,1.1870833333333333,1.115,-29.69125,-29.69125,0.3906087272727273,-0.4462697333333333,-0.4239316666666666,1.0248468333333334,0.9766365666666668
209893509,0,1.1825,1.11,-29.6875,-29.6875,0.3905876,-0.4487335541666666,-0.4296854208333333,1.0217066354166668,0.9737041020833332
209893509,0,1.1779166666666667,1.105,-29.68375,-29.68375,0.3905664727272727,-0.451197375,-0.435439175,1.0185664375,0.9707716375
209893509,0,1.1733333333333331,1.1,-29.68,-29.68,0.3905453454545454,-0.4536611958333333,-0.4411929291666666,1.0154262395833331,0.9678391729166668
209893509,0,1.16875,1.095,-29.67625,-29.67625,0.3905242181818182,-0.4561250166666666,-0.4469466833333333,1.0122860416666668,0.9649067083333333
209933493,0,1.1641666666666666,1.09,-29.6725,-29.6725,0.3905030909090909,-0.4585888375,-0.4527004375,1.00914584375,0.96197424375
209933493,0,1.1595833333333334,1.085,-29.66875,-29.66875,0.3904819636363636,-0.4610526583333333,-0.4584541916666667,1.0060056458333333,0.9590417791666668
209955984,0,1.155,1.08,-29.665,-29.665,0.3904608363636364,-0.4635164791666666,-0.4642079458333333,1.0028654479166668,0.9561093145833331
209973477,0,1.1504166666666666,1.075,-29.661250000000003,-29.661250000000003,0.3904397090909091,-0.4659803,-0.4699617,0.99972525,0.95317685
209973477,0,1.1458333333333337,1.07,-29.6575,-29.6575,0.3904185818181818,-0.4684441208333333,-0.4757154541666666,0.9965850520833334,0.9502443854166668
209993469,0,1.14125,1.065,-29.65375,-29.65375,0.3903974545454545,-0.4709079416666666,-0.4814692083333333,0.9934448541666668,0.9473119208333332
209993469,0,1.1366666666666667,1.06,-29.65,-29.65,0.3903763272727273,-0.4733717625,-0.4872229624999999,0.99030465625,0.94437945625
209993469,0,1.132083333333333,1.055,-29.64625,-29.64625,0.3903552,-0.4758355833333333,-0.4929767166666666,0.9871644583333334,0.9414469916666668
209993469,0,1.1275,1.05,-29.6425,-29.6425,0.3903450885714286,-0.4782994041666666,-0.4987304708333333,0.9840242604166668,0.9385145270833332
209993469,0,1.1229166666666668,1.045,-29.63875,-29.63875,0.3903349771428571,-0.480763225,-0.504484225,0.9808840625,0.9355820625
209993469,0,1.1183333333333334,1.04,-29.635,-29.635,0.3903248657142857,-0.4832270458333333,-0.5102379791666667,0.9777438645833334,0.9326495979166668
209993469,0,1.11375,1.035,-29.63125,-29.63125,0.3903147542857142,-0.4856908666666666,-0.5159917333333334,0.9746036666666668,0.9297171333333332
209993469,0,1.1091666666666669,1.03,-29.6275,-29.6275,0.3903046428571429,-0.4881546875,-0.5217454875,0.97146346875,0.92678466875
209993469,0,1.1045833333333337,1.025,-29.62375,-29.62375,0.3902945314285714,-0.4906185083333333,-0.5274992416666666,0.9683232708333334,0.9238522041666668
209993469,0,1.1,1.02,-29.62,-29.62,0.39028442,-0.4930823291666666,-0.5332529958333334,0.9651830729166668,0.9209197395833332
209993469,0,1.0974418604651164,1.0172093023255817,-29.61674418604652,-29.616976744186047,0.3902743085714286,-0.49554615,-0.53900675,0.962042875,0.917987275
209993469,0,1.094883720930233,1.0144186046511627,-29.613488372093023,-29.613953488372093,0.3902641971428571,-0.4980099708333333,-0.5447605041666667,0.9589026770833332,0.9150548104166668
209993469,0,1.092325581395349,1.0116279069767442,-29.610232558139536,-29.61093023255814,0.3902540857142857,-0.5004737916666667,-0.5505142583333333,0.9557624791666668,0.9121223458333332
209993469,0,1.0897674418604653,1.0088372093023257,-29.60697674418605,-29.607906976744182,0.3902439742857143,-0.5029376125,-0.5562680125,0.95262228125,0.90918988125
209993469,0,1.0872093023255816,1.006046511627907,-29.60372093023256,-29.604883720930232,0.3902338628571428,-0.5054014333333333,-0.5620217666666667,0.9494820833333334,0.9062574166666668
209993469,0,1.0846511627906978,1.0032558139534884,-29.60046511627907,-29.60186046511628,0.3902237514285714,-0.5078652541666667,-0.5677755208333334,0.9463418854166668,0.9033249520833332
209993469,0,1.082093023255814,1.00046511627907,-29.59720930232558,-29.598837209302324,0.39021364,-0.510329075,-0.5735292750000001,0.9432016875,0.9003924875
209993469,0,1.0795348837209302,0.9976744186046512,-29.59395348837209,-29.59581395348837,0.3902035285714286,-0.5127928958333333,-0.5792830291666666,0.9400614895833334,0.8974600229166667
209993469,0,1.0769767441860465,0.9948837209302326,-29.590697674418607,-29.59279069767442,0.3901934171428571,-0.5152567166666667,-0.5850367833333334,0.9369212916666668,0.8945275583333334
209993469,0,1.0744186046511628,0.992093023255814,-29.58744186046512,-29.589767441860467,0.3901833057142857,-0.5177205375,-0.5907905375,0.93378109375,0.89159509375
209993469,0,1.071860465116279,0.9893023255813954,-29.58418604651163,-29.58674418604652,0.3901731942857143,-0.5201843583333333,-0.5965442916666667,0.9306408958333334,0.8886626291666667
209993469,0,1.0693023255813954,0.9865116279069768,-29.580930232558146,-29.58372093023256,0.3901630828571428,-0.5226481791666667,-0.6022980458333334,0.9275006979166668,0.8857301645833333
209993469,0,1.0667441860465117,0.983720930232558,-29.57767441860465,-29.580697674418605,0.3901529714285714,-0.525112,-0.6080518,0.9243605,0.8827977
209993469,0,1.064186046511628,0.9809302325581396,-29.574418604651164,-29.57767441860465,0.39014286,-0.5139575944444444,-0.5953586944444444,0.9315755277777776,0.9059901055555556
209993469,0,1.0616279069767445,0.978139534883721,-29.57116279069768,-29.574651162790698,0.3901327485714286,-0.5028031888888889,-0.582665588888889,0.9387905555555556,0.9291825111111112
209993469,0,1.0590697674418603,0.9753488372093024,-29.567906976744187,-29.571627906976744,0.3901226371428571,-0.4916487833333333,-0.5699724833333334,0.9460055833333334,0.9523749166666666
209993469,0,1.0565116279069768,0.9725581395348836,-29.5646511627907,-29.56860465116279,0.3901125257142857,-0.4804943777777778,-0.5572793777777778,0.9532206111111112,0.9755673222222222
209993469,0,1.0539534883720931,0.9697674418604652,-29.56139534883721,-29.56558139534884,0.3901024142857143,-0.4693399722222222,-0.5445862722222222,0.9604356388888888,0.9987597277777778
209993469,0,1.0513953488372094,0.9669767441860464,-29.55813953488372,-29.56255813953488,0.3900923028571428,-0.4581855666666666,-0.5318931666666666,0.9676506666666668,1.0219521333333332
209993469,0,1.0488372093023255,0.964186046511628,-29.554883720930235,-29.55953488372093,0.3900821914285714,-0.4470311611111111,-0.5192000611111112,0.9748656944444444,1.045144538888889
209993469,0,1.046279069767442,0.9613953488372092,-29.551627906976744,-29.55651162790697,0.39007208,-0.4358767555555555,-0.5065069555555556,0.9820807222222222,1.0683369444444444
209993469,0,1.043720930232558,0.9586046511627908,-29.548372093023257,-29.553488372093025,0.3900619685714285,-0.42472235,-0.49381385,0.98929575,1.09152935
209993469,0,1.0411627906976744,0.955813953488372,-29.545116279069767,-29.55046511627907,0.3900518571428571,-0.4135679444444444,-0.4811207444444444,0.9965107777777776,1.1147217555555555
209993469,0,1.0386046511627909,0.9530232558139536,-29.54186046511628,-29.54744186046512,0.3900417457142857,-0.4024135388888888,-0.4684276388888889,1.0037258055555556,1.137914161111111
209993469,0,1.036046511627907,0.9502325581395348,-29.538604651162792,-29.544418604651163,0.3900316342857143,-0.3912591333333333,-0.4557345333333333,1.0109408333333332,1.161106566666667
210013461,0,1.0334883720930232,0.9474418604651162,-29.535348837209305,-29.54139534883721,0.3900215228571428,-0.3801047277777777,-0.4430414277777778,1.018155861111111,1.184298972222222
210013461,0,1.0309302325581395,0.9446511627906976,-29.53209302325581,-29.538372093023256,0.3900114114285714,-0.3689503222222222,-0.4303483222222222,1.0253708888888888,1.2074913777777776
210053445,0,1.0283720930232558,0.9418604651162792,-29.528837209302328,-29.535348837209305,0.3900013,-0.3577959166666666,-0.4176552166666667,1.0325859166666669,1.2306837833333333
210053445,0,1.025813953488372,0.9390697674418604,-29.52558139534884,-29.532325581395348,0.3899911885714285,-0.3466415111111111,-0.4049621111111111,1.0398009444444445,1.2538761888888887
210093429,0,1.0232558139534884,0.936279069767442,-29.52232558139535,-29.529302325581394,0.3899810771428571,-0.3354871055555555,-0.3922690055555555,1.047015972222222,1.2770685944444444
210093429,0,1.0206976744186047,0.9334883720930232,-29.51906976744186,-29.52627906976744,0.3899709657142857,-0.3243327,-0.3795759,1.054231,1.300261
210093429,0,1.018139534883721,0.9306976744186046,-29.51581395348837,-29.523255813953487,0.3899608542857142,-0.3256525139999999,-0.381945976,1.0451518,1.287305714
210093429,0,1.0155813953488373,0.927906976744186,-29.512558139534885,-29.520232558139533,0.3899507428571429,-0.326972328,-0.384316052,1.0360726,1.274350428
210093429,0,1.0130232558139536,0.9251162790697676,-29.509302325581395,-29.51720930232558,0.3899406314285714,-0.3282921419999999,-0.386686128,1.0269933999999998,1.2613951419999998
210093429,0,1.01046511627907,0.9223255813953488,-29.506046511627908,-29.514186046511625,0.38993052,-0.329611956,-0.389056204,1.0179142,1.2484398559999998
210093429,0,1.0079069767441862,0.9195348837209304,-29.50279069767442,-29.511162790697675,0.3899204085714285,-0.3309317699999999,-0.39142628,1.008835,1.23548457
210093429,0,1.0053488372093022,0.9167441860465116,-29.49953488372093,-29.50813953488372,0.3899102971428571,-0.332251584,-0.393796356,0.9997558,1.222529284
210093429,0,1.0027906976744183,0.913953488372093,-29.496279069767443,-29.505116279069767,0.3899001857142857,-0.3335713979999999,-0.396166432,0.9906766,1.209573998
210093429,0,1.0002325581395348,0.9111627906976744,-29.493023255813952,-29.502093023255814,0.3898900742857142,-0.334891212,-0.398536508,0.9815974,1.1966187119999998
210093429,0,0.9976744186046512,0.9083720930232558,-29.489767441860465,-29.49906976744186,0.3898799628571428,-0.3362110259999999,-0.400906584,0.9725182,1.183663426
210093429,0,0.9951162790697674,0.9055813953488372,-29.48651162790697,-29.496046511627902,0.3898698514285714,-0.33753084,-0.40327666,0.963439,1.17070814
210093429,0,0.9925581395348836,0.9027906976744188,-29.483255813953487,-29.493023255813952,0.38985974,-0.338850654,-0.405646736,0.9543598,1.157752854
210093429,0,0.99,0.9,-29.48,-29.49,0.3898496285714286,-0.3401704679999999,-0.408016812,0.9452806,1.144797568
210093429,0,0.9865384615384616,0.8957692307692308,-29.477307692307694,-29.48692307692308,0.3898395171428571,-0.341490282,-0.410386888,0.9362014,1.131842282
210093429,0,0.9830769230769232,0.8915384615384616,-29.474615384615387,-29.48384615384615,0.3898294057142857,-0.3428100959999999,-0.412756964,0.9271222,1.118886996
210093429,0,0.9796153846153846,0.8873076923076924,-29.47192307692308,-29.48076923076923,0.3898192942857142,-0.34412991,-0.41512704,0.918043,1.10593171
210093429,0,0.976153846153846,0.8830769230769231,-29.46923076923077,-29.477692307692305,0.3898091828571428,-0.3454497239999999,-0.417497116,0.9089638,1.092976424
210093429,0,0.9726923076923076,0.8788461538461538,-29.466538461538462,-29.474615384615383,0.3897990714285714,-0.346769538,-0.419867192,0.8998845999999999,1.080021138
210093429,0,0.9692307692307692,0.8746153846153847,-29.46384615384616,-29.47153846153846,0.3897889599999999,-0.3480893519999999,-0.422237268,0.8908054,1.067065852
210093429,0,0.9657692307692308,0.8703846153846154,-29.461153846153845,-29.468461538461536,0.3897788485714286,-0.349409166,-0.424607344,0.8817261999999999,1.054110566
210093429,0,0.9623076923076924,0.8661538461538462,-29.45846153846154,-29.46538461538461,0.3897687371428571,-0.3507289799999999,-0.42697742,0.872647,1.04115528
210093429,0,0.958846153846154,0.8619230769230769,-29.45576923076923,-29.462307692307693,0.3897586257142857,-0.352048794,-0.429347496,0.8635678,1.028199994
210093429,0,0.9553846153846154,0.8576923076923078,-29.453076923076924,-29.459230769230768,0.3897485142857143,-0.353368608,-0.431717572,0.8544885999999999,1.015244708
210093429,0,0.9519230769230768,0.8534615384615385,-29.45038461538461,-29.45615384615385,0.3897384028571428,-0.354688422,-0.434087648,0.8454094,1.002289422
210093429,0,0.9484615384615384,0.8492307692307692,-29.447692307692307,-29.45307692307692,0.3897282914285714,-0.356008236,-0.436457724,0.8363301999999999,0.989334136
210093429,0,0.945,0.845,-29.445,-29.45,0.3897181799999999,-0.35732805,-0.4388278,0.827251,0.97637885
210093429,0,0.9415384615384615,0.8407692307692308,-29.442307692307693,-29.44692307692308,0.3897080685714285,-0.358647864,-0.441197876,0.8181718,0.963423564
210093429,0,0.938076923076923,0.8365384615384616,-29.439615384615387,-29.443846153846152,0.3896979571428571,-0.3599676779999999,-0.443567952,0.8090925999999999,0.950468278
210093429,0,0.9346153846153846,0.8323076923076923,-29.43692307692308,-29.44076923076923,0.3896878457142857,-0.361287492,-0.445938028,0.8000133999999999,0.937512992
210093429,0,0.9311538461538462,0.8280769230769232,-29.43423076923077,-29.437692307692306,0.3896777342857143,-0.3626073059999999,-0.448308104,0.7909341999999999,0.924557706
210093429,0,0.9276923076923076,0.8238461538461539,-29.431538461538462,-29.434615384615384,0.3896676228571428,-0.36392712,-0.45067818,0.781855,0.91160242
210093429,0,0.9242307692307692,0.8196153846153846,-29.428846153846155,-29.431538461538462,0.3896575114285714,-0.3652469339999999,-0.453048256,0.7727758,0.898647134
210093429,0,0.9207692307692308,0.8153846153846154,-29.426153846153845,-29.428461538461537,0.3896474,-0.366566748,-0.455418332,0.7636966,0.885691848
210093429,0,0.9173076923076924,0.8111538461538462,-29.42346153846153,-29.42538461538461,0.3896268085714285,-0.367886562,-0.457788408,0.7546173999999999,0.872736562
210133413,0,0.913846153846154,0.806923076923077,-29.42076923076923,-29.42230769230769,0.3896062171428571,-0.369206376,-0.460158484,0.7455381999999999,0.859781276
210133413,0,0.9103846153846152,0.8026923076923077,-29.418076923076924,-29.41923076923077,0.3895856257142857,-0.37052619,-0.46252856,0.736459,0.84682599
210173397,0,0.9069230769230768,0.7984615384615384,-29.41538461538461,-29.416153846153847,0.3895650342857142,-0.371846004,-0.464898636,0.7273798,0.833870704
210173397,0,0.9034615384615384,0.7942307692307693,-29.412692307692307,-29.41307692307692,0.3895444428571428,-0.373165818,-0.467268712,0.7183006,0.820915418
210193389,0,0.9,0.79,-29.41,-29.41,0.3895238514285714,-0.3744856319999999,-0.469638788,0.7092213999999999,0.807960132
210193389,0,0.8986363636363637,0.7884848484848486,-29.408939393939395,-29.40909090909091,0.3895032599999999,-0.375805446,-0.472008864,0.7001421999999999,0.795004846
210193389,0,0.8972727272727273,0.786969696969697,-29.407878787878783,-29.40818181818182,0.3894826685714285,-0.37712526,-0.47437894,0.691063,0.78204956
210193389,0,0.895909090909091,0.7854545454545455,-29.40681818181818,-29.407272727272726,0.3894620771428571,-0.378445074,-0.476749016,0.6819838,0.7690942740000001
210193389,0,0.8945454545454545,0.7839393939393939,-29.405757575757576,-29.40636363636364,0.3894414857142857,-0.3797648879999999,-0.479119092,0.6729046,0.756138988
210193389,0,0.8931818181818182,0.7824242424242425,-29.40469696969697,-29.405454545454543,0.3894208942857142,-0.381084702,-0.481489168,0.6638253999999999,0.7431837020000001
210193389,0,0.8918181818181818,0.7809090909090909,-29.40363636363636,-29.404545454545456,0.3894003028571428,-0.3824045159999999,-0.483859244,0.6547462,0.7302284160000001
210193389,0,0.8904545454545455,0.7793939393939394,-29.40257575757576,-29.40363636363636,0.3893797114285714,-0.38372433,-0.48622932,0.645667,0.71727313
210193389,0,0.8890909090909092,0.777878787878788,-29.401515151515152,-29.402727272727272,0.38935912,-0.385044144,-0.488599396,0.6365878,0.7043178440000001
210193389,0,0.8877272727272727,0.7763636363636364,-29.400454545454547,-29.401818181818182,0.3893385285714286,-0.386363958,-0.490969472,0.6275086,0.691362558
210193389,0,0.8863636363636364,0.7748484848484849,-29.39939393939394,-29.40090909090909,0.3893179371428571,-0.387683772,-0.493339548,0.6184293999999999,0.6784072720000001
210193389,0,0.885,0.7733333333333333,-29.398333333333333,-29.4,0.3892973457142857,-0.3890035859999999,-0.495709624,0.6093502,0.6654519860000001
210193389,0,0.8836363636363637,0.7718181818181818,-29.39727272727273,-29.39909090909091,0.3892767542857143,-0.3903234,-0.4980797,0.600271,0.6524967
210193389,0,0.8822727272727273,0.7703030303030303,-29.39621212121212,-29.39818181818182,0.3892561628571429,-0.3893873966101694,-0.4968603525423729,0.6032296237288136,0.6529500440677967
210193389,0,0.880909090909091,0.7687878787878788,-29.395151515151515,-29.39727272727273,0.3892355714285714,-0.3884513932203389,-0.4956410050847458,0.6061882474576271,0.6534033881355933
210193389,0,0.8795454545454546,0.7672727272727273,-29.39409090909091,-29.39636363636364,0.38921498,-0.3875153898305085,-0.4944216576271186,0.6091468711864407,0.6538567322033899
210193389,0,0.8781818181818182,0.7657575757575757,-29.393030303030304,-29.395454545454545,0.3891943885714286,-0.3865793864406779,-0.4932023101694915,0.6121054949152542,0.6543100762711864
210193389,0,0.8768181818181818,0.7642424242424243,-29.391969696969696,-29.39454545454545,0.3891737971428571,-0.3856433830508474,-0.4919829627118644,0.6150641186440678,0.654763420338983
210193389,0,0.8754545454545455,0.7627272727272727,-29.39090909090909,-29.393636363636364,0.3891532057142857,-0.3847073796610169,-0.4907636152542373,0.6180227423728814,0.6552167644067797
210193389,0,0.8740909090909091,0.7612121212121212,-29.38984848484849,-29.392727272727274,0.3891326142857143,-0.3837713762711864,-0.4895442677966102,0.620981366101695,0.6556701084745763
210193389,0,0.8727272727272728,0.7596969696969698,-29.38878787878788,-29.39181818181818,0.3891120228571428,-0.3828353728813559,-0.488324920338983,0.6239399898305085,0.6561234525423729
210193389,0,0.8713636363636363,0.7581818181818182,-29.387727272727272,-29.39090909090909,0.3890914314285714,-0.3818993694915254,-0.4871055728813559,0.6268986135593221,0.6565767966101695
210193389,0,0.87,0.7566666666666667,-29.386666666666667,-29.39,0.38907084,-0.3809633661016949,-0.4858862254237288,0.6298572372881356,0.6570301406779662
210193389,0,0.8686363636363637,0.7551515151515151,-29.38560606060606,-29.38909090909091,0.3890502485714285,-0.3800273627118644,-0.4846668779661017,0.6328158610169492,0.6574834847457628
210193389,0,0.8672727272727273,0.7536363636363637,-29.384545454545453,-29.38818181818182,0.3890296571428571,-0.3790913593220338,-0.4834475305084746,0.6357744847457627,0.6579368288135593
210193389,0,0.865909090909091,0.7521212121212121,-29.383484848484848,-29.387272727272727,0.3890090657142857,-0.3781553559322034,-0.4822281830508474,0.6387331084745763,0.6583901728813559
210193389,0,0.8645454545454546,0.7506060606060606,-29.382424242424243,-29.38636363636364,0.3889884742857143,-0.3772193525423729,-0.4810088355932204,0.6416917322033898,0.6588435169491526
210193389,0,0.8631818181818183,0.7490909090909091,-29.38136363636364,-29.385454545454547,0.3889678828571428,-0.3762833491525423,-0.4797894881355932,0.6446503559322034,0.6592968610169492
210193389,0,0.8618181818181818,0.7475757575757576,-29.38030303030303,-29.384545454545457,0.3889472914285714,-0.3753473457627118,-0.4785701406779661,0.6476089796610169,0.6597502050847458
210193389,0,0.8604545454545455,0.7460606060606061,-29.379242424242424,-29.383636363636363,0.3889267,-0.3744113423728813,-0.477350793220339,0.6505676033898306,0.6602035491525424
210193389,0,0.8590909090909091,0.7445454545454545,-29.37818181818182,-29.38272727272728,0.388915529032258,-0.3734753389830508,-0.4761314457627119,0.653526227118644,0.660656893220339
210193389,0,0.8577272727272728,0.743030303030303,-29.377121212121214,-29.381818181818183,0.3889043580645161,-0.3725393355932203,-0.4749120983050847,0.6564848508474577,0.6611102372881356
210193389,0,0.8563636363636364,0.7415151515151515,-29.376060606060605,-29.380909090909093,0.3888931870967742,-0.3716033322033898,-0.4736927508474576,0.6594434745762712,0.6615635813559322
210193389,0,0.855,0.74,-29.375,-29.380000000000003,0.3888820161290323,-0.3706673288135593,-0.4724734033898305,0.6624020983050848,0.6620169254237288
210193389,0,0.8536363636363636,0.7384848484848485,-29.373939393939395,-29.37909090909091,0.3888708451612903,-0.3697313254237288,-0.4712540559322034,0.6653607220338983,0.6624702694915254
210213381,0,0.8522727272727273,0.7369696969696969,-29.372878787878783,-29.37818181818182,0.3888596741935484,-0.3687953220338983,-0.4700347084745763,0.6683193457627119,0.6629236135593221
210213381,0,0.850909090909091,0.7354545454545455,-29.37181818181818,-29.37727272727273,0.3888485032258064,-0.3678593186440678,-0.4688153610169491,0.6712779694915254,0.6633769576271187
210253365,0,0.8495454545454546,0.7339393939393939,-29.370757575757576,-29.37636363636364,0.3888373322580645,-0.3669233152542372,-0.467596013559322,0.674236593220339,0.6638303016949153
210253365,0,0.8481818181818183,0.7324242424242424,-29.36969696969697,-29.375454545454545,0.3888261612903226,-0.3659873118644067,-0.4663766661016949,0.6771952169491525,0.6642836457627118
210293349,0,0.8468181818181819,0.730909090909091,-29.36863636363636,-29.37454545454545,0.3888149903225806,-0.3650513084745762,-0.4651573186440678,0.6801538406779661,0.6647369898305084
210293349,0,0.8454545454545455,0.7293939393939394,-29.36757575757576,-29.373636363636365,0.3888038193548387,-0.3641153050847457,-0.4639379711864407,0.6831124644067796,0.6651903338983051
210293349,0,0.8440909090909091,0.7278787878787879,-29.366515151515152,-29.372727272727275,0.3887926483870967,-0.3631793016949152,-0.4627186237288135,0.6860710881355933,0.6656436779661017
210293349,0,0.8427272727272728,0.7263636363636363,-29.365454545454547,-29.37181818181818,0.3887814774193548,-0.3622432983050847,-0.4614992762711865,0.6890297118644068,0.6660970220338983
210293349,0,0.8413636363636364,0.7248484848484849,-29.36439393939394,-29.37090909090909,0.3887703064516129,-0.3613072949152542,-0.4602799288135593,0.6919883355932204,0.6665503661016949
210293349,0,0.8400000000000001,0.7233333333333333,-29.363333333333333,-29.37,0.388759135483871,-0.3603712915254237,-0.4590605813559322,0.6949469593220339,0.6670037101694916
210293349,0,0.8386363636363636,0.7218181818181818,-29.362272727272728,-29.36909090909091,0.388747964516129,-0.3594352881355932,-0.4578412338983051,0.6979055830508475,0.6674570542372882
210293349,0,0.8372727272727273,0.7203030303030302,-29.36121212121212,-29.36818181818182,0.3887367935483871,-0.3584992847457627,-0.4566218864406779,0.700864206779661,0.6679103983050847
210293349,0,0.8359090909090909,0.7187878787878788,-29.360151515151514,-29.367272727272727,0.3887256225806451,-0.3575632813559322,-0.4554025389830509,0.7038228305084746,0.6683637423728813
210293349,0,0.8345454545454546,0.7172727272727273,-29.35909090909091,-29.36636363636364,0.3887144516129032,-0.3566272779661016,-0.4541831915254237,0.7067814542372881,0.6688170864406779
210293349,0,0.8331818181818182,0.7157575757575757,-29.358030303030304,-29.365454545454547,0.3887032806451613,-0.3556912745762711,-0.4529638440677966,0.7097400779661017,0.6692704305084746
210293349,0,0.8318181818181819,0.7142424242424242,-29.356969696969696,-29.364545454545457,0.3886921096774193,-0.3547552711864407,-0.4517444966101695,0.7126987016949152,0.6697237745762712
210293349,0,0.8304545454545456,0.7127272727272727,-29.35590909090909,-29.363636363636363,0.3886809387096774,-0.3538192677966101,-0.4505251491525424,0.7156573254237288,0.6701771186440678
210293349,0,0.8290909090909091,0.7112121212121212,-29.354848484848485,-29.36272727272728,0.3886697677419354,-0.3528832644067796,-0.4493058016949153,0.7186159491525423,0.6706304627118644
210293349,0,0.8277272727272728,0.7096969696969697,-29.35378787878788,-29.361818181818183,0.3886585967741935,-0.3519472610169491,-0.4480864542372881,0.721574572881356,0.671083806779661
210293349,0,0.8263636363636364,0.7081818181818181,-29.35272727272727,-29.360909090909093,0.3886474258064516,-0.3510112576271186,-0.446867106779661,0.7245331966101695,0.6715371508474576
210293349,0,0.8250000000000001,0.7066666666666667,-29.351666666666667,-29.36,0.3886362548387096,-0.3500752542372881,-0.4456477593220339,0.7274918203389831,0.6719904949152542
210293349,0,0.8236363636363637,0.7051515151515151,-29.35060606060606,-29.35909090909091,0.3886250838709677,-0.3491392508474576,-0.4444284118644068,0.7304504440677966,0.6724438389830508
210293349,0,0.8222727272727273,0.7036363636363636,-29.349545454545453,-29.35818181818182,0.3886139129032258,-0.3482032474576271,-0.4432090644067797,0.7334090677966102,0.6728971830508474
210293349,0,0.8209090909090909,0.702121212121212,-29.348484848484848,-29.35727272727273,0.3886027419354839,-0.3472672440677966,-0.4419897169491525,0.7363676915254237,0.6733505271186441
210293349,0,0.8195454545454546,0.7006060606060606,-29.347424242424243,-29.35636363636364,0.3885915709677419,-0.346331240677966,-0.4407703694915254,0.7393263152542373,0.6738038711864407
210293349,0,0.8181818181818182,0.6990909090909091,-29.34636363636364,-29.355454545454545,0.3885804,-0.3453952372881356,-0.4395510220338983,0.7422849389830508,0.6742572152542372
210293349,0,0.8168181818181819,0.6975757575757575,-29.34530303030303,-29.35454545454545,0.388566375,-0.3444592338983051,-0.4383316745762712,0.7452435627118644,0.6747105593220338
210293349,0,0.8154545454545455,0.696060606060606,-29.344242424242424,-29.353636363636365,0.38855235,-0.3435232305084745,-0.4371123271186441,0.748202186440678,0.6751639033898305
210293349,0,0.8140909090909092,0.6945454545454545,-29.34318181818182,-29.352727272727275,0.388538325,-0.342587227118644,-0.435892979661017,0.7511608101694915,0.6756172474576271
210293349,0,0.8127272727272727,0.693030303030303,-29.342121212121214,-29.35181818181818,0.3885243,-0.3416512237288135,-0.4346736322033898,0.754119433898305,0.6760705915254237
210293349,0,0.8113636363636364,0.6915151515151514,-29.341060606060605,-29.35090909090909,0.388510275,-0.340715220338983,-0.4334542847457627,0.7570780576271187,0.6765239355932203
210293349,0,0.81,0.69,-29.34,-29.35,0.38849625,-0.3397792169491525,-0.4322349372881356,0.7600366813559323,0.676977279661017
210293349,0,0.8065217391304348,0.6860869565217391,-29.33695652173913,-29.34695652173913,0.388482225,-0.338843213559322,-0.4310155898305084,0.7629953050847458,0.6774306237288136
210293349,0,0.8030434782608696,0.6821739130434782,-29.333913043478265,-29.343913043478263,0.3884682,-0.3379072101694915,-0.4297962423728814,0.7659539288135593,0.6778839677966101
210293349,0,0.7995652173913044,0.6782608695652174,-29.33086956521739,-29.3408695652174,0.388454175,-0.336971206779661,-0.4285768949152542,0.7689125525423729,0.6783373118644067
210293349,0,0.7960869565217392,0.6743478260869564,-29.32782608695652,-29.33782608695652,0.38844015,-0.3360352033898305,-0.4273575474576271,0.7718711762711865,0.6787906559322033
210293349,0,0.792608695652174,0.6704347826086956,-29.324782608695653,-29.33478260869565,0.388426125,-0.3350992,-0.4261382,0.7748298,0.679244
210293349,0,0.7891304347826087,0.6665217391304348,-29.321739130434786,-29.331739130434784,0.3884121,-0.3354684870967742,-0.4268118903225806,0.7759629032258064,0.6798555387096774
210293349,0,0.7856521739130435,0.6626086956521738,-29.31869565217391,-29.32869565217392,0.388398075,-0.3358377741935484,-0.4274855806451613,0.7770960064516129,0.6804670774193547
210293349,0,0.7821739130434783,0.658695652173913,-29.315652173913044,-29.32565217391305,0.38838405,-0.3362070612903226,-0.428159270967742,0.7782291096774193,0.6810786161290322
210325836,0,0.778695652173913,0.6547826086956521,-29.312608695652173,-29.32260869565217,0.388370025,-0.3365763483870967,-0.4288329612903226,0.7793622129032258,0.6816901548387096
210333333,0,0.7752173913043479,0.6508695652173913,-29.309565217391302,-29.319565217391304,0.388356,-0.3369456354838709,-0.4295066516129032,0.7804953161290322,0.6823016935483871
210333333,0,0.7717391304347826,0.6469565217391304,-29.306521739130435,-29.31652173913044,0.388341975,-0.3373149225806451,-0.4301803419354839,0.7816284193548387,0.6829132322580644
210373317,0,0.7682608695652174,0.6430434782608695,-29.303478260869564,-29.31347826086957,0.38832795,-0.3376842096774193,-0.4308540322580645,0.7827615225806451,0.6835247709677419
210373317,0,0.7647826086956522,0.6391304347826087,-29.300434782608697,-29.3104347826087,0.388313925,-0.3380534967741935,-0.4315277225806452,0.7838946258064516,0.6841363096774193
210393309,0,0.761304347826087,0.6352173913043477,-29.297391304347823,-29.307391304347828,0.3882999,-0.3384227838709677,-0.4322014129032258,0.785027729032258,0.6847478483870968
210393309,0,0.7578260869565218,0.6313043478260869,-29.294347826086955,-29.30434782608696,0.388285875,-0.3387920709677419,-0.4328751032258064,0.7861608322580645,0.6853593870967741
210393309,0,0.7543478260869565,0.6273913043478261,-29.291304347826088,-29.30130434782609,0.38827185,-0.3391613580645161,-0.4335487935483871,0.7872939354838709,0.6859709258064516
210393309,0,0.7508695652173913,0.6234782608695651,-29.288260869565217,-29.29826086956522,0.388257825,-0.3395306451612903,-0.4342224838709677,0.7884270387096775,0.686582464516129
210393309,0,0.7473913043478261,0.6195652173913043,-29.285217391304347,-29.295217391304348,0.3882438,-0.3398999322580645,-0.4348961741935484,0.7895601419354839,0.6871940032258065
210393309,0,0.7439130434782608,0.6156521739130435,-29.28217391304348,-29.29217391304348,0.388229775,-0.3402692193548387,-0.435569864516129,0.7906932451612904,0.6878055419354838
210393309,0,0.7404347826086957,0.6117391304347826,-29.27913043478261,-29.28913043478261,0.38821575,-0.3406385064516129,-0.4362435548387097,0.7918263483870968,0.6884170806451613
210393309,0,0.7369565217391304,0.6078260869565217,-29.276086956521738,-29.28608695652174,0.388201725,-0.341007793548387,-0.4369172451612903,0.7929594516129033,0.6890286193548387
210393309,0,0.7334782608695652,0.6039130434782608,-29.27304347826087,-29.283043478260872,0.3881877,-0.3413770806451612,-0.4375909354838709,0.7940925548387097,0.6896401580645162
210393309,0,0.73,0.6,-29.27,-29.28,0.388173675,-0.3417463677419354,-0.4382646258064516,0.7952256580645162,0.6902516967741935
210393309,0,0.7275757575757575,0.5975757575757575,-29.26727272727273,-29.27757575757576,0.38815965,-0.3421156548387096,-0.4389383161290323,0.7963587612903226,0.690863235483871
210393309,0,0.7251515151515151,0.5951515151515151,-29.264545454545456,-29.27515151515152,0.388145625,-0.3424849419354838,-0.4396120064516129,0.7974918645161291,0.6914747741935484
210393309,0,0.7227272727272727,0.5927272727272727,-29.26181818181818,-29.27272727272728,0.3881316,-0.342854229032258,-0.4402856967741935,0.7986249677419355,0.6920863129032259
210393309,0,0.7203030303030303,0.5903030303030303,-29.259090909090908,-29.27030303030303,0.388117575,-0.3432235161290322,-0.4409593870967742,0.799758070967742,0.6926978516129032
210393309,0,0.7178787878787879,0.5878787878787879,-29.25636363636364,-29.26787878787879,0.38810355,-0.3435928032258064,-0.4416330774193548,0.8008911741935484,0.6933093903225807
210393309,0,0.7154545454545455,0.5854545454545454,-29.253636363636364,-29.265454545454546,0.388089525,-0.3439620903225806,-0.4423067677419355,0.8020242774193549,0.6939209290322581
210393309,0,0.713030303030303,0.583030303030303,-29.25090909090909,-29.263030303030305,0.3880755,-0.3443313774193548,-0.4429804580645161,0.8031573806451613,0.6945324677419356
210393309,0,0.7106060606060606,0.5806060606060606,-29.248181818181816,-29.26060606060606,0.388061475,-0.344700664516129,-0.4436541483870967,0.8042904838709678,0.6951440064516129
210393309,0,0.7081818181818181,0.5781818181818181,-29.245454545454542,-29.25818181818181,0.38804745,-0.3450699516129032,-0.4443278387096774,0.8054235870967742,0.6957555451612903
210393309,0,0.7057575757575758,0.5757575757575758,-29.242727272727272,-29.255757575757578,0.388033425,-0.3454392387096774,-0.445001529032258,0.8065566903225807,0.6963670838709678
210393309,0,0.7033333333333334,0.5733333333333334,-29.24,-29.25333333333333,0.3880194,-0.3458085258064516,-0.4456752193548387,0.8076897935483871,0.6969786225806452
210393309,0,0.7009090909090909,0.5709090909090909,-29.237272727272728,-29.25090909090909,0.3880133942307692,-0.3461778129032258,-0.4463489096774193,0.8088228967741935,0.6975901612903226
210393309,0,0.6984848484848485,0.5684848484848485,-29.23454545454545,-29.24848484848485,0.3880073884615385,-0.3465471,-0.4470226,0.809956,0.6982017
210393309,0,0.696060606060606,0.566060606060606,-29.23181818181818,-29.24606060606061,0.3880013826923077,-0.3454652479166666,-0.4463943729166666,0.8131023229166667,0.7011908541666667
210393309,0,0.6936363636363636,0.5636363636363636,-29.22909090909091,-29.24363636363636,0.3879953769230769,-0.3443833958333333,-0.4457661458333333,0.8162486458333333,0.7041800083333334
210393309,0,0.6912121212121212,0.5612121212121212,-29.22636363636364,-29.24121212121212,0.3879893711538462,-0.34330154375,-0.44513791875,0.81939496875,0.7071691625000001
210393309,0,0.6887878787878788,0.5587878787878788,-29.223636363636363,-29.23878787878788,0.3879833653846154,-0.3422196916666666,-0.4445096916666666,0.8225412916666667,0.7101583166666667
210393309,0,0.6863636363636364,0.5563636363636364,-29.22090909090909,-29.23636363636364,0.3879773596153846,-0.3411378395833333,-0.4438814645833333,0.8256876145833334,0.7131474708333334
210393309,0,0.683939393939394,0.553939393939394,-29.21818181818182,-29.233939393939394,0.3879713538461539,-0.3400559875,-0.4432532375,0.8288339375,0.7161366250000001
210393309,0,0.6815151515151515,0.5515151515151515,-29.215454545454545,-29.23151515151515,0.387965348076923,-0.3389741354166666,-0.4426250104166667,0.8319802604166666,0.7191257791666666
210393309,0,0.6790909090909091,0.5490909090909091,-29.21272727272727,-29.22909090909091,0.3879593423076923,-0.3378922833333333,-0.4419967833333333,0.8351265833333333,0.7221149333333333
210393309,0,0.6766666666666666,0.5466666666666666,-29.21,-29.226666666666667,0.3879533365384615,-0.33681043125,-0.44136855625,0.8382729062500001,0.7251040875
210393309,0,0.6742424242424243,0.5442424242424242,-29.207272727272727,-29.224242424242423,0.3879473307692307,-0.3357285791666666,-0.4407403291666666,0.8414192291666667,0.7280932416666667
210393309,0,0.6718181818181819,0.5418181818181819,-29.204545454545453,-29.221818181818183,0.387941325,-0.3346467270833333,-0.4401121020833333,0.8445655520833333,0.7310823958333333
210393309,0,0.6693939393939394,0.5393939393939394,-29.201818181818183,-29.21939393939394,0.3879353192307692,-0.333564875,-0.4394838749999999,0.847711875,0.73407155
210413301,0,0.666969696969697,0.536969696969697,-29.19909090909091,-29.21696969696969,0.3879293134615384,-0.3324830229166666,-0.4388556479166666,0.8508581979166667,0.7370607041666667
210413301,0,0.6645454545454546,0.5345454545454545,-29.196363636363635,-29.21454545454545,0.3879233076923077,-0.3314011708333333,-0.4382274208333333,0.8540045208333333,0.7400498583333334
210453285,0,0.6621212121212121,0.5321212121212121,-29.19363636363636,-29.21212121212121,0.3879173019230769,-0.33031931875,-0.43759919375,0.85715084375,0.7430390125
210453285,0,0.6596969696969697,0.5296969696969697,-29.19090909090909,-29.20969696969697,0.3879112961538462,-0.3292374666666666,-0.4369709666666667,0.8602971666666667,0.7460281666666667
210468279,0,0.6572727272727273,0.5272727272727273,-29.188181818181818,-29.207272727272727,0.3879052903846154,-0.3281556145833333,-0.4363427395833333,0.8634434895833334,0.7490173208333334
210468279,0,0.6548484848484849,0.5248484848484849,-29.185454545454544,-29.204848484848483,0.3878992846153846,-0.3270737625,-0.4357145125,0.8665898125,0.752006475
210493269,0,0.6524242424242425,0.5224242424242425,-29.18272727272728,-29.202424242424243,0.3878932788461539,-0.3259919104166666,-0.4350862854166666,0.8697361354166666,0.7549956291666666
210493269,0,0.65,0.52,-29.18,-29.2,0.3878872730769231,-0.3249100583333333,-0.4344580583333333,0.8728824583333333,0.7579847833333333
210493269,0,0.6487301587301587,0.518888888888889,-29.17809523809524,-29.19809523809524,0.3878812673076923,-0.32382820625,-0.43382983125,0.87602878125,0.7609739375
210493269,0,0.6474603174603175,0.5177777777777778,-29.17619047619048,-29.19619047619048,0.3878752615384616,-0.3227463541666666,-0.4332016041666666,0.8791751041666667,0.7639630916666666
210493269,0,0.6461904761904762,0.5166666666666667,-29.17428571428572,-29.194285714285712,0.3878692557692308,-0.3216645020833333,-0.4325733770833333,0.8823214270833333,0.7669522458333333
210493269,0,0.6449206349206349,0.5155555555555555,-29.17238095238095,-29.19238095238095,0.38786325,-0.3205826499999999,-0.43194515,0.88546775,0.7699414
210493269,0,0.6436507936507937,0.5144444444444445,-29.17047619047619,-29.19047619047619,0.3878572442307692,-0.3195007979166666,-0.4313169229166667,0.8886140729166667,0.7729305541666667
210493269,0,0.6423809523809524,0.5133333333333333,-29.16857142857143,-29.18857142857143,0.3878512384615384,-0.3184189458333333,-0.4306886958333333,0.8917603958333333,0.7759197083333333
210493269,0,0.6411111111111111,0.5122222222222222,-29.166666666666668,-29.186666666666667,0.3878452326923077,-0.3173370937499999,-0.43006046875,0.8949067187499999,0.7789088625
210493269,0,0.6398412698412699,0.5111111111111112,-29.164761904761903,-29.184761904761903,0.3878392269230769,-0.3162552416666667,-0.4294322416666666,0.8980530416666667,0.7818980166666667
210493269,0,0.6385714285714286,0.51,-29.162857142857145,-29.18285714285714,0.3878332211538461,-0.3151733895833333,-0.4288040145833333,0.9011993645833334,0.7848871708333334
210493269,0,0.6373015873015873,0.508888888888889,-29.16095238095238,-29.18095238095238,0.3878272153846154,-0.3140915375,-0.4281757875,0.9043456875,0.787876325
210493269,0,0.6360317460317461,0.5077777777777778,-29.15904761904762,-29.17904761904762,0.3878212096153846,-0.3130096854166667,-0.4275475604166666,0.9074920104166666,0.7908654791666667
210493269,0,0.6347619047619047,0.5066666666666667,-29.15714285714286,-29.17714285714285,0.3878152038461538,-0.3119278333333333,-0.4269193333333333,0.9106383333333332,0.7938546333333333
210493269,0,0.6334920634920636,0.5055555555555555,-29.155238095238094,-29.175238095238093,0.3878091980769231,-0.31084598125,-0.42629110625,0.91378465625,0.7968437875
210493269,0,0.6322222222222222,0.5044444444444445,-29.15333333333333,-29.17333333333333,0.3878031923076923,-0.3097641291666667,-0.4256628791666667,0.9169309791666668,0.7998329416666666
210493269,0,0.6309523809523809,0.5033333333333333,-29.15142857142857,-29.17142857142857,0.3877971865384615,-0.3086822770833333,-0.4250346520833333,0.9200773020833332,0.8028220958333333
210493269,0,0.6296825396825397,0.5022222222222222,-29.14952380952381,-29.16952380952381,0.3877911807692308,-0.307600425,-0.424406425,0.923223625,0.80581125
210493269,0,0.6284126984126984,0.5011111111111112,-29.147619047619045,-29.167619047619045,0.387785175,-0.3065185729166667,-0.4237781979166666,0.9263699479166668,0.8088004041666667
210493269,0,0.6271428571428571,0.5,-29.145714285714284,-29.165714285714284,0.3877791692307692,-0.3054367208333333,-0.4231499708333333,0.9295162708333332,0.8117895583333333
210493269,0,0.6258730158730159,0.4988888888888889,-29.143809523809523,-29.163809523809523,0.3877731634615385,-0.30435486875,-0.42252174375,0.93266259375,0.8147787125
210493269,0,0.6246031746031746,0.4977777777777778,-29.14190476190476,-29.16190476190476,0.3877671576923077,-0.3032730166666667,-0.4218935166666667,0.9358089166666668,0.8177678666666667
210493269,0,0.6233333333333333,0.4966666666666667,-29.14,-29.16,0.387761151923077,-0.3021911645833333,-0.4212652895833333,0.9389552395833334,0.8207570208333334
210493269,0,0.6220634920634921,0.4955555555555556,-29.13809523809524,-29.158095238095235,0.3877551461538461,-0.3011093125,-0.4206370625,0.9421015625,0.8237461749999999
210493269,0,0.6207936507936508,0.4944444444444444,-29.136190476190475,-29.15619047619048,0.3877491403846154,-0.3000274604166666,-0.4200088354166666,0.9452478854166666,0.8267353291666666
210493269,0,0.6195238095238095,0.4933333333333333,-29.13428571428572,-29.15428571428572,0.3877431346153846,-0.2989456083333333,-0.4193806083333333,0.9483942083333332,0.8297244833333333
210493269,0,0.6182539682539683,0.4922222222222222,-29.132380952380952,-29.152380952380952,0.3877371288461538,-0.29786375625,-0.41875238125,0.95154053125,0.8327136374999999
210493269,0,0.616984126984127,0.4911111111111111,-29.13047619047619,-29.15047619047619,0.3877311230769231,-0.2967819041666666,-0.4181241541666666,0.9546868541666668,0.8357027916666666
210493269,0,0.6157142857142857,0.49,-29.128571428571423,-29.148571428571422,0.3877251173076923,-0.2957000520833333,-0.4174959270833333,0.9578331770833332,0.8386919458333333
210493269,0,0.6144444444444445,0.4888888888888889,-29.126666666666665,-29.146666666666665,0.3877191115384615,-0.2946182,-0.4168677,0.9609795,0.8416811
210493269,0,0.6131746031746032,0.4877777777777778,-29.124761904761904,-29.144761904761904,0.3877131057692308,-0.300967484,-0.414796136,0.9633316,0.8570148959999999
210493269,0,0.611904761904762,0.4866666666666667,-29.122857142857143,-29.142857142857142,0.3877071,-0.307316768,-0.412724572,0.9656837,0.872348692
210493269,0,0.6106349206349206,0.4855555555555556,-29.12095238095238,-29.14095238095238,0.3876893594594595,-0.313666052,-0.410653008,0.9680358,0.8876824879999999
210493269,0,0.6093650793650793,0.4844444444444444,-29.119047619047617,-29.139047619047616,0.3876716189189189,-0.320015336,-0.408581444,0.9703879,0.903016284
210493269,0,0.6080952380952381,0.4833333333333333,-29.117142857142856,-29.13714285714285,0.3876538783783784,-0.32636462,-0.40650988,0.97274,0.91835008
210534086,0,0.6068253968253968,0.4822222222222222,-29.11523809523809,-29.13523809523809,0.3876361378378378,-0.332713904,-0.404438316,0.9750921,0.933683876
210534086,0,0.6055555555555555,0.4811111111111111,-29.113333333333333,-29.133333333333333,0.3876183972972973,-0.339063188,-0.402366752,0.9774442,0.949017672
210574070,0,0.6042857142857143,0.48,-29.11142857142857,-29.13142857142857,0.3876006567567567,-0.3454124719999999,-0.4002951879999999,0.9797963,0.964351468
210574070,0,0.603015873015873,0.4788888888888889,-29.109523809523807,-29.129523809523807,0.3875829162162162,-0.351761756,-0.398223624,0.9821484,0.979685264
210594062,0,0.6017460317460317,0.4777777777777778,-29.10761904761905,-29.12761904761905,0.3875651756756757,-0.35811104,-0.39615206,0.9845005,0.99501906
210594062,0,0.6004761904761905,0.4766666666666667,-29.105714285714285,-29.125714285714285,0.3875474351351352,-0.364460324,-0.394080496,0.9868526,1.010352856
210594062,0,0.5992063492063492,0.4755555555555555,-29.103809523809524,-29.123809523809523,0.3875296945945946,-0.3708096079999999,-0.392008932,0.9892047,1.025686652
210594062,0,0.5979365079365079,0.4744444444444444,-29.101904761904763,-29.12190476190476,0.3875119540540541,-0.3771588919999999,-0.389937368,0.9915568,1.041020448
210594062,0,0.5966666666666667,0.4733333333333333,-29.1,-29.12,0.3874942135135135,-0.383508176,-0.387865804,0.9939089,1.056354244
210594062,0,0.5953968253968254,0.4722222222222222,-29.09809523809524,-29.11809523809524,0.387476472972973,-0.38985746,-0.38579424,0.996261,1.07168804
210594062,0,0.5941269841269841,0.4711111111111111,-29.096190476190475,-29.116190476190475,0.3874587324324324,-0.396206744,-0.383722676,0.9986131,1.087021836
210594062,0,0.5928571428571429,0.47,-29.094285714285714,-29.11428571428572,0.3874409918918919,-0.402556028,-0.381651112,1.0009652,1.102355632
210594062,0,0.5915873015873016,0.4688888888888889,-29.09238095238096,-29.11238095238096,0.3874232513513513,-0.4089053119999999,-0.379579548,1.0033173,1.117689428
210594062,0,0.5903174603174602,0.4677777777777778,-29.09047619047619,-29.110476190476188,0.3874055108108108,-0.415254596,-0.3775079839999999,1.0056694,1.133023224
210594062,0,0.589047619047619,0.4666666666666667,-29.088571428571427,-29.108571428571427,0.3873877702702702,-0.42160388,-0.37543642,1.0080215,1.14835702
210594062,0,0.5877777777777777,0.4655555555555555,-29.086666666666662,-29.106666666666666,0.3873700297297298,-0.4279531639999999,-0.3733648559999999,1.0103736,1.163690816
210594062,0,0.5865079365079364,0.4644444444444444,-29.084761904761905,-29.104761904761904,0.3873522891891892,-0.4343024479999999,-0.371293292,1.0127257,1.179024612
210594062,0,0.5852380952380952,0.4633333333333334,-29.08285714285714,-29.10285714285714,0.3873345486486487,-0.4406517319999999,-0.3692217279999999,1.0150778,1.194358408
210594062,0,0.5839682539682539,0.4622222222222222,-29.08095238095238,-29.10095238095238,0.3873168081081081,-0.447001016,-0.367150164,1.0174299,1.209692204
210594062,0,0.5826984126984127,0.4611111111111111,-29.079047619047618,-29.099047619047617,0.3872990675675676,-0.4533503,-0.3650786,1.019782,1.225026
210594062,0,0.5814285714285714,0.46,-29.077142857142857,-29.097142857142856,0.387281327027027,-0.4378893517857142,-0.3533208499999999,1.5237746428571428,1.535831607142857
210594062,0,0.5801587301587301,0.4588888888888889,-29.07523809523809,-29.09523809523809,0.3872635864864865,-0.4224284035714286,-0.3415630999999999,2.027767285714286,1.8466372142857144
210594062,0,0.5788888888888889,0.4577777777777778,-29.07333333333333,-29.09333333333333,0.3872458459459459,-0.4069674553571428,-0.32980535,2.5317599285714287,2.1574428214285715
210594062,0,0.5776190476190476,0.4566666666666666,-29.07142857142857,-29.09142857142857,0.3872281054054054,-0.3915065071428571,-0.3180476,3.035752571428572,2.468248428571429
210594062,0,0.5763492063492063,0.4555555555555556,-29.069523809523808,-29.089523809523808,0.3872103648648649,-0.3760455589285714,-0.30628985,3.5397452142857144,2.7790540357142857
210594062,0,0.5750793650793651,0.4544444444444444,-29.067619047619047,-29.087619047619047,0.3871926243243243,-0.3605846107142857,-0.2945320999999999,4.043737857142857,3.089859642857143
210594062,0,0.5738095238095238,0.4533333333333333,-29.06571428571429,-29.085714285714285,0.3871748837837838,-0.3451236625,-0.2827743499999999,4.5477305,3.4006652500000003
210594062,0,0.5725396825396825,0.4522222222222222,-29.06380952380952,-29.08380952380952,0.3871571432432433,-0.3296627142857142,-0.2710166,5.051723142857143,3.7114708571428574
210594062,0,0.5712698412698413,0.4511111111111111,-29.06190476190476,-29.08190476190476,0.3871394027027027,-0.3142017660714286,-0.25925885,5.555715785714286,4.0222764642857145
210594062,0,0.57,0.45,-29.06,-29.08,0.3871216621621622,-0.2987408178571428,-0.2475010999999999,6.059708428571429,4.333082071428572
210594062,0,0.57,0.4494594594594595,-29.03216216216216,-29.06027027027027,0.3871039216216216,-0.2832798696428571,-0.23574335,6.563701071428572,4.643887678571429
210594062,0,0.57,0.4489189189189189,-29.004324324324323,-29.04054054054054,0.3870861810810811,-0.2678189214285714,-0.2239855999999999,7.067693714285714,4.954693285714286
210594062,0,0.57,0.4483783783783784,-28.97648648648649,-29.020810810810808,0.3870684405405405,-0.2523579732142856,-0.21222785,7.571686357142857,5.265498892857143
210594062,0,0.57,0.4478378378378378,-28.948648648648646,-29.00108108108108,0.3870507,-0.2368970249999999,-0.2004700999999999,8.075679,5.5763045
210594062,0,0.57,0.4472972972972973,-28.92081081081081,-28.98135135135135,0.3869670733333333,-0.2214360767857142,-0.18871235,8.579671642857143,5.887110107142857
210594062,0,0.57,0.4467567567567567,-28.892972972972974,-28.96162162162162,0.3868834466666667,-0.2059751285714285,-0.1769546,9.083664285714285,6.197915714285714
210594062,0,0.57,0.4462162162162162,-28.865135135135134,-28.94189189189189,0.38679982,-0.1905141803571428,-0.1651968499999999,9.587656928571429,6.508721321428571
210594062,0,0.57,0.4456756756756757,-28.837297297297297,-28.92216216216216,0.3867161933333333,-0.1750532321428571,-0.1534391,10.09164957142857,6.819526928571428
210594062,0,0.57,0.4451351351351351,-28.809459459459458,-28.90243243243243,0.3866325666666667,-0.1595922839285714,-0.1416813499999999,10.595642214285714,7.1303325357142855
210614054,0,0.57,0.4445945945945946,-28.78162162162162,-28.8827027027027,0.38654894,-0.1441313357142857,-0.1299236,11.099634857142856,7.441138142857143
210614054,0,0.57,0.444054054054054,-28.753783783783785,-28.86297297297297,0.3864653133333333,-0.1286703874999999,-0.1181658499999999,11.603627499999998,7.75194375
210654038,1,0.57,0.4435135135135135,-28.725945945945945,-28.843243243243244,0.3863816866666666,-0.1132094392857142,-0.1064081,12.107620142857142,8.062749357142858
210654038,1,0.57,0.442972972972973,-28.69810810810811,-28.823513513513515,0.38629806,-0.0977484910714285,-0.09465035,12.611612785714286,8.373554964285715
210694022,1,0.57,0.4424324324324324,-28.67027027027027,-28.803783783783786,0.3862144333333333,-0.0822875428571428,-0.0828925999999999,13.115605428571428,8.684360571428572
210694022,1,0.57,0.4418918918918919,-28.642432432432432,-28.784054054054053,0.3861308066666666,-0.0668265946428571,-0.0711348499999999,13.61959807142857,8.995166178571429
210694022,1,0.57,0.4413513513513513,-28.6145945945946,-28.764324324324324,0.38604718,-0.0513656464285713,-0.0593771,14.123590714285712,9.305971785714286
210694022,1,0.57,0.4408108108108108,-28.58675675675676,-28.744594594594595,0.3859635533333333,-0.0359046982142857,-0.04761935,14.627583357142855,9.616777392857143
210694022,1,0.57,0.4402702702702702,-28.55891891891892,-28.724864864864863,0.3858799266666666,-0.0204437499999999,-0.0358615999999999,15.131576,9.927583
210694022,1,0.57,0.4397297297297297,-28.53108108108108,-28.705135135135134,0.3857963,-0.0049828017857142,-0.0241038499999999,15.63556864285714,10.238388607142856
210694022,1,0.57,0.4391891891891892,-28.503243243243244,-28.685405405405405,0.3855780113207547,0.0104781464285714,-0.0123461,16.139561285714286,10.549194214285714
210694022,1,0.57,0.4386486486486486,-28.475405405405404,-28.66567567567568,0.3853597226415094,0.0259390946428571,-0.00058835,16.64355392857143,10.859999821428572
210694022,1,0.57,0.4381081081081081,-28.447567567567567,-28.645945945945947,0.3851414339622641,0.0414000428571428,0.0111693999999999,17.14754657142857,11.170805428571429
210694022,1,0.57,0.4375675675675676,-28.41972972972973,-28.626216216216218,0.3849231452830188,0.0568609910714286,0.02292715,17.651539214285712,11.481611035714286
210694022,1,0.57,0.437027027027027,-28.39189189189189,-28.606486486486485,0.3847048566037735,0.0723219392857142,0.0346849,18.15553185714285,11.792416642857145
210694022,1,0.57,0.4364864864864864,-28.36405405405405,-28.58675675675676,0.3844865679245283,0.0877828875,0.0464426499999999,18.6595245,12.10322225
210694022,1,0.57,0.4359459459459459,-28.33621621621621,-28.567027027027027,0.384268279245283,0.1032438357142857,0.0582003999999999,19.163517142857145,12.414027857142855
210694022,1,0.57,0.4354054054054054,-28.30837837837838,-28.5472972972973,0.3840499905660377,0.1187047839285714,0.06995815,19.667509785714284,12.724833464285714
210694022,1,0.57,0.4348648648648648,-28.280540540540542,-28.52756756756757,0.3838317018867924,0.1341657321428572,0.0817159,20.17150242857143,13.035639071428571
210694022,1,0.57,0.4343243243243243,-28.252702702702702,-28.50783783783784,0.3836134132075471,0.1496266803571428,0.0934736499999999,20.67549507142857,13.346444678571428
210694022,1,0.57,0.4337837837837838,-28.224864864864863,-28.488108108108108,0.3833951245283019,0.1650876285714285,0.1052313999999999,21.17948771428572,13.657250285714284
210694022,1,0.57,0.4332432432432432,-28.197027027027023,-28.46837837837838,0.3831768358490566,0.1805485767857143,0.1169891499999999,21.68348035714285,13.968055892857144
210694022,1,0.57,0.4327027027027027,-28.16918918918919,-28.44864864864865,0.3829585471698113,0.196009525,0.1287469,22.187473,14.2788615
210694022,1,0.57,0.4321621621621621,-28.14135135135136,-28.42891891891892,0.382740258490566,0.2114704732142857,0.1405046499999999,22.691465642857143,14.589667107142857
210694022,1,0.57,0.4316216216216216,-28.11351351351352,-28.409189189189192,0.3825219698113207,0.2269314214285714,0.1522623999999999,23.195458285714285,14.900472714285714
210694022,1,0.57,0.431081081081081,-28.08567567567568,-28.38945945945946,0.3823036811320754,0.2423923696428571,0.1640201499999999,23.699450928571427,15.211278321428573
210694022,1,0.57,0.4305405405405405,-28.05783783783784,-28.36972972972973,0.3820853924528302,0.2578533178571429,0.1757779,24.20344357142857,15.522083928571428
210694022,1,0.57,0.43,-28.03,-28.35,0.3818671037735849,0.2733142660714286,0.18753565,24.70743621428572,15.832889535714283
210694022,1,0.5696774193548386,0.4303225806451612,-27.92741935483871,-28.25193548387097,0.3816488150943396,0.2887752142857143,0.1992934,25.211428857142856,16.143695142857144
210694022,1,0.5693548387096774,0.4306451612903226,-27.82483870967742,-28.153870967741938,0.3814305264150943,0.3042361625000001,0.21105115,25.7154215,16.45450075
210694022,1,0.5690322580645161,0.4309677419354839,-27.72225806451613,-28.055806451612906,0.381212237735849,0.3196971107142857,0.2228089,26.21941414285714,16.765306357142858
210694022,1,0.5687096774193549,0.4312903225806451,-27.61967741935484,-27.95774193548387,0.3809939490566038,0.3351580589285714,0.2345666499999999,26.723406785714285,17.076111964285715
210694022,1,0.5683870967741935,0.4316129032258064,-27.51709677419355,-27.85967741935484,0.3807756603773585,0.3506190071428572,0.2463243999999999,27.227399428571427,17.386917571428572
210694022,1,0.5680645161290322,0.4319354838709677,-27.414516129032258,-27.761612903225807,0.3805573716981132,0.3660799553571429,0.2580821499999999,27.73139207142857,17.69772317857143
210694022,1,0.567741935483871,0.432258064516129,-27.31193548387097,-27.66354838709677,0.3803390830188679,0.3815409035714285,0.2698398999999999,28.235384714285715,18.008528785714287
210694022,1,0.5674193548387096,0.4325806451612903,-27.20935483870968,-27.565483870967743,0.3801207943396226,0.3970018517857143,0.28159765,28.739377357142857,18.319334392857144
210694022,1,0.5670967741935483,0.4329032258064516,-27.10677419354839,-27.46741935483871,0.3799025056603773,0.4124628,0.2933554,29.24337,18.63014
210694022,1,0.5667741935483871,0.4332258064516129,-27.004193548387097,-27.36935483870968,0.379684216981132,0.408516859375,0.292139328125,29.3140071875,19.063091875
210694022,1,0.5664516129032258,0.4335483870967742,-26.901612903225807,-27.271290322580647,0.3794659283018867,0.40457091875,0.29092325625,29.384644375,19.49604375
210734006,1,0.5661290322580645,0.4338709677419354,-26.79903225806452,-27.17322580645161,0.3792476396226414,0.400624978125,0.289707184375,29.4552815625,19.928995625
210734006,1,0.5658064516129032,0.4341935483870968,-26.69645161290323,-27.07516129032258,0.3790293509433962,0.3966790375,0.2884911125,29.52591875,20.3619475
210773990,1,0.5654838709677419,0.434516129032258,-26.59387096774193,-26.977096774193548,0.3788110622641509,0.392733096875,0.287275040625,29.5965559375,20.794899375
210773990,1,0.5651612903225807,0.4348387096774193,-26.49129032258065,-26.87903225806452,0.3785927735849056,0.38878715625,0.28605896875,29.667193125,21.22785125
210793982,1,0.5648387096774193,0.4351612903225806,-26.38870967741936,-26.780967741935484,0.3783744849056603,0.384841215625,0.284842896875,29.7378303125,21.660803125
210793982,1,0.5645161290322581,0.4354838709677419,-26.286129032258067,-26.68290322580645,0.378156196226415,0.380895275,0.2836268249999999,29.8084675,22.093755
210793982,1,0.5641935483870968,0.4358064516129032,-26.18354838709677,-26.58483870967742,0.3779379075471697,0.376949334375,0.2824107531249999,29.8791046875,22.526706875
210793982,1,0.5638709677419355,0.4361290322580645,-26.080967741935485,-26.48677419354839,0.3777196188679245,0.37300339375,0.2811946812499999,29.949741875,22.959658750000003
210793982,1,0.5635483870967742,0.4364516129032258,-25.978387096774195,-26.38870967741936,0.3775013301886792,0.369057453125,0.2799786093749999,30.0203790625,23.392610625
210793982,1,0.5632258064516129,0.4367741935483871,-25.875806451612902,-26.29064516129032,0.3772830415094339,0.3651115125,0.2787625374999999,30.09101625,23.8255625
210793982,1,0.5629032258064517,0.4370967741935483,-25.773225806451613,-26.19258064516129,0.3770647528301886,0.361165571875,0.2775464656249999,30.1616534375,24.258514375
210793982,1,0.5625806451612904,0.4374193548387097,-25.670645161290324,-26.094516129032257,0.3768464641509433,0.35721963125,0.2763303937499999,30.232290625,24.69146625
210793982,1,0.562258064516129,0.4377419354838709,-25.568064516129034,-25.996451612903225,0.3766281754716981,0.353273690625,0.2751143218749999,30.3029278125,25.124418125
210793982,1,0.5619354838709678,0.4380645161290322,-25.465483870967745,-25.8983870967742,0.3764098867924528,0.34932775,0.27389825,30.373565,25.55737
210793982,1,0.5616129032258065,0.4383870967741936,-25.36290322580645,-25.80032258064516,0.3761915981132075,0.345381809375,0.2726821781249999,30.4442021875,25.990321875
210793982,1,0.5612903225806452,0.4387096774193548,-25.260322580645163,-25.70225806451613,0.3759733094339622,0.34143586875,0.27146610625,30.514839375,26.42327375
210793982,1,0.5609677419354839,0.4390322580645161,-25.15774193548388,-25.60419354838709,0.3757550207547169,0.337489928125,0.270250034375,30.5854765625,26.856225625
210793982,1,0.5606451612903226,0.4393548387096774,-25.05516129032258,-25.506129032258062,0.3755367320754716,0.3335439875,0.2690339625,30.65611375,27.2891775
