Time,AHR2_Roll,AHR2_Pitch,AHR2_Yaw,AHR2_Alt,AHR2_Lat,AHR2_Lng,AHR2_Q1,AHR2_Q2,AHR2_Q3,AHR2_Q4
 1214358229, -0.01, -0.02, 344.06, 558.04, 33.6216403, 72.9556861, 0.9903504, -0.000172419, -0.0001987129, -0.1385855
 1214458189, -0.01, -0.02, 344.06, 558.04, 33.6216403, 72.9556861, 0.9903529, -0.0001553382, -0.0001896983, -0.1385684
 1214558149, -0.01, -0.02, 344.07, 558.04, 33.6216403, 72.9556861, 0.9903556, -0.000131622, -0.0001719663, -0.138549
 1214658109, -0.01, -0.01, 344.07, 558.04, 33.6216403, 72.9556861, 0.9903576, -0.0001182766, -0.0001586787, -0.1385344
 1214758069, 0, -0.01, 344.07, 558.04, 33.6216403, 72.9556861, 0.9903607, -0.0001079393, -0.0001512521, -0.1385127
 1214858029, 0, -0.01, 344.07, 558.04, 33.6216403, 72.9556861, 0.9903633, -0.000103556, -0.0001483786, -0.1384937
 1214957989, 0, -0.01, 344.08, 558.04, 33.6216403, 72.9556861, 0.990366, -9.825001E-05, -0.0001449089, -0.1384741
 1215057949, 0, -0.01, 344.08, 558.04, 33.6216403, 72.9556861, 0.9903685, -9.240729E-05, -0.0001383219, -0.1384561
 1215157909, 0, -0.01, 344.08, 558.04, 33.6216403, 72.9556861, 0.9903708, -8.350492E-05, -0.0001308099, -0.1384403
 1215257869, 0, -0.01, 344.08, 558.04, 33.6216403, 72.9556861, 0.9903734, -7.637175E-05, -0.0001255733, -0.1384215
 1215357829, 0, -0.01, 344.08, 558.04, 33.6216403, 72.9556861, 0.9903762, -6.930867E-05, -0.000117085, -0.1384016
 1215457789, 0, -0.01, 344.09, 558.04, 33.6216403, 72.9556861, 0.9903789, -6.651927E-05, -0.0001139588, -0.1383824
 1215557749, 0, -0.01, 344.09, 558.04, 33.6216403, 72.9556861, 0.9903819, -5.959815E-05, -0.000108235, -0.1383605
 1215657709, 0, -0.01, 344.09, 558.04, 33.6216403, 72.9556861, 0.9903841, -5.28209E-05, -9.970815E-05, -0.1383451
 1215757669, 0, -0.01, 344.09, 558.04, 33.6216403, 72.9556861, 0.9903865, -4.270563E-05, -9.131429E-05, -0.1383282
 1215857629, 0, -0.01, 344.1, 558.04, 33.6216403, 72.9556861, 0.9903893, -3.836411E-05, -8.776686E-05, -0.1383078
 1215957589, 0, 0, 344.1, 558.04, 33.6216403, 72.9556861, 0.9903919, -3.077797E-05, -8.248331E-05, -0.1382897
 1216057549, 0, 0, 344.1, 558.04, 33.6216403, 72.9556861, 0.9903945, -2.516639E-05, -7.988348E-05, -0.1382711
 1216157509, 0, 0, 344.1, 558.04, 33.6216403, 72.9556861, 0.9903969, -1.913588E-05, -7.372478E-05, -0.138253
 1216257469, 0, 0, 344.1, 558.04, 33.6216403, 72.9556861, 0.9903991, -1.135765E-05, -7.034801E-05, -0.1382379
 1216357429, 0, 0, 344.11, 558.04, 33.6216403, 72.9556861, 0.9904021, -7.061783E-06, -6.806237E-05, -0.1382161
 1216458222, 0, 0, 344.11, 558.04, 33.6216403, 72.9556861, 0.9904045, -1.617898E-06, -6.344074E-05, -0.1381989
 1216558182, 0, 0, 344.11, 558.04, 33.6216403, 72.9556861, 0.9904076, 5.770612E-06, -6.067361E-05, -0.1381769
 1216658142, 0, 0, 344.11, 558.04, 33.6216403, 72.9556861, 0.99041, 1.163051E-05, -6.01038E-05, -0.1381591
 1216758102, 0, 0, 344.11, 558.04, 33.6216403, 72.9556861, 0.9904123, 1.942913E-05, -5.6938E-05, -0.138143
 1216858062, 0, 0, 344.12, 558.04, 33.6216403, 72.9556861, 0.9904149, 2.838532E-05, -5.503826E-05, -0.1381246
 1216958022, 0, 0, 344.12, 558.04, 33.6216403, 72.9556861, 0.9904177, 3.47578E-05, -4.964475E-05, -0.1381047
 1217057982, 0, 0, 344.12, 558.04, 33.6216403, 72.9556861, 0.9904197, 3.984604E-05, -4.555981E-05, -0.1380897
 1217157942, 0, 0, 344.12, 558.04, 33.6216403, 72.9556861, 0.9904222, 4.606718E-05, -3.798643E-05, -0.1380715
 1217257902, 0, 0, 344.12, 558.04, 33.6216403, 72.9556861, 0.990425, 5.022724E-05, -3.194438E-05, -0.1380522
 1217357862, 0, 0, 344.13, 558.04, 33.6216403, 72.9556861, 0.9904272, 5.320091E-05, -2.579168E-05, -0.138036
 1217457822, 0, 0, 344.13, 558.04, 33.6216403, 72.9556861, 0.9904299, 6.096016E-05, -2.122363E-05, -0.1380164
 1217557782, 0, 0, 344.13, 558.04, 33.6216403, 72.9556861, 0.9904321, 6.647834E-05, -1.86095E-05, -0.1380005
 1217657742, 0, 0, 344.13, 558.04, 33.6216403, 72.9556861, 0.9904344, 7.484174E-05, -1.526936E-05, -0.1379842
 1217757702, 0, 0, 344.13, 558.04, 33.6216403, 72.9556861, 0.9904366, 8.156896E-05, -1.181938E-05, -0.137969
 1217857662, 0, 0, 344.14, 558.04, 33.6216403, 72.9556861, 0.9904394, 8.508404E-05, -7.597038E-06, -0.1379489
 1217957622, 0.01, 0, 344.14, 558.04, 33.6216403, 72.9556861, 0.9904418, 9.035488E-05, -3.501275E-06, -0.1379314
 1218057582, 0.01, 0, 344.14, 558.04, 33.6216403, 72.9556861, 0.9904442, 9.951548E-05, -7.234091E-07, -0.1379145
 1218157542, 0.01, 0, 344.14, 558.04, 33.6216403, 72.9556861, 0.9904469, 0.0001069987, 1.995897E-06, -0.1378949
 1218257502, 0.01, 0, 344.14, 558.04, 33.6216403, 72.9556861, 0.9904492, 0.0001107685, 7.940216E-06, -0.137878
 1218357462, 0.01, 0, 344.15, 558.04, 33.6216403, 72.9556861, 0.9904517, 0.0001171741, 1.085111E-05, -0.1378603
 1218457422, 0.01, 0, 344.15, 558.04, 33.6216403, 72.9556861, 0.990454, 0.0001223821, 1.479095E-05, -0.1378438
 1218558215, 0.01, 0, 344.15, 558.04, 33.6216403, 72.9556861, 0.9904563, 0.0001278163, 1.721517E-05, -0.1378273
 1218658175, 0.01, 0, 344.15, 558.04, 33.6216403, 72.9556861, 0.9904591, 0.0001344222, 1.929826E-05, -0.1378068
 1218758135, 0.01, 0, 344.16, 558.04, 33.6216403, 72.9556861, 0.9904618, 0.0001380684, 2.282756E-05, -0.1377876
 1218858095, 0.01, 0, 344.16, 558.04, 33.6216403, 72.9556861, 0.9904645, 0.0001394391, 2.588921E-05, -0.1377678
 1218958055, 0.01, 0, 344.16, 558.04, 33.6216403, 72.9556861, 0.9904669, 0.0001425166, 2.774739E-05, -0.1377512
 1219058015, 0.01, 0, 344.16, 558.04, 33.6216403, 72.9556861, 0.9904692, 0.0001481559, 3.476169E-05, -0.137734
 1219157975, 0.01, 0, 344.16, 558.04, 33.6216403, 72.9556861, 0.9904718, 0.0001534116, 3.805684E-05, -0.1377157
 1219257935, 0.01, 0, 344.17, 558.04, 33.6216403, 72.9556861, 0.9904742, 0.0001597432, 4.265479E-05, -0.1376981
 1219357895, 0.01, 0, 344.17, 558.04, 33.6216403, 72.9556861, 0.9904768, 0.00016195, 4.523128E-05, -0.1376791
 1219457855, 0.01, 0, 344.17, 558.04, 33.6216403, 72.9556861, 0.9904791, 0.0001688753, 4.926921E-05, -0.1376631
 1219557815, 0.01, 0, 344.17, 558.04, 33.6216403, 72.9556861, 0.9904818, 0.0001755066, 5.373928E-05, -0.1376437
 1219657775, 0.01, 0, 344.17, 558.04, 33.6216403, 72.9556861, 0.9904846, 0.0001816491, 5.78698E-05, -0.1376236
 1219757735, 0.02, 0.01, 344.18, 558.04, 33.6216403, 72.9556861, 0.9904872, 0.0001876196, 6.351745E-05, -0.1376044
 1219857695, 0.02, 0.01, 344.18, 558.04, 33.6216403, 72.9556861, 0.9904897, 0.0001936263, 6.840409E-05, -0.1375871
 1219957655, 0.02, 0.01, 344.18, 558.04, 33.6216403, 72.9556861, 0.9904923, 0.000198215, 7.157833E-05, -0.1375677
 1220057615, 0.02, 0.01, 344.18, 558.05, 33.6216403, 72.9556861, 0.9904951, 0.00020294, 7.46737E-05, -0.1375473
 1220157575, 0.02, 0.01, 344.19, 558.07, 33.6216403, 72.9556861, 0.9904977, 0.0002078634, 7.736177E-05, -0.1375295
 1220257535, 0.02, 0.01, 344.19, 558.1, 33.6216403, 72.9556861, 0.9905003, 0.0002110303, 8.143215E-05, -0.1375107
 1220357495, 0.02, 0.01, 344.19, 558.13, 33.6216403, 72.9556861, 0.9905029, 0.0002159136, 8.747541E-05, -0.1374918
 1220457455, -0.01, -0.03, 344.19, 558.2, 33.6216403, 72.9556861, 0.990505, -0.000179222, -0.0002556803, -0.1374759
 1220557415, -0.07, -0.1, 344.19, 558.32, 33.6216403, 72.9556861, 0.9905039, -0.0007450627, -0.0008090592, -0.1374804
 1220658208, -0.09, -0.13, 344.19, 558.48, 33.6216403, 72.9556861, 0.9905005, -0.000974903, -0.001055928, -0.1375019
 1220758168, -0.08, -0.12, 344.19, 558.66, 33.6216403, 72.9556861, 0.9904966, -0.0008954254, -0.001009047, -0.1375305
 1220858128, -0.06, -0.09, 344.18, 558.85, 33.6216403, 72.9556861, 0.9904923, -0.0006838473, -0.0007686433, -0.1375644
 1220958088, -0.03, -0.06, 344.18, 559.05, 33.6216403, 72.9556861, 0.9904869, -0.0004011363, -0.0004874641, -0.1376053
 1221058048, -0.01, -0.02, 344.17, 559.24, 33.6216403, 72.9556861, 0.9904813, -0.0001427144, -0.0002364109, -0.1376472
 1221158008, 0, 0, 344.17, 559.47, 33.6216403, 72.9556861, 0.9904755, 4.348941E-05, -6.125401E-05, -0.1376889
 1221257968, 0.01, 0, 344.16, 559.69, 33.6216403, 72.9556861, 0.9904698, 0.0001421095, 2.816269E-05, -0.13773
 1221357928, 0.01, 0.01, 344.16, 559.93, 33.6216403, 72.9556861, 0.9904642, 0.0001820374, 9.527605E-05, -0.1377702
 1221457888, 0.01, 0.01, 344.15, 560.17, 33.6216403, 72.9556861, 0.9904585, 0.0001448242, 0.0001071852, -0.1378107
 1221557848, 0.03, 0.03, 344.15, 560.42, 33.6216403, 72.9556861, 0.9904537, 0.0003465219, 0.0002434216, -0.1378451
 1221657808, 0.05, 0.04, 344.15, 560.68, 33.6216403, 72.9556861, 0.9904506, 0.0004905211, 0.0003294408, -0.1378669
 1221757768, 0.05, 0.05, 344.14, 560.94, 33.6216403, 72.9556861, 0.9904486, 0.0005592968, 0.000372515, -0.1378808
 1221857728, 0.06, 0.05, 344.14, 561.22, 33.6216403, 72.955686, 0.9904482, 0.0006148404, 0.0004296815, -0.1378832
 1221957688, 0.06, 0.06, 344.14, 561.5, 33.6216403, 72.955686, 0.9904484, 0.0006710487, 0.0004631651, -0.1378813
 1222057648, 0.06, 0.06, 344.15, 561.77, 33.6216403, 72.955686, 0.9904495, 0.000670855, 0.0004848511, -0.1378736
 1222157608, 0.07, 0.06, 344.15, 562.05, 33.6216403, 72.955686, 0.99045, 0.0006945709, 0.0004543621, -0.1378697
 1222257568, 0.06, 0.05, 344.15, 562.32, 33.6216403, 72.955686, 0.9904497, 0.0006405156, 0.0003804044, -0.1378727
 1222357528, 0.06, 0.05, 344.14, 562.6, 33.6216403, 72.955686, 0.9904485, 0.0006535008, 0.0003971425, -0.137881
 1222457488, 0.06, 0.05, 344.14, 562.87, 33.6216403, 72.955686, 0.9904474, 0.0006558597, 0.0003877964, -0.1378891
 1222557448, 0.06, 0.04, 344.14, 563.13, 33.6216403, 72.955686, 0.9904435, 0.0006317903, 0.0003302911, -0.1379175
 1222657408, 0.06, 0.02, 344.14, 563.39, 33.6216403, 72.955686, 0.990438, 0.0005873687, 0.0001310825, -0.1379577
 1222758201, 0.06, 0.02, 344.13, 563.65, 33.6216403, 72.955686, 0.9904323, 0.000601931, 9.380245E-05, -0.1379982
 1222858161, 0.05, 0.01, 344.13, 563.91, 33.6216403, 72.955686, 0.990431, 0.0005339837, 9.472072E-05, -0.1380076
 1222958121, 0.05, 0.02, 344.13, 564.18, 33.6216403, 72.955686, 0.9904311, 0.0005328899, 0.000104256, -0.1380072
 1223058081, 0.04, 0.02, 344.13, 564.43, 33.6216403, 72.955686, 0.9904326, 0.0003915287, 0.0001328556, -0.1379971
 1223158041, 0.04, 0.01, 344.13, 564.68, 33.6216403, 72.955686, 0.9904361, 0.0004161744, 0.0001065715, -0.1379713
 1223258001, 0.04, 0, 344.14, 564.93, 33.6216403, 72.955686, 0.9904413, 0.0004197938, 2.037718E-06, -0.1379341
 1223357961, 0.04, 0, 344.14, 565.2, 33.6216403, 72.955686, 0.9904488, 0.0003906269, 1.792544E-05, -0.1378806
 1223457921, 0.03, 0.01, 344.15, 565.45, 33.6216403, 72.955686, 0.9904567, 0.0003543764, 4.195853E-05, -0.1378238
 1223557881, 0.03, 0, 344.16, 565.7, 33.6216403, 72.955686, 0.990465, 0.0003401654, 2.790219E-05, -0.1377641
 1223657841, 0.04, 0, 344.17, 565.95, 33.6216403, 72.955686, 0.9904736, 0.0003952628, 2.535048E-06, -0.1377024
 1223757801, 0.04, 0, 344.17, 566.2, 33.6216403, 72.955686, 0.9904823, 0.0004114679, -1.957252E-05, -0.1376395
 1223857761, 0.02, 0, 344.18, 566.45, 33.6216403, 72.955686, 0.9904913, 0.0002182281, 3.184965E-05, -0.1375748
 1223957721, 0.01, 0, 344.19, 566.69, 33.6216403, 72.955686, 0.9904996, 0.0001498418, 6.37524E-05, -0.1375159
 1224057681, 0, 0.01, 344.19, 566.94, 33.6216403, 72.955686, 0.990507, 9.779152E-05, 7.82448E-05, -0.1374622
 1224157641, 0, 0, 344.2, 567.2, 33.6216403, 72.955686, 0.9905097, 8.02429E-05, 6.101347E-05, -0.1374429
 1224257601, 0, 0.01, 344.2, 567.45, 33.6216403, 72.9556859, 0.9905102, 9.115352E-05, 9.947461E-05, -0.1374396
 1224357561, 0.02, 0.02, 344.2, 567.7, 33.6216403, 72.9556859, 0.9905101, 0.0002378835, 0.0002049842, -0.1374398
 1224457521, 0.03, 0.02, 344.2, 567.95, 33.6216403, 72.9556858, 0.9905106, 0.0003008884, 0.0002109278, -0.1374356
 1224557481, 0.05, 0.03, 344.2, 568.21, 33.6216403, 72.9556858, 0.9905116, 0.0004757622, 0.0002314616, -0.1374283
 1224657441, 0.05, 0.03, 344.2, 568.47, 33.6216403, 72.9556858, 0.9905148, 0.0004961122, 0.0002236365, -0.1374049
 1224758234, 0.07, 0.03, 344.2, 568.72, 33.6216403, 72.9556858, 0.9905186, 0.0006996326, 0.0002280524, -0.1373769
 1224858194, 0.07, 0.03, 344.21, 568.97, 33.6216404, 72.9556858, 0.9905233, 0.000725932, 0.000241898, -0.1373424
 1224958154, 0.08, 0.04, 344.21, 569.22, 33.6216404, 72.9556858, 0.9905298, 0.0008041192, 0.0002791317, -0.137295
 1225058114, 0.08, 0.04, 344.22, 569.47, 33.6216405, 72.9556858, 0.9905363, 0.0008219295, 0.0003077112, -0.1372481
 1225158074, 0.09, 0.07, 344.22, 569.73, 33.6216405, 72.9556858, 0.9905419, 0.000890012, 0.0005204627, -0.1372068
 1225258034, 0.08, 0.07, 344.23, 569.98, 33.6216405, 72.9556858, 0.9905472, 0.0008566165, 0.0005782117, -0.1371686
 1225357994, 0.08, 0.09, 344.23, 570.22, 33.6216405, 72.9556858, 0.9905524, 0.0008554181, 0.0006838297, -0.1371299
 1225457954, 0.08, 0.09, 344.24, 570.47, 33.6216405, 72.9556858, 0.9905569, 0.0008386902, 0.0007121461, -0.1370977
 1225557914, 0.08, 0.09, 344.24, 570.72, 33.6216405, 72.9556858, 0.9905604, 0.0008361744, 0.0007643217, -0.1370723
 1225657874, 0.07, 0.1, 344.24, 570.97, 33.6216405, 72.9556858, 0.9905601, 0.000781464, 0.0007757765, -0.1370752
 1225757834, 0.07, 0.09, 344.24, 571.23, 33.6216405, 72.9556858, 0.9905581, 0.0007736341, 0.0007726689, -0.1370893
 1225857794, 0.07, 0.09, 344.24, 571.47, 33.6216405, 72.9556858, 0.9905584, 0.0007334313, 0.0007774179, -0.1370872
 1225957754, 0.07, 0.09, 344.24, 571.73, 33.6216405, 72.9556858, 0.9905603, 0.0007375319, 0.0007433535, -0.1370737
 1226057714, 0.06, 0.09, 344.24, 571.98, 33.6216405, 72.9556858, 0.9905634, 0.0006934342, 0.0007524847, -0.1370513
 1226157674, 0.06, 0.09, 344.24, 572.24, 33.6216405, 72.9556858, 0.9905677, 0.0006657295, 0.0007257632, -0.1370206
 1226257634, 0.06, 0.09, 344.25, 572.49, 33.6216405, 72.9556858, 0.9905721, 0.0006706673, 0.0007247238, -0.1369889
 1226357594, 0.06, 0.09, 344.25, 572.74, 33.6216405, 72.9556858, 0.9905772, 0.0006681903, 0.0007029767, -0.1369517
 1226457554, 0.05, 0.08, 344.26, 572.99, 33.6216405, 72.9556858, 0.9905826, 0.0006203285, 0.0006795465, -0.1369137
 1226557514, 0.06, 0.08, 344.26, 573.23, 33.6216405, 72.9556858, 0.9905876, 0.000647612, 0.000700218, -0.1368769
 1226657474, 0.05, 0.07, 344.27, 573.49, 33.6216405, 72.9556858, 0.9905933, 0.0005943811, 0.0005902491, -0.1368362
 1226757434, 0.05, 0.07, 344.27, 573.73, 33.6216405, 72.9556858, 0.9905981, 0.0005917643, 0.0005787098, -0.1368012
 1226858227, 0.05, 0.06, 344.27, 573.98, 33.6216405, 72.9556858, 0.9906031, 0.0005742577, 0.0005268022, -0.1367657
 1226958187, 0.06, 0.06, 344.28, 574.23, 33.6216405, 72.9556858, 0.9906077, 0.0006305301, 0.0004509935, -0.1367327
 1227058147, 0.07, 0.05, 344.28, 574.48, 33.6216405, 72.9556858, 0.9906118, 0.0006834338, 0.0003823223, -0.1367028
 1227158107, 0.07, 0.04, 344.28, 574.74, 33.6216405, 72.9556858, 0.9906161, 0.0007318479, 0.0003192641, -0.1366714
 1227258067, 0.07, 0.04, 344.29, 574.99, 33.6216405, 72.9556858, 0.990621, 0.0006986788, 0.000335248, -0.1366359
 1227358027, 0.07, 0.05, 344.29, 575.23, 33.6216405, 72.9556858, 0.9906259, 0.0006741813, 0.0003772526, -0.1366009
 1227457987, 0.06, 0.05, 344.29, 575.49, 33.6216405, 72.9556858, 0.9906269, 0.0005959661, 0.000421468, -0.136594
 1227557947, 0.04, 0.05, 344.29, 575.74, 33.6216405, 72.9556858, 0.9906259, 0.0004615205, 0.0003822501, -0.1366018
 1227657907, 0.03, 0.04, 344.29, 575.99, 33.6216405, 72.9556859, 0.9906247, 0.0003431135, 0.0003908247, -0.136611
 1227757867, 0.02, 0.04, 344.29, 576.24, 33.6216405, 72.9556859, 0.990624, 0.0002803192, 0.0003908191, -0.1366165
 1227857827, 0.03, 0.05, 344.29, 576.48, 33.6216405, 72.955686, 0.990623, 0.0003301833, 0.0004307512, -0.1366226
 1227957787, 0.03, 0.06, 344.29, 576.73, 33.6216405, 72.955686, 0.9906227, 0.0003919453, 0.0005001852, -0.1366244
 1228057747, 0.04, 0.06, 344.29, 576.98, 33.6216405, 72.955686, 0.9906229, 0.0004248813, 0.0004833515, -0.1366228
 1228157707, 0.04, 0.06, 344.29, 577.22, 33.6216405, 72.955686, 0.990624, 0.0004467836, 0.0004818949, -0.1366155
 1228257667, 0.03, 0.06, 344.29, 577.48, 33.6216404, 72.955686, 0.9906253, 0.0003559685, 0.0004846355, -0.1366062
 1228357627, 0.01, 0.05, 344.29, 577.74, 33.6216404, 72.955686, 0.9906263, 0.0002122638, 0.0004232991, -0.1365987
 1228457587, 0.01, 0.03, 344.29, 577.99, 33.6216403, 72.955686, 0.9906274, 0.0001704127, 0.0002673789, -0.1365916
 1228557547, 0.02, 0.02, 344.29, 578.24, 33.6216403, 72.955686, 0.990629, 0.0002468019, 0.0001805112, -0.1365804
 1228657507, 0.03, 0.01, 344.3, 578.49, 33.6216403, 72.955686, 0.9906319, 0.0003059872, 7.614765E-05, -0.1365593
 1228757467, 0.02, 0.01, 344.3, 578.75, 33.6216403, 72.955686, 0.9906342, 0.0002522932, 0.0001007198, -0.1365422
 1228857427, 0.03, 0, 344.3, 579.01, 33.6216403, 72.955686, 0.9906372, 0.0002685297, -4.935052E-05, -0.1365211
 1228958220, 0.04, 0, 344.3, 579.26, 33.6216403, 72.955686, 0.9906404, 0.0003437149, -0.0001271776, -0.1364971
 1229058180, 0.04, -0.01, 344.31, 579.52, 33.6216403, 72.955686, 0.9906435, 0.0004048346, -0.0002042906, -0.1364744
 1229158140, 0.05, -0.01, 344.31, 579.77, 33.6216403, 72.955686, 0.9906459, 0.0004435462, -0.0002194526, -0.1364565
 1229258100, 0.05, -0.01, 344.31, 580.02, 33.6216403, 72.955686, 0.9906475, 0.000443282, -0.0002277803, -0.1364451
 1229358060, 0.05, -0.01, 344.31, 580.28, 33.6216403, 72.955686, 0.9906489, 0.0004915785, -0.0002310817, -0.1364344
 1229458020, 0.05, -0.01, 344.31, 580.53, 33.6216403, 72.955686, 0.9906506, 0.000476244, -0.0001865782, -0.1364227
 1229557980, 0.06, 0, 344.31, 580.78, 33.6216403, 72.955686, 0.9906524, 0.0005086692, -0.0001568565, -0.1364097
 1229657940, 0.06, 0, 344.32, 581.03, 33.6216403, 72.955686, 0.9906536, 0.0005782159, -0.0001584934, -0.1364005
 1229757900, 0.07, 0, 344.32, 581.28, 33.6216403, 72.955686, 0.9906548, 0.0006279032, -3.968771E-05, -0.1363916
 1229857860, 0.06, 0, 344.32, 581.53, 33.6216403, 72.955686, 0.9906553, 0.0005781727, -5.392478E-05, -0.1363883
 1229957820, 0.06, 0, 344.32, 581.77, 33.6216403, 72.955686, 0.9906551, 0.000543213, -7.10352E-05, -0.13639
 1230057780, 0.05, 0, 344.32, 582.03, 33.6216403, 72.955686, 0.9906545, 0.0005214505, -2.247344E-05, -0.1363942
 1230157740, 0.06, 0.02, 344.32, 582.28, 33.6216403, 72.955686, 0.9906545, 0.000551897, 0.0001556481, -0.1363938
 1230257700, 0.05, 0.03, 344.32, 582.53, 33.6216403, 72.955686, 0.9906549, 0.0005435738, 0.0002048487, -0.1363909
 1230357660, 0.05, 0.03, 344.32, 582.78, 33.6216403, 72.955686, 0.9906563, 0.000502897, 0.0002079721, -0.1363812
 1230457620, 0.05, 0.03, 344.32, 583.02, 33.6216403, 72.955686, 0.9906591, 0.0004968003, 0.0002193458, -0.1363609
 1230557580, 0.05, 0.04, 344.32, 583.28, 33.6216403, 72.955686, 0.9906625, 0.0005019373, 0.0002953962, -0.1363357
 1230657540, 0.05, 0.03, 344.33, 583.53, 33.6216403, 72.955686, 0.9906693, 0.0005274708, 0.0002760886, -0.1362869
 1230757500, 0.05, 0.04, 344.34, 583.78, 33.6216403, 72.955686, 0.9906808, 0.0005190294, 0.0002961757, -0.1362028
 1230857460, 0.04, 0.04, 344.35, 584.03, 33.6216403, 72.955686, 0.9906921, 0.0004514629, 0.0003598832, -0.1361206
 1230957420, 0.04, 0.05, 344.36, 584.28, 33.6216403, 72.955686, 0.9907023, 0.0004748103, 0.0004559293, -0.1360463
 1231058213, 0.04, 0.06, 344.36, 584.52, 33.6216403, 72.955686, 0.9907088, 0.0004761535, 0.0004840945, -0.1359986
 1231158173, 0.05, 0.05, 344.37, 584.77, 33.6216403, 72.955686, 0.9907138, 0.0005098804, 0.0004279989, -0.1359625
 1231258133, 0.05, 0.05, 344.37, 585.03, 33.6216403, 72.955686, 0.9907164, 0.0005198659, 0.0003699989, -0.1359435
 1231358093, 0.05, 0.04, 344.37, 585.28, 33.6216403, 72.955686, 0.9907148, 0.0005522146, 0.0003424563, -0.1359549
 1231458053, 0.06, 0.04, 344.36, 585.52, 33.6216403, 72.955686, 0.9907115, 0.0005740587, 0.0002982646, -0.1359795
 1231558013, 0.05, 0.04, 344.36, 585.78, 33.6216403, 72.955686, 0.9907072, 0.0005654799, 0.0002936538, -0.1360105
 1231657973, 0.06, 0.04, 344.36, 586.02, 33.6216403, 72.955686, 0.9907024, 0.0005939551, 0.0002898346, -0.1360455
 1231757933, 0.06, 0.03, 344.35, 586.28, 33.6216403, 72.955686, 0.9906979, 0.0006102805, 0.0002579401, -0.1360782
 1231857893, 0.06, 0.03, 344.35, 586.52, 33.6216403, 72.955686, 0.9906968, 0.0006210617, 0.0002116519, -0.1360862
 1231957853, 0.06, 0.03, 344.36, 586.77, 33.6216403, 72.955686, 0.9907004, 0.0006290041, 0.0002050349, -0.1360603
 1232057813, 0.06, 0.03, 344.36, 587.02, 33.6216403, 72.955686, 0.9907049, 0.000609016, 0.0001998933, -0.1360271
 1232157773, 0.06, 0.03, 344.36, 587.26, 33.6216403, 72.955686, 0.9907096, 0.0006242614, 0.0001915449, -0.1359932
 1232257733, 0.07, 0.03, 344.37, 587.51, 33.6216403, 72.955686, 0.9907137, 0.0006683095, 0.000243877, -0.1359628
 1232357693, 0.07, 0.04, 344.37, 587.76, 33.6216403, 72.955686, 0.9907172, 0.0006905328, 0.0002904328, -0.135937
 1232457653, 0.07, 0.04, 344.37, 588, 33.6216403, 72.955686, 0.99072, 0.000678758, 0.0002661905, -0.135917
 1232557613, 0.07, 0.04, 344.37, 588.26, 33.6216403, 72.955686, 0.9907221, 0.0006946201, 0.0002584765, -0.1359013
 1232657573, 0.07, 0.04, 344.37, 588.51, 33.6216403, 72.955686, 0.9907234, 0.0007015657, 0.0002709642, -0.1358918
 1232757533, 0.07, 0.04, 344.37, 588.75, 33.6216403, 72.955686, 0.9907225, 0.0006883226, 0.0002996684, -0.1358982
 1232857493, 0.07, 0.04, 344.37, 589.01, 33.6216403, 72.9556859, 0.9907173, 0.0006932293, 0.0003413521, -0.1359364
 1232957453, 0.07, 0.05, 344.36, 589.26, 33.6216403, 72.9556859, 0.9907104, 0.0006756707, 0.0003511629, -0.1359863
 1233057413, 0.07, 0.04, 344.36, 589.5, 33.6216403, 72.9556858, 0.9907068, 0.0007144057, 0.0003100207, -0.1360124
 1233158206, 0.08, 0.05, 344.36, 589.75, 33.6216403, 72.9556858, 0.9907069, 0.0008301574, 0.000368281, -0.1360117
 1233258166, 0.09, 0.05, 344.36, 590, 33.6216403, 72.9556858, 0.9907082, 0.0008448754, 0.0003701692, -0.1360018
 1233358126, 0.1, 0.05, 344.36, 590.24, 33.6216403, 72.9556858, 0.9907106, 0.0009629715, 0.0003960344, -0.135983
 1233458086, 0.1, 0.05, 344.37, 590.49, 33.6216404, 72.9556858, 0.9907135, 0.0009914968, 0.000338851, -0.1359621
 1233558046, 0.11, 0.06, 344.37, 590.74, 33.6216404, 72.9556858, 0.9907168, 0.001041333, 0.0004447094, -0.1359376
 1233658006, 0.11, 0.08, 344.37, 590.98, 33.6216405, 72.9556858, 0.9907205, 0.001070741, 0.0005625685, -0.1359097
 1233757966, 0.1, 0.09, 344.38, 591.24, 33.6216405, 72.9556858, 0.9907258, 0.001057019, 0.0007322993, -0.1358701
 1233857926, 0.1, 0.1, 344.38, 591.48, 33.6216405, 72.9556858, 0.9907334, 0.0009879038, 0.0007536212, -0.1358152
 1233957886, 0.1, 0.11, 344.39, 591.73, 33.6216405, 72.9556858, 0.990742, 0.001001754, 0.000869453, -0.1357517
 1234057846, 0.09, 0.11, 344.4, 591.98, 33.6216405, 72.9556858, 0.9907514, 0.0009712378, 0.0008544709, -0.1356833
 1234157806, 0.09, 0.11, 344.41, 592.22, 33.6216405, 72.9556858, 0.9907596, 0.0009511489, 0.0008892246, -0.1356236
 1234257766, 0.08, 0.11, 344.41, 592.48, 33.6216405, 72.9556858, 0.9907654, 0.0009113916, 0.0008888643, -0.1355815
 1234357726, 0.08, 0.11, 344.41, 592.73, 33.6216405, 72.9556858, 0.9907691, 0.0008877206, 0.000878948, -0.1355545
 1234457686, 0.08, 0.11, 344.41, 592.98, 33.6216405, 72.9556858, 0.9907701, 0.0008897643, 0.0008888008, -0.1355469
 1234557646, 0.08, 0.11, 344.41, 593.23, 33.6216405, 72.9556858, 0.9907695, 0.0008807785, 0.0008726547, -0.1355516
 1234657606, 0.08, 0.11, 344.41, 593.47, 33.6216405, 72.9556858, 0.9907675, 0.0008786563, 0.0008670219, -0.1355662
 1234757566, 0.08, 0.11, 344.41, 593.72, 33.6216405, 72.9556858, 0.9907623, 0.000889439, 0.0008675762, -0.1356042
 1234857526, 0.08, 0.1, 344.4, 593.98, 33.6216405, 72.9556858, 0.9907568, 0.0008805702, 0.0008355496, -0.1356446
 1234957486, 0.08, 0.1, 344.4, 594.23, 33.6216405, 72.9556858, 0.9907514, 0.0008498221, 0.0008189476, -0.1356843
 1235057446, 0.08, 0.1, 344.39, 594.48, 33.6216405, 72.9556858, 0.9907463, 0.0008248121, 0.000795228, -0.1357221
 1235158239, 0.08, 0.09, 344.39, 594.73, 33.6216405, 72.9556858, 0.9907431, 0.0008452173, 0.0007322968, -0.1357456
 1235258199, 0.08, 0.09, 344.39, 594.97, 33.6216405, 72.9556858, 0.9907389, 0.0008010549, 0.0006958575, -0.1357767
 1235358159, 0.06, 0.08, 344.38, 595.22, 33.6216405, 72.9556858, 0.9907342, 0.0006956318, 0.0006223444, -0.1358117
 1235458119, 0.05, 0.07, 344.38, 595.48, 33.6216405, 72.9556858, 0.9907297, 0.0005964225, 0.0005498601, -0.1358451
 1235558079, 0.07, 0.08, 344.38, 595.73, 33.6216405, 72.9556858, 0.9907253, 0.000717224, 0.0006163969, -0.1358768
 1235658039, 0.08, 0.09, 344.38, 595.98, 33.6216405, 72.9556858, 0.9907255, 0.0008177861, 0.0007166142, -0.1358747
 1235757999, 0.08, 0.1, 344.38, 596.22, 33.6216405, 72.9556858, 0.9907303, 0.0008606355, 0.0008179775, -0.1358382
 1235857959, 0.08, 0.1, 344.39, 596.47, 33.6216405, 72.9556858, 0.9907392, 0.0008715125, 0.0007827323, -0.1357739
 1235957919, 0.08, 0.1, 344.4, 596.72, 33.6216405, 72.9556858, 0.9907489, 0.0008936632, 0.0008042611, -0.1357027
 1236057879, 0.08, 0.08, 344.4, 596.97, 33.6216405, 72.9556858, 0.9907581, 0.0008735416, 0.0006486971, -0.1356367
 1236157839, 0.08, 0.09, 344.41, 597.22, 33.6216405, 72.9556858, 0.990766, 0.0008782335, 0.0006986585, -0.1355782
 1236257799, 0.08, 0.08, 344.42, 597.47, 33.6216405, 72.9556858, 0.9907736, 0.0008708623, 0.0006304523, -0.1355234
 1236357759, 0.08, 0.07, 344.42, 597.71, 33.6216405, 72.9556858, 0.9907807, 0.0008526726, 0.0005002016, -0.1354715
 1236457719, 0.08, 0.05, 344.43, 597.97, 33.6216405, 72.9556858, 0.9907883, 0.0008369794, 0.0003769445, -0.1354172
 1236557679, 0.08, 0.04, 344.44, 598.22, 33.6216405, 72.9556858, 0.9907956, 0.0008220882, 0.0002630753, -0.1353637
 1236657639, 0.08, 0.03, 344.44, 598.48, 33.6216405, 72.9556858, 0.9908023, 0.0007931537, 0.0001632014, -0.135315
 1236757599, 0.08, 0.05, 344.44, 598.72, 33.6216405, 72.9556858, 0.9908053, 0.0008359118, 0.0003440754, -0.1352929
 1236857559, 0.08, 0.07, 344.45, 598.97, 33.6216405, 72.9556858, 0.9908071, 0.0008138361, 0.0005259901, -0.1352793
 1236957519, 0.07, 0.09, 344.45, 599.22, 33.6216405, 72.9556858, 0.9908088, 0.0007921769, 0.0006955464, -0.1352656
 1237057479, 0.07, 0.09, 344.45, 599.47, 33.6216405, 72.9556858, 0.99081, 0.000762968, 0.0007717934, -0.1352565
 1237157439, 0.07, 0.1, 344.45, 599.71, 33.6216405, 72.9556858, 0.9908096, 0.0007294922, 0.0007958514, -0.1352593
 1237258232, 0.06, 0.1, 344.45, 599.96, 33.6216405, 72.9556858, 0.9908091, 0.0006939205, 0.0007903486, -0.1352635
 1237358192, 0.08, 0.09, 344.45, 600.21, 33.6216405, 72.9556858, 0.990807, 0.0008214002, 0.0007355977, -0.1352787
 1237458152, 0.08, 0.09, 344.44, 600.47, 33.6216405, 72.9556859, 0.9908021, 0.0008632794, 0.0006904192, -0.1353145
 1237558112, 0.08, 0.08, 344.44, 600.71, 33.6216405, 72.9556859, 0.9907966, 0.0008582653, 0.0006462312, -0.1353551
 1237658072, 0.08, 0.07, 344.43, 600.96, 33.6216405, 72.955686, 0.9907911, 0.0008481983, 0.000544298, -0.1353955
 1237758032, 0.08, 0.06, 344.43, 601.21, 33.6216405, 72.955686, 0.9907852, 0.0008373422, 0.0004357152, -0.1354393
 1237857992, 0.07, 0.04, 344.42, 601.45, 33.6216404, 72.955686, 0.9907768, 0.0006963326, 0.0003378992, -0.1355016
 1237957952, 0.07, 0.04, 344.41, 601.71, 33.6216404, 72.955686, 0.9907635, 0.000683844, 0.0003012645, -0.1355991
 1238057912, 0.05, 0.03, 344.4, 601.96, 33.6216403, 72.955686, 0.9907492, 0.0005066576, 0.0002214576, -0.1357048
 1238157872, 0.04, 0.02, 344.39, 602.2, 33.6216403, 72.955686, 0.9907365, 0.0004464332, 0.000177616, -0.1357974
 1238257832, 0.04, 0.01, 344.38, 602.45, 33.6216403, 72.955686, 0.9907246, 0.000396464, 0.000102274, -0.1358846
 1238357792, 0.04, 0.01, 344.37, 602.69, 33.6216403, 72.955686, 0.9907132, 0.0004080683, 9.362576E-05, -0.1359674
 1238457752, 0.04, 0, 344.36, 602.93, 33.6216403, 72.955686, 0.9907039, 0.0004010352, 2.965071E-05, -0.1360356
 1238557712, 0.05, 0, 344.35, 603.18, 33.6216403, 72.955686, 0.9906979, 0.0004863456, -1.183155E-06, -0.1360793
 1238657672, 0.06, 0, 344.35, 603.41, 33.6216403, 72.955686, 0.9906942, 0.0005339368, 1.370293E-05, -0.1361055
 1238757632, 0.05, 0, 344.35, 603.63, 33.6216403, 72.955686, 0.9906939, 0.0005065485, -1.555025E-05, -0.1361078
 1238857592, 0.06, 0.01, 344.35, 603.85, 33.6216403, 72.955686, 0.9906963, 0.00054473, 3.388181E-05, -0.1360901
 1238957552, 0.06, 0.02, 344.36, 604.07, 33.6216403, 72.955686, 0.9907007, 0.0006177711, 0.0001393619, -0.1360578
 1239057512, 0.07, 0.03, 344.36, 604.27, 33.6216403, 72.955686, 0.9907071, 0.0006711739, 0.0002548017, -0.1360107
 1239157472, 0.07, 0.04, 344.37, 604.49, 33.6216403, 72.955686, 0.9907154, 0.0006809697, 0.0003238474, -0.1359497
 1239257432, 0.06, 0.04, 344.38, 604.68, 33.6216403, 72.955686, 0.9907239, 0.0006507744, 0.0003255781, -0.1358885
 1239358225, 0.06, 0.04, 344.38, 604.88, 33.6216403, 72.955686, 0.9907323, 0.0006216738, 0.000325473, -0.1358271
 1239458185, 0.05, 0.04, 344.39, 605.05, 33.6216403, 72.955686, 0.9907399, 0.0005642266, 0.0003103571, -0.1357717
 1239558145, 0.06, 0.04, 344.4, 605.24, 33.6216403, 72.955686, 0.9907477, 0.0006151656, 0.0002942806, -0.1357149
 1239658105, 0.07, 0.03, 344.4, 605.41, 33.6216403, 72.955686, 0.9907541, 0.0006510314, 0.0002443262, -0.1356678
 1239758065, 0.08, 0.04, 344.41, 605.58, 33.6216403, 72.955686, 0.9907596, 0.0007453136, 0.0002675807, -0.1356274
 1239858025, 0.08, 0.05, 344.41, 605.74, 33.6216403, 72.955686, 0.9907647, 0.0007935563, 0.0003383872, -0.1355896
 1239957985, 0.08, 0.04, 344.41, 605.9, 33.6216403, 72.955686, 0.990768, 0.0008269988, 0.0003070691, -0.1355654
 1240057945, 0.09, 0.03, 344.41, 606.05, 33.6216403, 72.955686, 0.9907699, 0.0008707375, 0.0001967504, -0.1355516
 1240157905, 0.09, 0.03, 344.41, 606.19, 33.6216403, 72.955686, 0.9907703, 0.0008633284, 0.0001936533, -0.1355481
 1240257865, 0.09, 0.03, 344.41, 606.34, 33.6216403, 72.955686, 0.9907686, 0.0008304202, 0.0001846245, -0.1355611
 1240357825, 0.09, 0.04, 344.41, 606.48, 33.6216403, 72.955686, 0.9907633, 0.0008936544, 0.0002335748, -0.1355996
 1240457785, 0.09, 0.04, 344.4, 606.6, 33.6216403, 72.955686, 0.9907556, 0.000879896, 0.0002347964, -0.1356563
 1240557745, 0.09, 0.05, 344.4, 606.73, 33.6216403, 72.955686, 0.9907474, 0.0008471211, 0.0003278549, -0.1357158
 1240657705, 0.08, 0.05, 344.39, 606.84, 33.6216403, 72.955686, 0.9907394, 0.000785453, 0.0003878341, -0.1357745
 1240757665, 0.07, 0.06, 344.38, 606.96, 33.6216403, 72.955686, 0.9907312, 0.0007549047, 0.0004276216, -0.1358338
 1240857625, 0.07, 0.06, 344.38, 607.08, 33.6216403, 72.955686, 0.9907241, 0.0007231879, 0.0004496743, -0.1358857
 1240957585, 0.07, 0.06, 344.37, 607.17, 33.6216403, 72.955686, 0.9907178, 0.0006922623, 0.0004774368, -0.1359322
 1241057545, 0.06, 0.05, 344.37, 607.28, 33.6216403, 72.955686, 0.9907125, 0.0006525667, 0.0004230839, -0.1359716
 1241157505, 0.07, 0.06, 344.36, 607.37, 33.6216403, 72.955686, 0.9907087, 0.0006795739, 0.0004451825, -0.1359987
 1241257465, 0.06, 0.05, 344.36, 607.45, 33.6216403, 72.955686, 0.9907075, 0.0006162128, 0.0004203637, -0.136008
 1241357425, 0.06, 0.06, 344.36, 607.54, 33.6216403, 72.955686, 0.9907084, 0.0006637835, 0.0004938062, -0.1360008
 1241458218, 0.06, 0.07, 344.36, 607.61, 33.6216403, 72.9556859, 0.9907109, 0.0006769813, 0.0005581417, -0.1359826
 1241558178, 0.06, 0.08, 344.37, 607.67, 33.6216403, 72.9556859, 0.990714, 0.0007006111, 0.0006169627, -0.1359591
 1241658138, 0.07, 0.08, 344.37, 607.74, 33.6216403, 72.9556858, 0.990719, 0.000788174, 0.000642007, -0.1359216
 1241758098, 0.1, 0.07, 344.38, 607.8, 33.6216403, 72.9556858, 0.9907247, 0.001011858, 0.0005415317, -0.1358791
 1241858058, 0.11, 0.06, 344.38, 607.85, 33.6216403, 72.9556858, 0.9907311, 0.001042343, 0.0004424362, -0.1358333
 1241958018, 0.12, 0.07, 344.39, 607.89, 33.6216403, 72.9556858, 0.9907368, 0.001187795, 0.0004794482, -0.1357902
 1242057978, 0.13, 0.07, 344.39, 607.94, 33.6216404, 72.9556858, 0.9907421, 0.001283847, 0.0005246985, -0.1357499
 1242157938, 0.13, 0.08, 344.4, 607.97, 33.6216404, 72.9556858, 0.9907473, 0.001302334, 0.0005750126, -0.1357124
 1242257898, 0.13, 0.08, 344.4, 608, 33.6216405, 72.9556858, 0.9907517, 0.001299814, 0.0005693998, -0.1356798
 1242357858, 0.15, 0.1, 344.4, 608.01, 33.6216405, 72.9556858, 0.9907544, 0.001473916, 0.0007221136, -0.1356578
 1242457818, 0.17, 0.09, 344.4, 608.02, 33.6216405, 72.9556858, 0.9907569, 0.001590453, 0.0006157257, -0.1356389
 1242557778, 0.24, -0.06, 344.4, 608.02, 33.6216405, 72.9556858, 0.9907567, 0.002051825, -0.0008559164, -0.1356325
 1242657738, 0.4, -0.45, 344.4, 608.02, 33.6216405, 72.9556858, 0.9907446, 0.0029912, -0.004398046, -0.1356347
 1242757698, 0.63, -0.97, 344.4, 608.01, 33.6216405, 72.9556858, 0.9907056, 0.004367062, -0.009188812, -0.1356425
 1242857658, 0.87, -1.54, 344.39, 608, 33.6216405, 72.9556858, 0.9906355, 0.00577566, -0.01439509, -0.135649
 1242957618, 1.11, -2.08, 344.38, 607.99, 33.6216405, 72.9556858, 0.9905412, 0.007205331, -0.01936219, -0.1356513
 1243057578, 1.33, -2.59, 344.37, 607.99, 33.6216406, 72.9556858, 0.9904286, 0.008483041, -0.02405701, -0.1356487
 1243157538, 1.55, -3.07, 344.36, 607.98, 33.6216406, 72.9556858, 0.9903032, 0.009750494, -0.02842482, -0.1356339
 1243257498, 1.74, -3.54, 344.34, 607.99, 33.6216409, 72.9556858, 0.9901631, 0.01087671, -0.03267856, -0.1356126
 1243357458, 1.95, -3.97, 344.33, 607.99, 33.621641, 72.9556858, 0.990013, 0.01213538, -0.03669292, -0.1355754
 1243457418, 2.14, -4.41, 344.32, 608, 33.6216415, 72.9556859, 0.9898494, 0.0132571, -0.04067094, -0.1355293
 1243558211, 2.35, -4.84, 344.31, 608.02, 33.6216417, 72.955686, 0.9896696, 0.01454378, -0.04465433, -0.1354571
 1243658171, 2.54, -5.28, 344.31, 608.04, 33.6216423, 72.9556861, 0.9894893, 0.01565161, -0.04872711, -0.1352463
 1243758131, 2.73, -5.75, 344.51, 608.06, 33.6216427, 72.9556861, 0.9895105, 0.01684819, -0.05296011, -0.1333431
 1243858091, 2.85, -6.27, 345.33, 608.1, 33.6216435, 72.9556863, 0.9901989, 0.01768458, -0.05743709, -0.1260732
 1243958051, 2.84, -6.84, 347.19, 608.14, 33.621644, 72.9556864, 0.9918528, 0.01799595, -0.06206417, -0.1097826
 1244058011, 2.65, -7.47, 350.22, 608.19, 33.621645, 72.9556866, 0.9941085, 0.0174787, -0.06691795, -0.08345542
 1244157971, 2.28, -8.16, 354.18, 608.24, 33.6216457, 72.9556867, 0.996054, 0.01622526, -0.07208309, -0.04916509
 1244257931, 1.72, -8.85, 358.72, 608.3, 33.621647, 72.955687, 0.9968541, 0.01417127, -0.07734908, -0.009911502
 1244357891, 1.05, -9.54, 3.49, 608.38, 33.6216479, 72.9556871, 0.996008, 0.01171312, -0.08283911, 0.03112139
 1244457851, 0.28, -10.19, 8.2, 608.45, 33.6216494, 72.9556874, 0.9934778, 0.008815405, -0.08840762, 0.07147218
 1244557811, -0.51, -10.79, 12.57, 608.54, 33.6216505, 72.9556876, 0.9896145, 0.005833939, -0.09400592, 0.1085908
 1244657771, -1.29, -11.35, 16.33, 608.64, 33.6216524, 72.955688, 0.9850976, 0.002915957, -0.09952803, 0.1402438
 1244757731, -1.97, -11.86, 19.28, 608.74, 33.6216538, 72.9556883, 0.9807426, 0.0004512298, -0.1047653, 0.164827
 1244857691, -2.48, -12.26, 21.31, 608.85, 33.6216559, 72.9556887, 0.9773329, -0.001480142, -0.1089191, 0.1815344
 1244957651, -2.79, -12.52, 22.39, 608.97, 33.6216576, 72.955689, 0.9753376, -0.002607629, -0.1116496, 0.1903791
 1245057611, -2.89, -12.72, 22.58, 609.11, 33.6216601, 72.9556894, 0.9748271, -0.0029378, -0.1136015, 0.1918287
 1245157571, -2.79, -12.89, 21.97, 609.25, 33.6216621, 72.9556898, 0.9756813, -0.002352257, -0.1148519, 0.18668
 1245257531, -2.49, -12.94, 20.67, 609.41, 33.621665, 72.9556903, 0.9776982, -0.001049208, -0.1147856, 0.1758675
 1245357491, -2.04, -12.88, 18.81, 609.56, 33.6216673, 72.9556907, 0.9804897, 0.0008757953, -0.1135419, 0.1604601
 1245457451, -1.5, -12.74, 16.56, 609.74, 33.6216704, 72.9556913, 0.9835838, 0.003067132, -0.1117297, 0.1416683
 1245557411, -0.93, -12.62, 14.03, 609.92, 33.6216729, 72.9556918, 0.9865675, 0.005416754, -0.11007, 0.1205811
 1245658204, -0.35, -12.47, 11.4, 610.11, 33.6216763, 72.9556924, 0.9891908, 0.007716045, -0.1084238, 0.0984192
 1245758164, 0.16, -12.37, 8.89, 610.3, 33.6216792, 72.9556929, 0.9911691, 0.009793886, -0.107331, 0.07725209
 1245858124, 0.6, -12.29, 6.65, 610.5, 33.6216827, 72.9556936, 0.9925262, 0.01147765, -0.1066079, 0.05826461
 1245958084, 0.95, -12.21, 4.78, 610.71, 33.6216857, 72.9556941, 0.993381, 0.01273051, -0.1059815, 0.04242727
 1246058044, 1.17, -12.1, 3.4, 610.92, 33.6216894, 72.9556948, 0.9939023, 0.01336428, -0.105081, 0.03062073
 1246158004, 1.3, -11.98, 2.54, 611.14, 33.6216927, 72.9556954, 0.9941985, 0.0136396, -0.1041142, 0.02331298
 1246257964, 1.3, -11.88, 2.23, 611.36, 33.6216965, 72.9556961, 0.9943506, 0.01335445, -0.1032777, 0.02054651
 1246357924, 1.2, -11.74, 2.42, 611.6, 33.6217, 72.9556967, 0.9944521, 0.01265655, -0.1020634, 0.02209218
 1246457884, 1.03, -11.64, 3.05, 611.83, 33.6217039, 72.9556974, 0.9944232, 0.01165437, -0.1011689, 0.0274154
 1246557844, 0.79, -11.53, 4.04, 612.07, 33.6217075, 72.9556981, 0.9942713, 0.01046334, -0.1001583, 0.03582364
 1246657804, 0.52, -11.41, 5.3, 612.31, 33.6217115, 72.9556989, 0.9939459, 0.009163192, -0.09913377, 0.04647658
 1246757764, 0.24, -11.26, 6.7, 612.55, 33.6217153, 72.9556996, 0.9934557, 0.007856305, -0.09781937, 0.05844105
 1246857724, -0.02, -11.09, 8.15, 612.8, 33.6217193, 72.9557003, 0.9927999, 0.006614499, -0.09641872, 0.07076703
 1246957684, -0.26, -10.88, 9.54, 613.05, 33.6217232, 72.955701, 0.9920577, 0.005560335, -0.09469474, 0.08260488
 1247057644, -0.46, -10.65, 10.78, 613.3, 33.6217274, 72.9557018, 0.9912977, 0.004735509, -0.0928387, 0.09320665
 1247157604, -0.59, -10.41, 11.8, 613.55, 33.6217313, 72.9557025, 0.9906249, 0.004198458, -0.09080648, 0.1019749
 1247257564, -0.67, -10.15, 12.56, 613.8, 33.6217355, 72.9557032, 0.9901371, 0.003865782, -0.08857101, 0.1084837
 1247357524, -0.68, -9.85, 13.03, 614.05, 33.6217395, 72.9557039, 0.9899113, 0.003860575, -0.08599013, 0.1125456
 1247457484, -0.65, -9.68, 13.2, 614.3, 33.6217437, 72.9557047, 0.9898604, 0.004022671, -0.08451697, 0.1140924
 1247557444, -0.6, -9.66, 13.1, 614.55, 33.6217477, 72.9557054, 0.9899784, 0.004390363, -0.08425492, 0.1132463
 1247658237, -0.53, -9.77, 12.75, 614.8, 33.6217519, 72.9557061, 0.9902321, 0.004874582, -0.08521864, 0.1102469
 1247758197, -0.41, -9.9, 12.19, 615.05, 33.621756, 72.9557068, 0.9906561, 0.005540669, -0.08619715, 0.1055458
 1247858157, -0.29, -10.07, 11.5, 615.31, 33.6217602, 72.9557075, 0.991143, 0.006243741, -0.08763672, 0.09958126
 1247958117, -0.15, -10.21, 10.71, 615.56, 33.6217643, 72.9557082, 0.9916885, 0.007006894, -0.08872303, 0.09291462
 1248058077, 0, -10.31, 9.9, 615.8, 33.6217684, 72.9557089, 0.9922308, 0.007687896, -0.08958635, 0.08598406
 1248158037, 0.13, -10.35, 9.12, 616.06, 33.6217725, 72.9557096, 0.9927595, 0.008302684, -0.0898366, 0.07930359
 1248257997, 0.23, -10.38, 8.41, 616.3, 33.6217767, 72.9557104, 0.9931993, 0.008674075, -0.09007075, 0.07326074
 1248357957, 0.32, -10.37, 7.82, 616.55, 33.6217809, 72.9557111, 0.9935632, 0.008988689, -0.09000441, 0.0681955
 1248457917, 0.38, -10.35, 7.37, 616.79, 33.6217851, 72.9557118, 0.9938332, 0.009181488, -0.08980677, 0.06439009
 1248557877, 0.41, -10.34, 7.09, 617.04, 33.6217892, 72.9557126, 0.9939883, 0.009181845, -0.08980009, 0.06195901
 1248657837, 0.4, -10.34, 6.98, 617.28, 33.6217936, 72.9557134, 0.9940538, 0.009001892, -0.08976884, 0.06097174
 1248757797, 0.37, -10.3, 7.03, 617.53, 33.6217978, 72.9557141, 0.9940638, 0.0087778, -0.08941516, 0.06135976
 1248857757, 0.32, -10.26, 7.21, 617.78, 33.621802, 72.9557148, 0.9939975, 0.00844827, -0.0890903, 0.06293297
 1248957717, 0.26, -10.21, 7.51, 618.02, 33.6218063, 72.9557155, 0.9938696, 0.008126362, -0.08870836, 0.06548265
 1249057677, 0.2, -10.19, 7.89, 618.27, 33.6218106, 72.9557163, 0.9936697, 0.007852676, -0.0885051, 0.06874426
 1249157637, 0.14, -10.15, 8.32, 618.52, 33.6218148, 72.955717, 0.9934411, 0.007674546, -0.08814047, 0.07243738
 1249257597, 0.07, -10.13, 8.77, 618.76, 33.6218191, 72.9557178, 0.9931704, 0.007379482, -0.088008, 0.0762406
 1249357557, 0, -10.07, 9.2, 619.01, 33.6218234, 72.9557185, 0.9929271, 0.007116499, -0.08752309, 0.07990453
 1249457517, -0.05, -10.01, 9.58, 619.25, 33.6218276, 72.9557194, 0.9927005, 0.006858315, -0.08705528, 0.08318748
 1249557477, -0.06, -9.96, 9.9, 619.5, 33.6218319, 72.9557201, 0.9925048, 0.006908819, -0.0866207, 0.08592615
 1249657437, -0.08, -9.91, 10.13, 619.75, 33.6218362, 72.9557209, 0.9923668, 0.006863893, -0.08617552, 0.08794761
 1249758230, -0.09, -9.87, 10.28, 620.01, 33.6218405, 72.9557217, 0.99229, 0.006915168, -0.08576923, 0.08919858
 1249858190, -0.07, -9.8, 10.32, 620.25, 33.6218448, 72.9557224, 0.9923009, 0.007006985, -0.0851844, 0.0896292
 1249958150, -0.05, -9.79, 10.28, 620.5, 33.6218491, 72.9557232, 0.9923398, 0.007174692, -0.08507513, 0.08928771
 1250058110, -0.04, -9.81, 10.16, 620.75, 33.6218534, 72.9557239, 0.9924164, 0.007197048, -0.08527069, 0.08824256
 1250158070, -0.01, -9.8, 9.97, 621, 33.6218577, 72.9557247, 0.9925672, 0.00731357, -0.08514945, 0.08663992
 1250258030, 0.02, -9.77, 9.74, 621.25, 33.6218619, 72.9557254, 0.9927624, 0.007456012, -0.08488864, 0.0846241
 1250357990, 0.08, -9.74, 9.47, 621.5, 33.6218661, 72.9557261, 0.9929725, 0.00772575, -0.08463182, 0.08236122
 1250457950, 0.12, -9.71, 9.19, 621.74, 33.6218705, 72.9557269, 0.9931884, 0.007857493, -0.08435388, 0.07999725
 1250557910, 0.16, -9.66, 8.93, 621.99, 33.6218748, 72.9557277, 0.9934061, 0.008002488, -0.08390549, 0.07771932
 1250657870, 0.2, -9.66, 8.69, 622.24, 33.621879, 72.9557285, 0.9935686, 0.008145879, -0.08385383, 0.07565486
 1250757830, 0.22, -9.65, 8.48, 622.48, 33.6218833, 72.9557293, 0.9937035, 0.008216571, -0.08381126, 0.07390214
 1250857790, 0.23, -9.66, 8.33, 622.73, 33.6218875, 72.95573, 0.9937982, 0.008151086, -0.08387443, 0.07255152
 1250957750, 0.23, -9.65, 8.23, 622.99, 33.6218918, 72.9557308, 0.9938671, 0.008071159, -0.08381502, 0.07168003
 1251057710, 0.22, -9.66, 8.18, 623.23, 33.6218961, 72.9557315, 0.9938905, 0.007971326, -0.08389658, 0.07127023
 1251157670, 0.21, -9.65, 8.18, 623.48, 33.6219003, 72.9557323, 0.9938927, 0.007839648, -0.08385283, 0.07130546
 1251257630, 0.19, -9.65, 8.24, 623.73, 33.6219046, 72.955733, 0.993862, 0.007739168, -0.08385511, 0.07174055
 1251357590, 0.19, -9.68, 8.32, 623.98, 33.6219088, 72.9557338, 0.9937915, 0.007787474, -0.08403879, 0.07249392
 1251457550, 0.17, -9.69, 8.44, 624.22, 33.6219131, 72.9557345, 0.9937116, 0.007767531, -0.08414643, 0.07345914
 1251557510, 0.15, -9.68, 8.56, 624.48, 33.6219173, 72.9557353, 0.9936334, 0.007690508, -0.08410556, 0.07456433
 1251657470, 0.13, -9.68, 8.7, 624.73, 33.6219216, 72.9557361, 0.9935491, 0.007562571, -0.08408499, 0.07571515
 1251757430, 0.11, -9.64, 8.83, 624.98, 33.6219259, 72.9557369, 0.9934929, 0.007431814, -0.08374478, 0.07683372
 1251858223, 0.08, -9.63, 8.95, 625.23, 33.62193, 72.9557376, 0.9934196, 0.007266911, -0.08370613, 0.07783226
 1251958183, 0.06, -9.61, 9.04, 625.47, 33.6219343, 72.9557384, 0.9933727, 0.007210142, -0.08349227, 0.07866263
 1252058143, 0.05, -9.65, 9.11, 625.72, 33.6219385, 72.9557392, 0.9932959, 0.007124926, -0.08385569, 0.07925094
 1252158103, 0.03, -9.73, 9.15, 625.97, 33.6219427, 72.95574, 0.9932103, 0.007086967, -0.08457776, 0.07955983
 1252258063, 0.03, -9.8, 9.16, 626.22, 33.621947, 72.9557407, 0.9931567, 0.007100124, -0.08516964, 0.07959576
 1252358023, 0.05, -9.82, 9.13, 626.47, 33.6219512, 72.9557415, 0.9931571, 0.007270025, -0.08532549, 0.07940754
 1252457983, 0.06, -9.82, 9.08, 626.72, 33.6219553, 72.9557422, 0.9931917, 0.007310028, -0.08530953, 0.07898787
 1252557943, 0.06, -9.81, 9.02, 626.96, 33.6219596, 72.955743, 0.9932465, 0.007282348, -0.08521374, 0.0784026
 1252657903, 0.07, -9.8, 8.94, 627.22, 33.6219639, 72.9557437, 0.9933043, 0.007276873, -0.08516923, 0.07771704
 1252757863, 0.09, -9.82, 8.85, 627.47, 33.6219681, 72.9557445, 0.9933499, 0.007460293, -0.08530231, 0.07696646
 1252857823, 0.11, -9.85, 8.76, 627.71, 33.6219724, 72.9557453, 0.9933898, 0.007582198, -0.08552755, 0.07618549
 1252957783, 0.14, -9.85, 8.67, 627.96, 33.6219766, 72.9557461, 0.9934416, 0.007726001, -0.08556192, 0.07545356
 1253057743, 0.14, -9.86, 8.59, 628.21, 33.6219809, 72.9557468, 0.9934859, 0.007725869, -0.08563431, 0.07478487
 1253157703, 0.14, -9.86, 8.53, 628.45, 33.6219851, 72.9557476, 0.9935235, 0.007690921, -0.08567922, 0.0742355
 1253257663, 0.14, -9.87, 8.48, 628.7, 33.6219894, 72.9557484, 0.9935495, 0.007599996, -0.08572639, 0.07384189
 1253357623, 0.13, -9.87, 8.46, 628.95, 33.6219936, 72.9557492, 0.9935623, 0.007528787, -0.08577733, 0.0736174
 1253457583, 0.12, -9.88, 8.45, 629.19, 33.6219979, 72.9557499, 0.9935638, 0.00747387, -0.0858242, 0.07354771
 1253557543, 0.12, -9.85, 8.46, 629.45, 33.6220021, 72.9557507, 0.993579, 0.007404476, -0.08556858, 0.07364774
 1253657503, 0.11, -9.84, 8.49, 629.7, 33.6220064, 72.9557514, 0.9935725, 0.007324255, -0.08547053, 0.07385689
 1253757463, 0.1, -9.82, 8.52, 629.94, 33.6220106, 72.9557522, 0.9935598, 0.007299844, -0.08537059, 0.07414462
 1253857423, 0.1, -9.79, 8.56, 630.19, 33.6220149, 72.955753, 0.9935643, 0.007266475, -0.08504979, 0.07445601
 1253958216, 0.09, -9.75, 8.59, 630.44, 33.6220192, 72.9557538, 0.9935695, 0.007227268, -0.08470807, 0.07478003
 1254058176, 0.08, -9.74, 8.63, 630.68, 33.6220234, 72.9557545, 0.993554, 0.007137385, -0.08462229, 0.07509069
 1254158136, 0.08, -9.75, 8.66, 630.94, 33.6220277, 72.9557553, 0.9935218, 0.007174068, -0.08476423, 0.07535243
 1254258096, 0.08, -9.8, 8.69, 631.18, 33.6220319, 72.955756, 0.9934732, 0.007174966, -0.0851569, 0.0755503
 1254358056, 0.09, -9.79, 8.7, 631.43, 33.6220362, 72.9557568, 0.9934647, 0.007280566, -0.08510683, 0.07570782
 1254458016, 0.1, -9.78, 8.71, 631.69, 33.6220404, 72.9557575, 0.9934669, 0.007415876, -0.08497187, 0.07581709
 1254557976, 0.12, -9.77, 8.72, 631.93, 33.6220446, 72.9557583, 0.9934733, 0.007547971, -0.08485332, 0.07585314
 1254657936, 0.11, -9.74, 8.71, 632.18, 33.6220489, 72.9557591, 0.9934983, 0.007491904, -0.08462355, 0.07578888
 1254757896, 0.11, -9.73, 8.69, 632.43, 33.6220531, 72.9557599, 0.9935185, 0.007436437, -0.08451959, 0.07564554
 1254857856, 0.09, -9.74, 8.67, 632.67, 33.6220574, 72.9557606, 0.9935291, 0.007267772, -0.08460387, 0.07542732
 1254957816, 0.08, -9.74, 8.64, 632.92, 33.6220616, 72.9557614, 0.9935507, 0.007125276, -0.08460017, 0.07516094
 1255057776, 0.08, -9.74, 8.61, 633.17, 33.6220659, 72.9557621, 0.9935678, 0.007077852, -0.08464447, 0.07488848
 1255157736, 0.09, -9.74, 8.58, 633.42, 33.6220701, 72.9557629, 0.9935845, 0.007164618, -0.08466332, 0.07463682
 1255257696, 0.09, -9.74, 8.55, 633.66, 33.6220744, 72.9557637, 0.9936029, 0.00717584, -0.08465386, 0.07440128
 1255357656, 0.1, -9.74, 8.53, 633.92, 33.6220786, 72.9557645, 0.9936169, 0.007233206, -0.08464773, 0.07421466
 1255457616, 0.1, -9.76, 8.51, 634.16, 33.6220829, 72.9557652, 0.9936116, 0.00727012, -0.08484341, 0.07405922
 1255557576, 0.11, -9.77, 8.5, 634.42, 33.6220871, 72.955766, 0.993615, 0.007305127, -0.08490178, 0.0739423
 1255657536, 0.11, -9.76, 8.49, 634.66, 33.6220914, 72.9557667, 0.9936253, 0.007329798, -0.08483877, 0.07387484
 1255757496, 0.12, -9.75, 8.49, 634.91, 33.6220956, 72.9557674, 0.9936352, 0.007376746, -0.08471338, 0.07388012
 1255857456, 0.12, -9.74, 8.49, 635.16, 33.6220999, 72.9557682, 0.9936378, 0.007349214, -0.084647, 0.07392425
 1255957416, 0.12, -9.72, 8.5, 635.42, 33.6221042, 72.955769, 0.9936516, 0.007396945, -0.08441395, 0.07400115
 1256058209, 0.12, -9.68, 8.51, 635.67, 33.6221084, 72.9557697, 0.9936724, 0.007373339, -0.08408575, 0.07409707
 1256158169, 0.12, -9.66, 8.52, 635.92, 33.6221127, 72.9557705, 0.9936763, 0.007383643, -0.08395507, 0.07419225
 1256258129, 0.12, -9.68, 8.53, 636.17, 33.6221169, 72.9557712, 0.9936562, 0.007411609, -0.08411257, 0.07428055
 1256358089, 0.13, -9.74, 8.54, 636.41, 33.6221211, 72.955772, 0.9936106, 0.007461745, -0.08457804, 0.074356
 1256458049, 0.13, -9.74, 8.55, 636.66, 33.6221253, 72.9557727, 0.9936016, 0.007477832, -0.08463243, 0.07441369
 1256558009, 0.14, -9.73, 8.55, 636.92, 33.6221295, 72.9557734, 0.9936059, 0.007580066, -0.08455168, 0.07443748
 1256657969, 0.15, -9.74, 8.55, 637.16, 33.6221338, 72.9557742, 0.9936038, 0.007689171, -0.08458928, 0.07441171
 1256757929, 0.16, -9.71, 8.54, 637.42, 33.622138, 72.9557749, 0.9936269, 0.007773619, -0.08437172, 0.07434118
 1256857889, 0.17, -9.73, 8.53, 637.66, 33.6221423, 72.9557758, 0.9936221, 0.007866605, -0.08451271, 0.07423545
 1256957849, 0.18, -9.77, 8.51, 637.91, 33.6221465, 72.9557765, 0.9936056, 0.007884955, -0.0848101, 0.07411478
 1257057809, 0.16, -9.8, 8.5, 638.16, 33.6221508, 72.9557773, 0.993591, 0.007743581, -0.08509605, 0.07399803
 1257157769, 0.15, -9.83, 8.49, 638.42, 33.622155, 72.955778, 0.9935752, 0.00765876, -0.08535662, 0.07391866
 1257257729, 0.14, -9.85, 8.49, 638.66, 33.6221593, 72.9557788, 0.9935584, 0.007611337, -0.08559107, 0.07387806
 1257357689, 0.14, -9.86, 8.49, 638.91, 33.6221635, 72.9557796, 0.9935506, 0.007594801, -0.08569039, 0.07386947
 1257457649, 0.13, -9.87, 8.49, 639.16, 33.6221678, 72.9557803, 0.993543, 0.007559347, -0.08578146, 0.07387015
 1257557609, 0.13, -9.9, 8.49, 639.41, 33.622172, 72.9557811, 0.9935226, 0.007588874, -0.08601254, 0.07387264
 1257657569, 0.13, -9.92, 8.49, 639.65, 33.6221763, 72.9557819, 0.9935123, 0.007561137, -0.08613891, 0.07386651
 1257757529, 0.13, -9.9, 8.49, 639.9, 33.6221805, 72.9557827, 0.9935248, 0.007545955, -0.08600324, 0.07385809
 1257857489, 0.12, -9.89, 8.48, 640.16, 33.6221847, 72.9557834, 0.9935352, 0.007501324, -0.08590252, 0.07383994
 1257957449, 0.12, -9.88, 8.48, 640.41, 33.6221889, 72.9557842, 0.9935451, 0.007469151, -0.08580928, 0.07381861
 1258057409, 0.12, -9.86, 8.48, 640.65, 33.6221932, 72.9557849, 0.993557, 0.00744125, -0.08569627, 0.07379186
 1258158202, 0.12, -9.82, 8.47, 640.9, 33.6221975, 72.9557857, 0.9935963, 0.007396726, -0.08529158, 0.07373619
 1258258162, 0.12, -9.82, 8.46, 641.16, 33.6222018, 72.9557864, 0.9935964, 0.007390403, -0.08535644, 0.07366113
 1258358122, 0.13, -9.85, 8.46, 641.4, 33.6222061, 72.9557872, 0.9935847, 0.007479747, -0.08554552, 0.07359023
 1258458082, 0.13, -9.87, 8.45, 641.65, 33.6222103, 72.955788, 0.9935737, 0.007489535, -0.08573146, 0.07352187
 1258558042, 0.13, -9.85, 8.44, 641.9, 33.6222146, 72.9557888, 0.9935935, 0.007476038, -0.08555415, 0.07346168
 1258658002, 0.13, -9.84, 8.43, 642.15, 33.6222188, 72.9557895, 0.9936037, 0.007473475, -0.08548047, 0.07340915
 1258757962, 0.13, -9.82, 8.43, 642.39, 33.622223, 72.9557903, 0.993621, 0.007485309, -0.08531363, 0.07336842
 1258857922, 0.13, -9.79, 8.43, 642.64, 33.6222273, 72.955791, 0.9936467, 0.007449259, -0.08503951, 0.07334139
 1258957882, 0.13, -9.78, 8.43, 642.89, 33.6222316, 72.9557918, 0.993653, 0.007465499, -0.08496557, 0.07334054
 1259057842, 0.13, -9.78, 8.43, 643.13, 33.6222359, 72.9557925, 0.9936495, 0.007428546, -0.0849826, 0.07337259
 1259157802, 0.14, -9.77, 8.44, 643.38, 33.6222402, 72.9557933, 0.9936518, 0.007490049, -0.08490578, 0.07342363
 1259257762, 0.13, -9.78, 8.44, 643.64, 33.6222444, 72.9557941, 0.9936474, 0.007464743, -0.08492682, 0.07346156
 1259357722, 0.14, -9.77, 8.44, 643.88, 33.6222486, 72.9557949, 0.9936513, 0.007490643, -0.08484861, 0.07349647
 1259457682, 0.13, -9.76, 8.45, 644.13, 33.6222529, 72.9557956, 0.9936529, 0.00746818, -0.08481472, 0.07351641
 1259557642, 0.13, -9.76, 8.45, 644.38, 33.6222571, 72.9557964, 0.9936548, 0.007471848, -0.08478753, 0.07352079
 1259657602, 0.13, -9.78, 8.44, 644.62, 33.6222614, 72.9557971, 0.9936399, 0.007450209, -0.08498022, 0.07350273
 1259757562, 0.13, -9.78, 8.44, 644.88, 33.6222656, 72.9557979, 0.9936464, 0.007473075, -0.08492366, 0.07347806
 1259857522, 0.13, -9.77, 8.44, 645.13, 33.6222699, 72.9557986, 0.993655, 0.007483031, -0.08485727, 0.07343688
 1259957482, 0.14, -9.76, 8.43, 645.38, 33.6222741, 72.9557994, 0.9936604, 0.007534881, -0.08482772, 0.07339184
 1260057442, 0.14, -9.75, 8.42, 645.62, 33.6222784, 72.9558001, 0.9936747, 0.007500586, -0.08471056, 0.0733381
 1260158235, 0.15, -9.74, 8.42, 645.87, 33.6222827, 72.9558009, 0.9936881, 0.007543835, -0.08459304, 0.07328799
 1260258195, 0.15, -9.7, 8.41, 646.12, 33.6222869, 72.9558016, 0.993721, 0.007515498, -0.08424916, 0.07324029
 1260358155, 0.15, -9.7, 8.41, 646.38, 33.6222912, 72.9558024, 0.9937212, 0.007569863, -0.0842836, 0.07319226
 1260458115, 0.15, -9.74, 8.4, 646.62, 33.6222954, 72.9558032, 0.993698, 0.007607234, -0.08459609, 0.0731433
 1260558075, 0.17, -9.76, 8.4, 646.87, 33.6222997, 72.955804, 0.9936873, 0.007707366, -0.08474331, 0.07310783
 1260658035, 0.17, -9.76, 8.39, 647.12, 33.6223039, 72.9558047, 0.9936852, 0.007765368, -0.08478981, 0.07307605
 1260757995, 0.17, -9.75, 8.39, 647.36, 33.6223081, 72.9558055, 0.993699, 0.007771136, -0.08465406, 0.07304446
 1260857955, 0.16, -9.72, 8.38, 647.61, 33.6223125, 72.9558062, 0.9937212, 0.007603474, -0.08444446, 0.07300316
 1260957915, 0.13, -9.66, 8.38, 647.86, 33.6223167, 72.955807, 0.9937696, 0.007370481, -0.08393756, 0.07295306
 1261057875, 0.12, -9.66, 8.38, 648.12, 33.622321, 72.9558077, 0.9937747, 0.007222081, -0.08393352, 0.07290367
 1261157835, 0.13, -9.66, 8.37, 648.37, 33.6223252, 72.9558085, 0.9937779, 0.007287436, -0.08391165, 0.07287892
 1261257795, 0.13, -9.66, 8.37, 648.61, 33.6223295, 72.9558092, 0.9937789, 0.007348403, -0.08391396, 0.07285546
 1261357755, 0.14, -9.66, 8.37, 648.86, 33.6223337, 72.95581, 0.993778, 0.007407575, -0.08393967, 0.07283246
 1261457715, 0.15, -9.67, 8.36, 649.12, 33.6223379, 72.9558108, 0.9937753, 0.007466778, -0.08399063, 0.07280432
 1261557675, 0.15, -9.68, 8.36, 649.37, 33.6223421, 72.9558116, 0.9937709, 0.007520721, -0.08406608, 0.07277244
 1261657635, 0.16, -9.69, 8.35, 649.62, 33.6223464, 72.9558123, 0.9937623, 0.007575769, -0.08418709, 0.07274409
 1261757595, 0.16, -9.72, 8.35, 649.87, 33.6223506, 72.9558131, 0.9937395, 0.007637962, -0.08445727, 0.07273435
 1261857555, 0.17, -9.75, 8.35, 650.11, 33.6223549, 72.9558138, 0.9937216, 0.007689269, -0.08466882, 0.07272829
 1261957515, 0.17, -9.75, 8.35, 650.36, 33.6223591, 72.9558146, 0.9937205, 0.007721977, -0.08467648, 0.07273077
 1262057475, 0.17, -9.75, 8.35, 650.61, 33.6223634, 72.9558153, 0.9937225, 0.007746823, -0.08464785, 0.07273424
 1262157435, 0.18, -9.7, 8.35, 650.87, 33.6223676, 72.9558161, 0.9937579, 0.007737137, -0.08422435, 0.07274384
 1262258228, 0.18, -9.68, 8.35, 651.12, 33.6223718, 72.9558168, 0.9937694, 0.007748166, -0.08407031, 0.07276324
 1262358188, 0.17, -9.65, 8.36, 651.37, 33.6223761, 72.9558176, 0.9937872, 0.007667017, -0.0838328, 0.07280353
 1262458148, 0.15, -9.7, 8.37, 651.62, 33.6223803, 72.9558184, 0.9937527, 0.007552383, -0.08422209, 0.07283743
 1262558108, 0.14, -9.77, 8.37, 651.87, 33.6223845, 72.9558192, 0.9936916, 0.007520191, -0.08491258, 0.07287254
 1262658068, 0.13, -9.83, 8.37, 652.12, 33.6223888, 72.9558199, 0.9936484, 0.007457677, -0.08540207, 0.07289506
 1262758028, 0.13, -9.83, 8.38, 652.37, 33.622393, 72.9558207, 0.9936451, 0.007444644, -0.08542964, 0.07290844
 1262857988, 0.12, -9.69, 8.38, 652.62, 33.6223973, 72.9558214, 0.9937477, 0.007303847, -0.08423112, 0.07291987
 1262957948, 0.13, -9.34, 8.38, 652.87, 33.6224015, 72.9558222, 0.9940056, 0.007106298, -0.08112478, 0.07294728
 1263057908, 0.12, -8.82, 8.38, 653.12, 33.6224057, 72.9558229, 0.994359, 0.006731115, -0.07668819, 0.07296499
 1263157868, 0.13, -8.26, 8.38, 653.36, 33.62241, 72.9558237, 0.9947228, 0.006452679, -0.07182017, 0.07298377
 1263257828, 0.13, -7.69, 8.38, 653.61, 33.6224142, 72.9558245, 0.9950714, 0.006071574, -0.0668522, 0.07298547
 1263357788, 0.13, -7.1, 8.37, 653.85, 33.6224184, 72.9558252, 0.9954072, 0.005709333, -0.06169663, 0.07297557
 1263457748, 0.13, -6.5, 8.37, 654.09, 33.6224224, 72.9558259, 0.9957216, 0.005308846, -0.05646264, 0.07295349
 1263557708, 0.14, -5.87, 8.36, 654.33, 33.6224266, 72.9558266, 0.9960185, 0.004972207, -0.05103606, 0.07292338
 1263657668, 0.14, -5.24, 8.36, 654.57, 33.6224306, 72.9558273, 0.9962915, 0.004583133, -0.04550927, 0.07287833
 1263757628, 0.16, -4.54, 8.35, 654.8, 33.6224346, 72.9558281, 0.9965558, 0.004280126, -0.03941346, 0.07283343
 1263857588, 0.22, -3.69, 8.34, 655.03, 33.6224383, 72.9558287, 0.9968215, 0.004333517, -0.03202974, 0.07281669
 1263957548, 0.38, -2.54, 8.35, 655.25, 33.6224423, 72.9558294, 0.9970872, 0.004931694, -0.02194019, 0.07287984
 1264057508, 0.59, -1.2, 8.37, 655.47, 33.6224459, 72.9558302, 0.9972585, 0.005934539, -0.01010078, 0.07306331
 1264157468, 0.83, 0.26, 8.42, 655.68, 33.6224497, 72.9558308, 0.9972703, 0.007100033, 0.002832815, 0.07344005
 1264257428, 1.07, 1.78, 8.51, 655.88, 33.6224528, 72.9558314, 0.9970853, 0.008232835, 0.01621289, 0.07409595
 1264358221, 1.34, 3.35, 8.66, 656.07, 33.6224565, 72.9558321, 0.9966733, 0.009455723, 0.0300802, 0.07515339
 1264458181, 1.61, 4.94, 8.88, 656.25, 33.6224594, 72.9558327, 0.9960166, 0.01071098, 0.04411483, 0.07674734
 1264558141, 1.92, 6.6, 9.19, 656.42, 33.6224627, 72.9558333, 0.9950638, 0.01211871, 0.05876976, 0.07903927
 1264658101, 2.26, 8.28, 9.62, 656.59, 33.6224651, 72.9558339, 0.9937966, 0.01361139, 0.0736495, 0.0822117
 1264758061, 2.67, 10.05, 10.2, 656.74, 33.622468, 72.9558345, 0.9921204, 0.01533617, 0.08929021, 0.08653934
 1264858021, 3.16, 11.82, 10.98, 656.89, 33.6224699, 72.9558351, 0.9900122, 0.01746834, 0.1051123, 0.09231504
 1264957981, 3.77, 13.58, 12.01, 657.01, 33.6224724, 72.9558357, 0.9874062, 0.0201271, 0.1209379, 0.09998973
 1265057941, 4.5, 15.14, 13.38, 657.13, 33.6224738, 72.9558362, 0.9843702, 0.0233526, 0.1352861, 0.1103074
 1265157901, 5.43, 16.47, 15.22, 657.23, 33.6224759, 72.9558368, 0.9807587, 0.02755227, 0.1480307, 0.1242587
 1265257861, 6.63, 17.52, 17.77, 657.32, 33.6224765, 72.9558375, 0.9761917, 0.03301543, 0.1591001, 0.1436906
 1265357821, 8.2, 18.24, 21.26, 657.4, 33.6224781, 72.9558381, 0.9700115, 0.04023059, 0.1684499, 0.17054
 1265457781, 10.12, 18.43, 25.78, 657.46, 33.6224782, 72.9558386, 0.9616092, 0.04927424, 0.1749905, 0.2055675
 1265557741, 12.36, 18.09, 31.23, 657.52, 33.6224792, 72.9558392, 0.95012, 0.06036613, 0.1792009, 0.2480219
 1265657701, 14.81, 17.16, 37.52, 657.55, 33.6224786, 72.9558399, 0.9346344, 0.07312382, 0.1811145, 0.2971683
 1265757661, 17.33, 15.64, 44.49, 657.58, 33.6224791, 72.9558405, 0.9142444, 0.08724686, 0.1810607, 0.3517984
 1265857621, 19.68, 13.45, 51.94, 657.6, 33.6224779, 72.9558412, 0.8884318, 0.1020808, 0.1781605, 0.4105207
 1265957581, 21.73, 10.67, 59.73, 657.6, 33.6224777, 72.9558418, 0.8566533, 0.1172621, 0.1727282, 0.4717624
 1266057541, 23.28, 7.37, 67.73, 657.59, 33.6224758, 72.9558425, 0.8188047, 0.1321391, 0.1645035, 0.5338883
 1266157501, 24.33, 3.71, 75.85, 657.56, 33.622475, 72.9558432, 0.7748876, 0.1466739, 0.1544551, 0.5951298
 1266257461, 24.79, -0.15, 84.01, 657.55, 33.6224724, 72.955844, 0.7255247, 0.1603683, 0.1427048, 0.6538588
 1266357421, 24.62, -4.03, 92.16, 657.51, 33.6224709, 72.9558447, 0.67182, 0.1725826, 0.1296987, 0.7085558
 1266458214, 23.75, -7.73, 100.26, 657.46, 33.6224679, 72.9558456, 0.6151792, 0.1822969, 0.1153291, 0.7583017
 1266558174, 22.28, -11.05, 108.17, 657.41, 33.6224659, 72.9558464, 0.5577209, 0.1893404, 0.1003883, 0.8018851
 1266658134, 20.37, -13.89, 115.8, 657.36, 33.6224622, 72.9558472, 0.5010351, 0.1941726, 0.0854297, 0.8390248
 1266758094, 18.19, -16.31, 123.09, 657.29, 33.6224595, 72.955848, 0.4459674, 0.1977909, 0.0708425, 0.8700421
 1266858054, 15.83, -18.27, 129.96, 657.22, 33.6224554, 72.9558491, 0.3937483, 0.2000525, 0.05667885, 0.8953931
 1266958014, 13.42, -19.84, 136.37, 657.13, 33.6224522, 72.95585, 0.3447924, 0.2016441, 0.04330653, 0.9157415
 1267057974, 11.03, -21.09, 142.33, 657.06, 33.6224478, 72.955851, 0.2992158, 0.2029683, 0.03062327, 0.9318455
