Time,ATT_DesRoll,ATT_Roll,ATT_DesPitch,ATT_Pitch,ATT_DesYaw,ATT_Yaw,ATT_ErrRP,ATT_ErrYaw,ATT_AEKF
 1214358229, 0, 0.01, 0, 0.02, 343.05, 343.06, 0, 0, 3
 1214458189, 0, 0.01, 0, 0.02, 343.05, 343.06, 0, 0, 3
 1214558149, 0, 0.01, 0, 0.02, 343.05, 343.06, 0, 0, 3
 1214658109, 0, 0.01, 0, 0.02, 343.05, 343.06, 0, 0, 3
 1214758069, 0, 0.01, 0, 0.03, 343.05, 343.06, 0, 0, 3
 1214858029, 0, 0.01, 0, 0.03, 343.06, 343.07, 0, 0, 3
 1214957989, 0, 0.01, 0, 0.03, 343.06, 343.07, 0, 0, 3
 1215057949, 0, 0.01, 0, 0.03, 343.06, 343.07, 0, 0, 3
 1215157909, 0, 0.01, 0, 0.03, 343.06, 343.07, 0, 0, 3
 1215257869, 0, 0.01, 0, 0.03, 343.06, 343.07, 0, 0, 3
 1215357829, 0, 0.01, 0, 0.03, 343.07, 343.08, 0, 0, 3
 1215457789, 0, 0.01, 0, 0.03, 343.07, 343.08, 0, 0, 3
 1215557749, 0, 0.01, 0, 0.03, 343.07, 343.08, 0, 0, 3
 1215657709, 0, 0.01, 0, 0.03, 343.07, 343.08, 0, 0, 3
 1215757669, 0, 0.01, 0, 0.03, 343.08, 343.09, 0, 0, 3
 1215857629, 0, 0.01, 0, 0.03, 343.08, 343.09, 0, 0, 3
 1215957589, 0, 0.01, 0, 0.03, 343.08, 343.09, 0, 0, 3
 1216057549, 0, 0.01, 0, 0.03, 343.08, 343.09, 0, 0, 3
 1216157509, 0, 0.01, 0, 0.03, 343.08, 343.09, 0, 0, 3
 1216257469, 0, 0.01, 0, 0.03, 343.09, 343.1, 0, 0, 3
 1216357429, 0, 0.01, 0, 0.03, 343.09, 343.1, 0, 0, 3
 1216458222, 0, 0.01, 0, 0.03, 343.09, 343.1, 0, 0, 3
 1216558182, 0, 0.02, 0, 0.03, 343.09, 343.1, 0, 0, 3
 1216658142, 0, 0.02, 0, 0.03, 343.1, 343.11, 0, 0, 3
 1216758102, 0, 0.02, 0, 0.03, 343.1, 343.11, 0, 0, 3
 1216858062, 0, 0.02, 0, 0.03, 343.1, 343.11, 0, 0, 3
 1216958022, 0, 0.02, 0, 0.03, 343.1, 343.11, 0, 0, 3
 1217057982, 0, 0.02, 0, 0.03, 343.11, 343.12, 0, 0, 3
 1217157942, 0, 0.02, 0, 0.04, 343.11, 343.12, 0, 0, 3
 1217257902, 0, 0.02, 0, 0.04, 343.11, 343.12, 0, 0, 3
 1217357862, 0, 0.02, 0, 0.04, 343.11, 343.12, 0, 0, 3
 1217457822, 0, 0.02, 0, 0.04, 343.12, 343.13, 0, 0, 3
 1217557782, 0, 0.02, 0, 0.04, 343.12, 343.13, 0, 0, 3
 1217657742, 0, 0.02, 0, 0.04, 343.12, 343.13, 0, 0, 3
 1217757702, 0, 0.02, 0, 0.04, 343.12, 343.13, 0, 0, 3
 1217857662, 0, 0.02, 0, 0.04, 343.13, 343.14, 0, 0, 3
 1217957622, 0, 0.02, 0, 0.04, 343.13, 343.14, 0, 0, 3
 1218057582, 0, 0.02, 0, 0.04, 343.13, 343.14, 0, 0, 3
 1218157542, 0, 0.02, 0, 0.04, 343.13, 343.14, 0, 0, 3
 1218257502, 0, 0.02, 0, 0.04, 343.14, 343.15, 0, 0, 3
 1218357462, 0, 0.02, 0, 0.04, 343.14, 343.15, 0, 0, 3
 1218457422, 0, 0.02, 0, 0.04, 343.14, 343.15, 0, 0, 3
 1218558215, 0, 0.02, 0, 0.04, 343.14, 343.15, 0, 0, 3
 1218658175, 0, 0.02, 0, 0.04, 343.15, 343.16, 0, 0, 3
 1218758135, 0, 0.02, 0, 0.04, 343.15, 343.16, 0, 0, 3
 1218858095, 0, 0.02, 0, 0.04, 343.15, 343.16, 0, 0, 3
 1218958055, 0, 0.02, 0, 0.04, 343.15, 343.16, 0, 0, 3
 1219058015, 0, 0.02, 0, 0.04, 343.16, 343.17, 0, 0, 3
 1219157975, 0, 0.02, 0, 0.04, 343.16, 343.17, 0, 0, 3
 1219257935, -0.01, 0.02, -0.01, 0.04, 343.16, 343.17, 0, 0, 3
 1219357895, -0.03, 0.02, -0.04, 0.04, 343.16, 343.17, 0, 0, 3
 1219457855, -0.05, 0.02, -0.05, 0.04, 343.16, 343.18, 0, 0, 3
 1219557815, -0.05, 0.02, -0.05, 0.04, 343.16, 343.18, 0, 0, 3
 1219657775, -0.05, 0.03, -0.06, 0.04, 343.16, 343.18, 0, 0, 3
 1219757735, -0.05, 0.03, -0.06, 0.04, 343.16, 343.18, 0, 0, 3
 1219857695, -0.05, 0.03, -0.06, 0.04, 343.16, 343.19, 0, 0, 3
 1219957655, -0.05, 0.03, -0.06, 0.04, 343.16, 343.19, 0, 0, 3
 1220057615, -0.05, 0.03, -0.06, 0.04, 343.16, 343.19, 0, 0, 3
 1220157575, -0.05, 0.03, -0.06, 0.05, 343.16, 343.19, 0, 0, 3
 1220257535, -0.06, 0.03, -0.07, 0.05, 343.16, 343.2, 0, 0, 3
 1220357495, -0.06, 0.03, -0.07, 0.05, 343.16, 343.2, 0, 0, 3
 1220457455, -0.07, 0, -0.07, 0, 343.16, 343.2, 0, 0, 3
 1220557415, -0.06, -0.06, -0.07, -0.06, 343.16, 343.2, 0, 0, 3
 1220658208, -0.04, -0.08, -0.04, -0.09, 343.16, 343.2, 0, 0, 3
 1220758168, -0.01, -0.07, 0, -0.09, 343.16, 343.2, 0, 0, 3
 1220858128, 0.01, -0.05, 0.03, -0.06, 343.16, 343.2, 0, 0, 3
 1220958088, 0.04, -0.02, 0.06, -0.02, 343.16, 343.19, 0, 0, 3
 1221058048, 0.06, 0, 0.09, 0, 343.16, 343.19, 0, 0, 3
 1221158008, 0.07, 0.01, 0.1, 0.02, 343.16, 343.18, 0, 0, 3
 1221257968, 0.08, 0.02, 0.11, 0.04, 343.16, 343.18, 0, 0, 3
 1221357928, 0.08, 0.02, 0.12, 0.04, 343.16, 343.17, 0, 0, 3
 1221457888, 0.09, 0.02, 0.12, 0.04, 343.16, 343.17, 0, 0, 3
 1221557848, 0.1, 0.04, 0.13, 0.06, 343.16, 343.17, 0, 0, 3
 1221657808, 0.1, 0.05, 0.13, 0.07, 343.16, 343.16, 0, 0, 3
 1221757768, 0.1, 0.06, 0.13, 0.08, 343.16, 343.16, 0, 0, 3
 1221857728, 0.1, 0.06, 0.13, 0.09, 344.13, 344.13, 0, 0, 3
 1221957688, 0.1, 0.07, 0.13, 0.09, 344.13, 344.14, 0, 0, 3
 1222057648, 0.1, 0.07, 0.13, 0.09, 344.13, 344.15, 0, 0, 3
 1222157608, 0.1, 0.07, 0.12, 0.09, 344.13, 344.15, 0, 0, 3
 1222257568, 0.1, 0.07, 0.11, 0.08, 344.13, 344.15, 0, 0, 3
 1222357528, 0.1, 0.07, 0.11, 0.08, 344.13, 344.15, 0, 0, 3
 1222457488, 0.09, 0.07, 0.1, 0.08, 344.13, 344.14, 0, 0, 3
 1222557448, 0.09, 0.07, 0.09, 0.08, 344.13, 344.14, 0, 0, 3
 1222657408, 0.08, 0.07, 0.08, 0.05, 344.13, 344.13, 0, 0, 3
 1222758201, 0.08, 0.07, 0.08, 0.05, 344.13, 344.12, 0, 0, 3
 1222858161, 0.07, 0.06, 0.07, 0.05, 344.13, 344.12, 0, 0, 3
 1222958121, 0.07, 0.06, 0.07, 0.05, 344.13, 344.12, 0, 0, 3
 1223058081, 0.06, 0.04, 0.06, 0.05, 344.13, 344.12, 0, 0, 3
 1223158041, 0.06, 0.05, 0.06, 0.05, 344.13, 344.12, 0, 0, 3
 1223258001, 0.05, 0.05, 0.05, 0.04, 344.13, 344.12, 0, 0, 3
 1223357961, 0.05, 0.04, 0.05, 0.04, 344.13, 344.12, 0, 0, 3
 1223457921, 0.04, 0.04, 0.05, 0.04, 344.13, 344.12, 0, 0, 3
 1223557881, 0.04, 0.04, 0.05, 0.04, 344.13, 344.13, 0, 0, 3
 1223657841, 0.03, 0.04, 0.05, 0.04, 344.13, 344.13, 0, 0, 3
 1223757801, 0.03, 0.05, 0.05, 0.03, 344.13, 344.14, 0, 0, 3
 1223857761, 0.01, 0.02, 0.05, 0.04, 344.13, 344.14, 0, 0, 3
 1223957721, 0.01, 0.01, 0.05, 0.04, 344.13, 344.14, 0, 0, 3
 1224057681, 0.01, 0.01, 0.05, 0.04, 344.13, 344.15, 0, 0, 3
 1224157641, 0.02, 0.01, 0.05, 0.04, 344.13, 344.15, 0, 0, 3
 1224257601, 0.02, 0.01, 0.05, 0.04, 344.13, 344.14, 0, 0, 3
 1224357561, 0.04, 0.02, 0.06, 0.05, 344.13, 344.14, 0, 0, 3
 1224457521, 0.04, 0.03, 0.06, 0.05, 344.13, 344.14, 0, 0, 3
 1224557481, 0.06, 0.05, 0.06, 0.06, 344.13, 344.13, 0, 0, 3
 1224657441, 0.07, 0.05, 0.06, 0.06, 344.13, 344.13, 0, 0, 3
 1224758234, 0.08, 0.07, 0.07, 0.06, 344.13, 344.13, 0, 0, 3
 1224858194, 0.08, 0.07, 0.07, 0.06, 344.13, 344.13, 0, 0, 3
 1224958154, 0.09, 0.08, 0.08, 0.07, 344.13, 344.14, 0, 0, 3
 1225058114, 0.09, 0.08, 0.08, 0.07, 344.13, 344.14, 0, 0, 3
 1225158074, 0.09, 0.08, 0.1, 0.09, 344.13, 344.14, 0, 0, 3
 1225258034, 0.09, 0.08, 0.11, 0.1, 344.13, 344.14, 0, 0, 3
 1225357994, 0.09, 0.08, 0.12, 0.11, 344.13, 344.14, 0, 0, 3
 1225457954, 0.09, 0.08, 0.12, 0.11, 344.13, 344.14, 0, 0, 3
 1225557914, 0.09, 0.07, 0.12, 0.12, 344.13, 344.14, 0, 0, 3
 1225657874, 0.08, 0.07, 0.12, 0.12, 344.13, 344.14, 0, 0, 3
 1225757834, 0.08, 0.07, 0.12, 0.12, 344.13, 344.13, 0, 0, 3
 1225857794, 0.08, 0.06, 0.12, 0.12, 344.13, 344.13, 0, 0, 3
 1225957754, 0.08, 0.06, 0.12, 0.11, 344.13, 344.13, 0, 0, 3
 1226057714, 0.07, 0.06, 0.12, 0.11, 344.13, 344.13, 0, 0, 3
 1226157674, 0.07, 0.05, 0.12, 0.11, 344.13, 344.13, 0, 0, 3
 1226257634, 0.07, 0.05, 0.11, 0.11, 344.13, 344.13, 0, 0, 3
 1226357594, 0.07, 0.05, 0.11, 0.11, 344.13, 344.13, 0, 0, 3
 1226457554, 0.06, 0.05, 0.11, 0.1, 344.13, 344.14, 0, 0, 3
 1226557514, 0.06, 0.05, 0.11, 0.1, 344.13, 344.14, 0, 0, 3
 1226657474, 0.06, 0.05, 0.1, 0.09, 344.13, 344.14, 0, 0, 3
 1226757434, 0.06, 0.05, 0.1, 0.09, 344.13, 344.14, 0, 0, 3
 1226858227, 0.06, 0.05, 0.09, 0.08, 344.13, 344.14, 0, 0, 3
 1226958187, 0.06, 0.05, 0.09, 0.08, 344.13, 344.15, 0, 0, 3
 1227058147, 0.05, 0.06, 0.09, 0.07, 344.13, 344.15, 0, 0, 3
 1227158107, 0.05, 0.07, 0.09, 0.06, 344.13, 344.15, 0, 0, 3
 1227258067, 0.05, 0.06, 0.08, 0.06, 344.13, 344.15, 0, 0, 3
 1227358027, 0.05, 0.06, 0.08, 0.07, 344.13, 344.15, 0, 0, 3
 1227457987, 0.04, 0.05, 0.08, 0.07, 344.13, 344.15, 0, 0, 3
 1227557947, 0.04, 0.03, 0.08, 0.06, 344.13, 344.15, 0, 0, 3
 1227657907, 0.04, 0.02, 0.08, 0.06, 344.13, 344.15, 0, 0, 3
 1227757867, 0.04, 0.01, 0.08, 0.06, 344.13, 344.14, 0, 0, 3
 1227857827, 0.04, 0.02, 0.08, 0.07, 344.13, 344.14, 0, 0, 3
 1227957787, 0.04, 0.03, 0.08, 0.08, 344.13, 344.14, 0, 0, 3
 1228057747, 0.04, 0.03, 0.08, 0.08, 344.13, 344.14, 0, 0, 3
 1228157707, 0.03, 0.03, 0.08, 0.08, 344.13, 344.14, 0, 0, 3
 1228257667, 0.02, 0.02, 0.06, 0.08, 344.13, 344.14, 0, 0, 3
 1228357627, 0.02, 0.01, 0.06, 0.07, 344.13, 344.13, 0, 0, 3
 1228457587, 0.02, 0, 0.04, 0.05, 344.13, 344.13, 0, 0, 3
 1228557547, 0.03, 0.01, 0.03, 0.04, 344.13, 344.13, 0, 0, 3
 1228657507, 0.03, 0.02, 0.02, 0.03, 344.13, 344.13, 0, 0, 3
 1228757467, 0.03, 0.02, 0.01, 0.03, 344.13, 344.14, 0, 0, 3
 1228857427, 0.04, 0.02, 0, 0.02, 344.13, 344.14, 0, 0, 3
 1228958220, 0.04, 0.03, 0, 0.01, 344.13, 344.14, 0, 0, 3
 1229058180, 0.04, 0.04, 0, 0, 344.13, 344.14, 0, 0, 3
 1229158140, 0.04, 0.04, 0, 0, 344.13, 344.14, 0, 0, 3
 1229258100, 0.04, 0.04, 0, 0, 344.13, 344.14, 0, 0, 3
 1229358060, 0.05, 0.05, 0, 0, 344.13, 344.14, 0, 0, 3
 1229458020, 0.05, 0.04, 0, 0, 344.13, 344.14, 0, 0, 3
 1229557980, 0.05, 0.05, 0.01, 0.01, 344.13, 344.14, 0, 0, 3
 1229657940, 0.05, 0.06, 0.02, 0.01, 344.13, 344.14, 0, 0, 3
 1229757900, 0.05, 0.06, 0.03, 0.02, 344.13, 344.14, 0, 0, 3
 1229857860, 0.05, 0.05, 0.03, 0.02, 344.13, 344.13, 0, 0, 3
 1229957820, 0.05, 0.05, 0.04, 0.02, 344.13, 344.13, 0, 0, 3
 1230057780, 0.05, 0.05, 0.05, 0.02, 344.13, 344.13, 0, 0, 3
 1230157740, 0.05, 0.05, 0.06, 0.04, 344.13, 344.13, 0, 0, 3
 1230257700, 0.05, 0.05, 0.06, 0.05, 344.13, 344.13, 0, 0, 3
 1230357660, 0.05, 0.04, 0.06, 0.05, 344.13, 344.13, 0, 0, 3
 1230457620, 0.05, 0.04, 0.06, 0.05, 344.13, 344.13, 0, 0, 3
 1230557580, 0.05, 0.04, 0.07, 0.06, 344.13, 344.13, 0, 0, 3
 1230657540, 0.05, 0.04, 0.07, 0.06, 344.13, 344.13, 0, 0, 3
 1230757500, 0.05, 0.04, 0.07, 0.06, 344.13, 344.14, 0, 0, 3
 1230857460, 0.05, 0.03, 0.07, 0.07, 344.13, 344.15, 0, 0, 3
 1230957420, 0.05, 0.03, 0.07, 0.08, 344.13, 344.15, 0, 0, 3
 1231058213, 0.05, 0.03, 0.07, 0.08, 344.13, 344.16, 0, 0, 3
 1231158173, 0.06, 0.04, 0.07, 0.08, 344.13, 344.16, 0, 0, 3
 1231258133, 0.06, 0.04, 0.07, 0.07, 344.13, 344.16, 0, 0, 3
 1231358093, 0.06, 0.04, 0.06, 0.07, 344.13, 344.16, 0, 0, 3
 1231458053, 0.06, 0.05, 0.06, 0.06, 344.13, 344.15, 0, 0, 3
 1231558013, 0.06, 0.05, 0.06, 0.06, 344.13, 344.15, 0, 0, 3
 1231657973, 0.06, 0.05, 0.06, 0.06, 344.13, 344.14, 0, 0, 3
 1231757933, 0.06, 0.05, 0.06, 0.06, 344.13, 344.14, 0, 0, 3
 1231857893, 0.06, 0.05, 0.06, 0.05, 344.13, 344.13, 0, 0, 3
 1231957853, 0.06, 0.05, 0.06, 0.05, 344.13, 344.14, 0, 0, 3
 1232057813, 0.06, 0.05, 0.06, 0.05, 344.13, 344.14, 0, 0, 3
 1232157773, 0.07, 0.05, 0.07, 0.05, 344.13, 344.14, 0, 0, 3
 1232257733, 0.07, 0.06, 0.07, 0.06, 344.13, 344.14, 0, 0, 3
 1232357693, 0.07, 0.06, 0.07, 0.06, 344.13, 344.14, 0, 0, 3
 1232457653, 0.07, 0.06, 0.07, 0.06, 344.13, 344.15, 0, 0, 3
 1232557613, 0.07, 0.06, 0.07, 0.06, 344.13, 344.15, 0, 0, 3
 1232657573, 0.07, 0.06, 0.07, 0.06, 344.13, 344.15, 0, 0, 3
 1232757533, 0.07, 0.06, 0.07, 0.06, 344.13, 344.14, 0, 0, 3
 1232857493, 0.07, 0.06, 0.07, 0.07, 344.13, 344.14, 0, 0, 3
 1232957453, 0.07, 0.05, 0.07, 0.07, 344.13, 344.13, 0, 0, 3
 1233057413, 0.07, 0.06, 0.07, 0.06, 344.13, 344.13, 0, 0, 3
 1233158206, 0.08, 0.07, 0.08, 0.07, 344.13, 344.12, 0, 0, 3
 1233258166, 0.08, 0.07, 0.08, 0.07, 344.13, 344.12, 0, 0, 3
 1233358126, 0.09, 0.08, 0.09, 0.08, 344.13, 344.12, 0, 0, 3
 1233458086, 0.09, 0.09, 0.09, 0.07, 344.13, 344.12, 0, 0, 3
 1233558046, 0.1, 0.09, 0.1, 0.08, 344.13, 344.13, 0, 0, 3
 1233658006, 0.1, 0.09, 0.1, 0.09, 344.13, 344.13, 0, 0, 3
 1233757966, 0.1, 0.09, 0.12, 0.11, 344.13, 344.13, 0, 0, 3
 1233857926, 0.09, 0.08, 0.12, 0.11, 344.13, 344.13, 0, 0, 3
 1233957886, 0.09, 0.08, 0.13, 0.12, 344.13, 344.14, 0, 0, 3
 1234057846, 0.09, 0.07, 0.13, 0.12, 344.13, 344.15, 0, 0, 3
 1234157806, 0.09, 0.07, 0.13, 0.12, 344.13, 344.15, 0, 0, 3
 1234257766, 0.08, 0.07, 0.13, 0.12, 344.13, 344.16, 0, 0, 3
 1234357726, 0.08, 0.07, 0.13, 0.12, 344.13, 344.16, 0, 0, 3
 1234457686, 0.08, 0.07, 0.13, 0.12, 344.13, 344.16, 0, 0, 3
 1234557646, 0.08, 0.06, 0.13, 0.12, 344.13, 344.16, 0, 0, 3
 1234657606, 0.08, 0.06, 0.13, 0.12, 344.13, 344.16, 0, 0, 3
 1234757566, 0.08, 0.07, 0.13, 0.12, 344.13, 344.15, 0, 0, 3
 1234857526, 0.07, 0.06, 0.13, 0.12, 344.13, 344.15, 0, 0, 3
 1234957486, 0.07, 0.06, 0.13, 0.11, 344.13, 344.14, 0, 0, 3
 1235057446, 0.07, 0.06, 0.12, 0.11, 344.13, 344.14, 0, 0, 3
 1235158239, 0.07, 0.06, 0.12, 0.1, 344.13, 344.13, 0, 0, 3
 1235258199, 0.06, 0.06, 0.12, 0.1, 344.13, 344.13, 0, 0, 3
 1235358159, 0.06, 0.04, 0.12, 0.09, 344.13, 344.13, 0, 0, 3
 1235458119, 0.06, 0.03, 0.12, 0.08, 344.13, 344.12, 0, 0, 3
 1235558079, 0.07, 0.05, 0.12, 0.09, 344.13, 344.12, 0, 0, 3
 1235658039, 0.07, 0.06, 0.12, 0.1, 344.13, 344.12, 0, 0, 3
 1235757999, 0.07, 0.06, 0.12, 0.11, 344.13, 344.12, 0, 0, 3
 1235857959, 0.07, 0.06, 0.11, 0.11, 344.13, 344.13, 0, 0, 3
 1235957919, 0.07, 0.06, 0.1, 0.11, 344.13, 344.14, 0, 0, 3
 1236057879, 0.06, 0.06, 0.08, 0.09, 344.13, 344.15, 0, 0, 3
 1236157839, 0.06, 0.06, 0.08, 0.1, 344.13, 344.16, 0, 0, 3
 1236257799, 0.06, 0.06, 0.07, 0.09, 344.13, 344.16, 0, 0, 3
 1236357759, 0.06, 0.06, 0.07, 0.07, 344.13, 344.17, 0, 0, 3
 1236457719, 0.06, 0.06, 0.07, 0.06, 344.13, 344.18, 0, 0, 3
 1236557679, 0.06, 0.06, 0.07, 0.05, 344.13, 344.18, 0, 0, 3
 1236657639, 0.06, 0.06, 0.07, 0.04, 344.13, 344.19, 0, 0, 3
 1236757599, 0.06, 0.06, 0.09, 0.06, 344.13, 344.19, 0, 0, 3
 1236857559, 0.06, 0.06, 0.09, 0.08, 344.13, 344.19, 0, 0, 3
 1236957519, 0.06, 0.05, 0.09, 0.09, 344.13, 344.19, 0, 0, 3
 1237057479, 0.06, 0.05, 0.09, 0.1, 344.13, 344.19, 0, 0, 3
 1237157439, 0.06, 0.04, 0.09, 0.1, 344.13, 344.19, 0, 0, 3
 1237258232, 0.06, 0.04, 0.07, 0.1, 344.13, 344.19, 0, 0, 3
 1237358192, 0.07, 0.05, 0.07, 0.1, 344.13, 344.19, 0, 0, 3
 1237458152, 0.07, 0.06, 0.06, 0.09, 344.13, 344.19, 0, 0, 3
 1237558112, 0.07, 0.06, 0.06, 0.09, 344.13, 344.18, 0, 0, 3
 1237658072, 0.06, 0.06, 0.06, 0.08, 344.13, 344.18, 0, 0, 3
 1237758032, 0.05, 0.06, 0.06, 0.06, 344.13, 344.17, 0, 0, 3
 1237857992, 0.03, 0.04, 0.05, 0.05, 344.13, 344.17, 0, 0, 3
 1237957952, 0.03, 0.04, 0.05, 0.05, 344.13, 344.15, 0, 0, 3
 1238057912, 0.02, 0.02, 0.04, 0.04, 344.13, 344.14, 0, 0, 3
 1238157872, 0.02, 0.02, 0.04, 0.03, 344.13, 344.13, 0, 0, 3
 1238257832, 0.02, 0.01, 0.04, 0.02, 344.13, 344.12, 0, 0, 3
 1238357792, 0.02, 0.02, 0.04, 0.02, 344.13, 344.11, 0, 0, 3
 1238457752, 0.02, 0.02, 0.03, 0.01, 344.13, 344.1, 0, 0, 3
 1238557712, 0.02, 0.03, 0.03, 0.01, 344.13, 344.1, 0, 0, 3
 1238657672, 0.02, 0.03, 0.03, 0.01, 344.13, 344.1, 0, 0, 3
 1238757632, 0.03, 0.03, 0.03, 0.01, 344.13, 344.1, 0, 0, 3
 1238857592, 0.03, 0.03, 0.03, 0.02, 344.13, 344.1, 0, 0, 3
 1238957552, 0.04, 0.04, 0.04, 0.03, 344.13, 344.1, 0, 0, 3
 1239057512, 0.04, 0.04, 0.04, 0.04, 344.13, 344.11, 0, 0, 3
 1239157472, 0.04, 0.04, 0.04, 0.05, 344.13, 344.11, 0, 0, 3
 1239257432, 0.04, 0.04, 0.03, 0.05, 344.13, 344.12, 0, 0, 3
 1239358225, 0.04, 0.03, 0.03, 0.05, 344.13, 344.13, 0, 0, 3
 1239458185, 0.04, 0.03, 0.03, 0.05, 344.13, 344.13, 0, 0, 3
 1239558145, 0.05, 0.03, 0.03, 0.04, 344.13, 344.14, 0, 0, 3
 1239658105, 0.05, 0.04, 0.03, 0.04, 344.13, 344.14, 0, 0, 3
 1239758065, 0.06, 0.05, 0.04, 0.05, 344.13, 344.15, 0, 0, 3
 1239858025, 0.06, 0.05, 0.04, 0.05, 344.13, 344.15, 0, 0, 3
 1239957985, 0.06, 0.06, 0.04, 0.05, 344.13, 344.16, 0, 0, 3
 1240057945, 0.06, 0.07, 0.04, 0.04, 344.13, 344.16, 0, 0, 3
 1240157905, 0.06, 0.06, 0.04, 0.04, 344.13, 344.16, 0, 0, 3
 1240257865, 0.06, 0.06, 0.05, 0.04, 344.13, 344.16, 0, 0, 3
 1240357825, 0.06, 0.07, 0.06, 0.04, 344.13, 344.15, 0, 0, 3
 1240457785, 0.05, 0.07, 0.07, 0.05, 344.13, 344.15, 0, 0, 3
 1240557745, 0.05, 0.06, 0.07, 0.06, 344.13, 344.14, 0, 0, 3
 1240657705, 0.05, 0.05, 0.07, 0.06, 344.13, 344.13, 0, 0, 3
 1240757665, 0.05, 0.05, 0.07, 0.07, 344.13, 344.12, 0, 0, 3
 1240857625, 0.05, 0.05, 0.07, 0.07, 344.13, 344.12, 0, 0, 3
 1240957585, 0.05, 0.04, 0.08, 0.07, 344.13, 344.11, 0, 0, 3
 1241057545, 0.05, 0.04, 0.08, 0.06, 344.13, 344.11, 0, 0, 3
 1241157505, 0.05, 0.04, 0.08, 0.07, 344.13, 344.11, 0, 0, 3
 1241257465, 0.05, 0.03, 0.08, 0.06, 344.13, 344.1, 0, 0, 3
 1241357425, 0.05, 0.04, 0.09, 0.07, 344.13, 344.11, 0, 0, 3
 1241458218, 0.05, 0.04, 0.09, 0.08, 344.13, 344.11, 0, 0, 3
 1241558178, 0.06, 0.04, 0.09, 0.09, 344.13, 344.11, 0, 0, 3
 1241658138, 0.07, 0.05, 0.09, 0.09, 344.13, 344.12, 0, 0, 3
 1241758098, 0.09, 0.08, 0.09, 0.08, 344.13, 344.12, 0, 0, 3
 1241858058, 0.09, 0.08, 0.09, 0.07, 344.13, 344.13, 0, 0, 3
 1241958018, 0.1, 0.1, 0.09, 0.08, 344.13, 344.13, 0, 0, 3
 1242057978, 0.1, 0.11, 0.09, 0.08, 344.13, 344.14, 0, 0, 3
 1242157938, 0.11, 0.11, 0.1, 0.09, 344.13, 344.14, 0, 0, 3
 1242257898, 0.1, 0.11, 0.1, 0.09, 344.13, 344.14, 0, 0, 3
 1242357858, 0.12, 0.12, 0.13, 0.11, 344.13, 344.15, 0, 0, 3
 1242457818, 0.14, 0.14, 0.1, 0.1, 344.13, 344.15, 0, 0, 3
 1242557778, 0.23, 0.21, -0.08, -0.05, 344.13, 344.15, 0, 0, 3
 1242657738, 0.4, 0.37, -0.49, -0.44, 344.13, 344.15, 0, 0, 3
 1242757698, 0.63, 0.6, -1, -0.96, 344.12, 344.14, 0, 0, 3
 1242857658, 0.86, 0.84, -1.55, -1.53, 344.12, 344.13, 0, 0, 3
 1242957618, 1.09, 1.08, -2.06, -2.07, 344.11, 344.12, 0, 0, 3
 1243057578, 1.3, 1.3, -2.56, -2.57, 344.1, 344.1, 0, 0, 3
 1243157538, 1.51, 1.51, -3.02, -3.04, 344.09, 344.08, 0, 0, 3
 1243257498, 1.7, 1.7, -3.47, -3.5, 344.08, 344.06, 0, 0, 3
 1243357458, 1.9, 1.9, -3.91, -3.92, 344.06, 344.03, 0, 0, 3
 1243457418, 2.09, 2.09, -4.35, -4.35, 344.05, 343.99, 0, 0, 3
 1243558211, 2.29, 2.29, -4.77, -4.77, 344.03, 343.95, 0, 0, 3
 1243658171, 2.37, 2.48, -5.27, -5.21, 345.27, 343.92, 0, 0, 3
 1243758131, 2.16, 2.67, -5.89, -5.67, 349.22, 344.07, 0, 0, 3
 1243858091, 1.65, 2.79, -6.58, -6.18, 355.14, 344.84, 0, 0, 3
 1243958051, 1.05, 2.78, -7.21, -6.75, 0.95, 346.65, 0, 0, 3
 1244058011, 0.62, 2.59, -7.78, -7.37, 4.62, 349.64, 0, 0, 3
 1244157971, 0.38, 2.22, -8.34, -8.05, 6.5, 353.55, 0, 0.01, 3
 1244257931, 0.24, 1.67, -8.88, -8.73, 7.46, 358.07, 0, 0.02, 3
 1244357891, 0.18, 1.01, -9.46, -9.41, 7.95, 2.79, 0, 0.02, 3
 1244457851, 0.13, 0.25, -10.06, -10.05, 8.2, 7.49, 0, 0.03, 3
 1244557811, 0.11, -0.54, -10.67, -10.65, 8.33, 11.85, 0, 0.03, 3
 1244657771, 0.1, -1.31, -11.28, -11.2, 8.4, 15.62, 0, 0.04, 3
 1244757731, 0.09, -1.98, -11.87, -11.7, 8.43, 18.59, 0, 0.04, 3
 1244857691, 0.09, -2.49, -12.32, -12.09, 8.45, 20.64, 0, 0.03, 3
 1244957651, 0.09, -2.79, -12.62, -12.35, 8.45, 21.74, 0, 0.03, 3
 1245057611, 0.08, -2.89, -12.84, -12.55, 8.46, 21.94, 0, 0.03, 3
 1245157571, 0.09, -2.78, -12.98, -12.72, 8.46, 21.34, 0, 0.02, 3
 1245257531, 0.1, -2.49, -12.96, -12.77, 8.46, 20.04, 0, 0.02, 3
 1245357491, 0.12, -2.04, -12.82, -12.7, 8.46, 18.17, 0, 0.02, 3
 1245457451, 0.12, -1.5, -12.64, -12.57, 8.46, 15.89, 0, 0.02, 3
 1245557411, 0.12, -0.93, -12.49, -12.45, 8.46, 13.36, 0, 0.02, 3
 1245658204, 0.11, -0.36, -12.33, -12.32, 8.46, 10.71, 0, 0.02, 3
 1245758164, 0.09, 0.15, -12.25, -12.23, 8.46, 8.18, 0, 0.02, 3
 1245858124, 0.05, 0.59, -12.2, -12.16, 8.47, 5.93, 0, 0.02, 3
 1245958084, 0, 0.93, -12.14, -12.1, 8.47, 4.05, 0, 0.02, 3
 1246058044, -0.04, 1.16, -12.05, -11.99, 8.48, 2.64, 0, 0.02, 3
 1246158004, -0.09, 1.29, -11.94, -11.88, 8.48, 1.77, 0, 0.02, 3
 1246257964, -0.14, 1.29, -11.84, -11.79, 8.49, 1.44, 0, 0.01, 3
 1246357924, -0.18, 1.2, -11.7, -11.65, 8.49, 1.62, 0, 0.01, 3
 1246457884, -0.21, 1.02, -11.59, -11.56, 8.5, 2.25, 0, 0.01, 3
 1246557844, -0.23, 0.79, -11.48, -11.46, 8.5, 3.24, 0, 0.01, 3
 1246657804, -0.24, 0.53, -11.35, -11.35, 8.5, 4.5, 0, 0.01, 3
 1246757764, -0.23, 0.25, -11.19, -11.2, 8.5, 5.91, 0, 0.01, 3
 1246857724, -0.22, -0.02, -11.03, -11.04, 8.49, 7.36, 0, 0.01, 3
 1246957684, -0.19, -0.25, -10.83, -10.84, 8.49, 8.76, 0, 0.01, 3
 1247057644, -0.15, -0.45, -10.63, -10.62, 8.49, 10.01, 0, 0.01, 3
 1247157604, -0.11, -0.58, -10.4, -10.38, 8.48, 11.04, 0, 0.01, 3
 1247257564, -0.06, -0.66, -10.13, -10.13, 8.48, 11.81, 0, 0.01, 3
 1247357524, -0.01, -0.67, -9.85, -9.84, 8.47, 12.28, 0, 0.01, 3
 1247457484, 0.02, -0.64, -9.71, -9.68, 8.47, 12.46, 0, 0.01, 3
 1247557444, 0.05, -0.59, -9.71, -9.66, 8.47, 12.36, 0, 0.01, 3
 1247658237, 0.08, -0.52, -9.84, -9.79, 8.47, 12.01, 0, 0, 3
 1247758197, 0.1, -0.41, -9.95, -9.92, 8.46, 11.46, 0, 0, 3
 1247858157, 0.12, -0.28, -10.11, -10.09, 8.46, 10.76, 0, 0, 3
 1247958117, 0.13, -0.14, -10.23, -10.23, 8.46, 9.98, 0, 0, 3
 1248058077, 0.13, 0, -10.32, -10.33, 8.46, 9.17, 0, 0, 3
 1248158037, 0.12, 0.13, -10.35, -10.37, 8.46, 8.38, 0, 0, 3
 1248257997, 0.1, 0.24, -10.38, -10.39, 8.46, 7.68, 0, 0, 3
 1248357957, 0.09, 0.33, -10.37, -10.39, 8.46, 7.08, 0, 0, 3
 1248457917, 0.06, 0.39, -10.36, -10.36, 8.47, 6.64, 0, 0, 3
 1248557877, 0.04, 0.42, -10.35, -10.36, 8.47, 6.37, 0, 0, 3
 1248657837, 0.01, 0.41, -10.35, -10.36, 8.47, 6.26, 0, 0, 3
 1248757797, 0, 0.38, -10.31, -10.32, 8.47, 6.32, 0, 0, 3
 1248857757, -0.01, 0.33, -10.28, -10.28, 8.47, 6.51, 0, 0, 3
 1248957717, 0, 0.26, -10.24, -10.24, 8.47, 6.82, 0, 0, 3
 1249057677, 0, 0.2, -10.21, -10.22, 8.47, 7.22, 0, 0, 3
 1249157637, 0, 0.14, -10.16, -10.18, 8.47, 7.66, 0, 0, 3
 1249257597, 0.01, 0.07, -10.15, -10.16, 8.47, 8.12, 0, 0, 3
 1249357557, 0.03, 0, -10.09, -10.11, 8.47, 8.56, 0, 0, 3
 1249457517, 0.05, -0.05, -10.05, -10.05, 8.47, 8.96, 0, 0, 3
 1249557477, 0.07, -0.07, -10, -10.01, 8.47, 9.29, 0, 0, 3
 1249657437, 0.08, -0.09, -9.95, -9.96, 8.47, 9.54, 0, 0, 3
 1249758230, 0.1, -0.1, -9.9, -9.91, 8.46, 9.7, 0, 0, 3
 1249858190, 0.11, -0.09, -9.84, -9.85, 8.46, 9.76, 0, 0, 3
 1249958150, 0.12, -0.07, -9.84, -9.84, 8.46, 9.74, 0, 0, 3
 1250058110, 0.12, -0.06, -9.87, -9.86, 8.46, 9.63, 0, 0, 3
 1250158070, 0.13, -0.03, -9.85, -9.85, 8.46, 9.46, 0, 0, 3
 1250258030, 0.14, 0, -9.82, -9.83, 8.46, 9.23, 0, 0, 3
 1250357990, 0.15, 0.05, -9.79, -9.8, 8.46, 8.98, 0, 0, 3
 1250457950, 0.14, 0.1, -9.76, -9.77, 8.46, 8.71, 0, 0, 3
 1250557910, 0.15, 0.14, -9.72, -9.72, 8.46, 8.46, 0, 0, 3
 1250657870, 0.14, 0.17, -9.72, -9.72, 8.46, 8.23, 0, 0, 3
 1250757830, 0.13, 0.2, -9.72, -9.71, 8.46, 8.03, 0, 0, 3
 1250857790, 0.1, 0.2, -9.72, -9.72, 8.46, 7.89, 0, 0, 3
 1250957750, 0.1, 0.2, -9.71, -9.71, 8.46, 7.8, 0, 0, 3
 1251057710, 0.08, 0.19, -9.72, -9.72, 8.47, 7.76, 0, 0, 3
 1251157670, 0.08, 0.18, -9.71, -9.72, 8.47, 7.78, 0, 0, 3
 1251257630, 0.07, 0.16, -9.72, -9.72, 8.47, 7.85, 0, 0, 3
 1251357590, 0.08, 0.15, -9.74, -9.74, 8.47, 7.95, 0, 0, 3
 1251457550, 0.07, 0.14, -9.74, -9.75, 8.47, 8.07, 0, 0, 3
 1251557510, 0.07, 0.12, -9.72, -9.74, 8.47, 8.22, 0, 0, 3
 1251657470, 0.07, 0.09, -9.72, -9.74, 8.47, 8.36, 0, 0, 3
 1251757430, 0.07, 0.07, -9.69, -9.7, 8.47, 8.51, 0, 0, 3
 1251858223, 0.07, 0.04, -9.68, -9.69, 8.47, 8.63, 0, 0, 3
 1251958183, 0.07, 0.02, -9.66, -9.67, 8.47, 8.74, 0, 0, 3
 1252058143, 0.07, 0.01, -9.71, -9.71, 8.47, 8.82, 0, 0, 3
 1252158103, 0.07, 0, -9.79, -9.79, 8.47, 8.87, 0, 0, 3
 1252258063, 0.07, 0, -9.83, -9.86, 8.47, 8.88, 0, 0, 3
 1252358023, 0.08, 0.01, -9.84, -9.87, 8.47, 8.87, 0, 0, 3
 1252457983, 0.08, 0.01, -9.85, -9.87, 8.47, 8.83, 0, 0, 3
 1252557943, 0.08, 0.02, -9.84, -9.86, 8.47, 8.77, 0, 0, 3
 1252657903, 0.08, 0.02, -9.87, -9.85, 8.47, 8.69, 0, 0, 3
 1252757863, 0.09, 0.05, -9.89, -9.87, 8.46, 8.61, 0, 0, 3
 1252857823, 0.09, 0.07, -9.91, -9.89, 8.47, 8.53, 0, 0, 3
 1252957783, 0.09, 0.09, -9.91, -9.9, 8.47, 8.45, 0, 0, 3
 1253057743, 0.07, 0.1, -9.92, -9.91, 8.47, 8.38, 0, 0, 3
 1253157703, 0.06, 0.1, -9.91, -9.91, 8.47, 8.32, 0, 0, 3
 1253257663, 0.05, 0.09, -9.91, -9.92, 8.47, 8.28, 0, 0, 3
 1253357623, 0.05, 0.09, -9.91, -9.92, 8.47, 8.26, 0, 0, 3
 1253457583, 0.04, 0.08, -9.91, -9.92, 8.47, 8.26, 0, 0, 3
 1253557543, 0.04, 0.07, -9.89, -9.89, 8.47, 8.28, 0, 0, 3
 1253657503, 0.03, 0.06, -9.88, -9.88, 8.47, 8.31, 0, 0, 3
 1253757463, 0.04, 0.06, -9.87, -9.87, 8.47, 8.35, 0, 0, 3
 1253857423, 0.04, 0.05, -9.84, -9.83, 8.47, 8.39, 0, 0, 3
 1253958216, 0.04, 0.05, -9.79, -9.79, 8.47, 8.44, 0, 0, 3
 1254058176, 0.04, 0.04, -9.79, -9.78, 8.47, 8.48, 0, 0, 3
 1254158136, 0.04, 0.04, -9.81, -9.8, 8.47, 8.52, 0, 0, 3
 1254258096, 0.04, 0.03, -9.85, -9.85, 8.47, 8.54, 0, 0, 3
 1254358056, 0.05, 0.04, -9.83, -9.84, 8.47, 8.57, 0, 0, 3
 1254458016, 0.05, 0.06, -9.82, -9.83, 8.47, 8.58, 0, 0, 3
 1254557976, 0.05, 0.07, -9.81, -9.81, 8.47, 8.59, 0, 0, 3
 1254657936, 0.04, 0.07, -9.78, -9.79, 8.47, 8.59, 0, 0, 3
 1254757896, 0.04, 0.06, -9.77, -9.77, 8.47, 8.58, 0, 0, 3
 1254857856, 0.03, 0.05, -9.78, -9.78, 8.47, 8.56, 0, 0, 3
 1254957816, 0.03, 0.03, -9.78, -9.78, 8.47, 8.53, 0, 0, 3
 1255057776, 0.04, 0.03, -9.78, -9.79, 8.47, 8.51, 0, 0, 3
 1255157736, 0.06, 0.04, -9.78, -9.79, 8.47, 8.48, 0, 0, 3
 1255257696, 0.06, 0.04, -9.79, -9.79, 8.47, 8.46, 0, 0, 3
 1255357656, 0.06, 0.05, -9.78, -9.79, 8.47, 8.44, 0, 0, 3
 1255457616, 0.07, 0.06, -9.8, -9.81, 8.47, 8.42, 0, 0, 3
 1255557576, 0.07, 0.06, -9.81, -9.82, 8.47, 8.41, 0, 0, 3
 1255657536, 0.07, 0.07, -9.8, -9.81, 8.47, 8.41, 0, 0, 3
 1255757496, 0.08, 0.07, -9.79, -9.79, 8.47, 8.41, 0, 0, 3
 1255857456, 0.08, 0.07, -9.78, -9.79, 8.47, 8.42, 0, 0, 3
 1255957416, 0.09, 0.07, -9.76, -9.76, 8.47, 8.43, 0, 0, 3
 1256058209, 0.09, 0.07, -9.72, -9.72, 8.47, 8.45, 0, 0, 3
 1256158169, 0.1, 0.07, -9.73, -9.71, 8.46, 8.46, 0, 0, 3
 1256258129, 0.1, 0.07, -9.76, -9.73, 8.46, 8.48, 0, 0, 3
 1256358089, 0.11, 0.08, -9.79, -9.78, 8.46, 8.49, 0, 0, 3
 1256458049, 0.12, 0.08, -9.79, -9.79, 8.46, 8.5, 0, 0, 3
 1256558009, 0.12, 0.09, -9.78, -9.78, 8.46, 8.51, 0, 0, 3
 1256657969, 0.12, 0.1, -9.78, -9.78, 8.46, 8.51, 0, 0, 3
 1256757929, 0.13, 0.11, -9.75, -9.76, 8.46, 8.5, 0, 0, 3
 1256857889, 0.12, 0.12, -9.77, -9.77, 8.46, 8.49, 0, 0, 3
 1256957849, 0.11, 0.12, -9.81, -9.81, 8.46, 8.48, 0, 0, 3
 1257057809, 0.1, 0.11, -9.84, -9.84, 8.46, 8.47, 0, 0, 3
 1257157769, 0.09, 0.1, -9.87, -9.86, 8.46, 8.47, 0, 0, 3
 1257257729, 0.09, 0.09, -9.88, -9.89, 8.47, 8.47, 0, 0, 3
 1257357689, 0.09, 0.09, -9.89, -9.9, 8.47, 8.47, 0, 0, 3
 1257457649, 0.09, 0.08, -9.9, -9.91, 8.47, 8.47, 0, 0, 3
 1257557609, 0.09, 0.08, -9.93, -9.93, 8.46, 8.47, 0, 0, 3
 1257657569, 0.09, 0.08, -9.94, -9.95, 8.47, 8.48, 0, 0, 3
 1257757529, 0.09, 0.08, -9.92, -9.93, 8.47, 8.48, 0, 0, 3
 1257857489, 0.08, 0.08, -9.91, -9.92, 8.47, 8.48, 0, 0, 3
 1257957449, 0.08, 0.07, -9.89, -9.91, 8.47, 8.48, 0, 0, 3
 1258057409, 0.08, 0.07, -9.88, -9.89, 8.47, 8.48, 0, 0, 3
 1258158202, 0.08, 0.07, -9.83, -9.85, 8.47, 8.47, 0, 0, 3
 1258258162, 0.08, 0.07, -9.85, -9.85, 8.47, 8.47, 0, 0, 3
 1258358122, 0.09, 0.08, -9.87, -9.88, 8.47, 8.46, 0, 0, 3
 1258458082, 0.09, 0.08, -9.89, -9.9, 8.47, 8.46, 0, 0, 3
 1258558042, 0.09, 0.08, -9.87, -9.88, 8.47, 8.45, 0, 0, 3
 1258658002, 0.08, 0.08, -9.86, -9.87, 8.47, 8.45, 0, 0, 3
 1258757962, 0.09, 0.08, -9.84, -9.85, 8.47, 8.45, 0, 0, 3
 1258857922, 0.08, 0.08, -9.8, -9.82, 8.47, 8.44, 0, 0, 3
 1258957882, 0.08, 0.08, -9.8, -9.81, 8.47, 8.45, 0, 0, 3
 1259057842, 0.08, 0.08, -9.8, -9.81, 8.47, 8.45, 0, 0, 3
 1259157802, 0.09, 0.09, -9.8, -9.8, 8.46, 8.46, 0, 0, 3
 1259257762, 0.09, 0.08, -9.8, -9.81, 8.46, 8.47, 0, 0, 3
 1259357722, 0.09, 0.09, -9.79, -9.8, 8.46, 8.47, 0, 0, 3
 1259457682, 0.09, 0.08, -9.79, -9.79, 8.47, 8.48, 0, 0, 3
 1259557642, 0.09, 0.08, -9.78, -9.79, 8.47, 8.48, 0, 0, 3
 1259657602, 0.09, 0.08, -9.81, -9.81, 8.47, 8.48, 0, 0, 3
 1259757562, 0.09, 0.08, -9.8, -9.81, 8.46, 8.48, 0, 0, 3
 1259857522, 0.09, 0.08, -9.8, -9.8, 8.46, 8.48, 0, 0, 3
 1259957482, 0.1, 0.09, -9.79, -9.8, 8.46, 8.47, 0, 0, 3
 1260057442, 0.1, 0.09, -9.77, -9.78, 8.46, 8.47, 0, 0, 3
 1260158235, 0.1, 0.1, -9.76, -9.77, 8.46, 8.47, 0, 0, 3
 1260258195, 0.1, 0.1, -9.72, -9.73, 8.46, 8.46, 0, 0, 3
 1260358155, 0.11, 0.1, -9.73, -9.73, 8.46, 8.46, 0, 0, 3
 1260458115, 0.11, 0.1, -9.77, -9.77, 8.46, 8.45, 0, 0, 3
 1260558075, 0.11, 0.11, -9.78, -9.79, 8.46, 8.45, 0, 0, 3
 1260658035, 0.1, 0.12, -9.78, -9.8, 8.46, 8.45, 0, 0, 3
 1260757995, 0.1, 0.12, -9.75, -9.78, 8.46, 8.45, 0, 0, 3
 1260857955, 0.08, 0.1, -9.73, -9.75, 8.47, 8.44, 0, 0, 3
 1260957915, 0.09, 0.08, -9.7, -9.7, 8.47, 8.44, 0, 0, 3
 1261057875, 0.09, 0.07, -9.71, -9.69, 8.47, 8.44, 0, 0, 3
 1261157835, 0.1, 0.07, -9.71, -9.69, 8.46, 8.44, 0, 0, 3
 1261257795, 0.11, 0.08, -9.72, -9.7, 8.46, 8.44, 0, 0, 3
 1261357755, 0.13, 0.09, -9.72, -9.7, 8.46, 8.44, 0, 0, 3
 1261457715, 0.13, 0.09, -9.73, -9.71, 8.46, 8.43, 0, 0, 3
 1261557675, 0.13, 0.1, -9.72, -9.71, 8.46, 8.43, 0, 0, 3
 1261657635, 0.13, 0.11, -9.74, -9.73, 8.46, 8.43, 0, 0, 3
 1261757595, 0.13, 0.11, -9.76, -9.76, 8.46, 8.43, 0, 0, 3
 1261857555, 0.12, 0.12, -9.77, -9.78, 8.46, 8.43, 0, 0, 3
 1261957515, 0.12, 0.12, -9.75, -9.79, 8.46, 8.44, 0, 0, 3
 1262057475, 0.11, 0.12, -9.75, -9.78, 8.46, 8.44, 0, 0, 3
 1262157435, 0.11, 0.13, -9.71, -9.73, 8.46, 8.44, 0, 0, 3
 1262258228, 0.1, 0.13, -9.7, -9.71, 8.46, 8.45, 0, 0, 3
 1262358188, 0.1, 0.12, -9.68, -9.69, 8.46, 8.45, 0, 0, 3
 1262458148, 0.08, 0.1, -9.73, -9.73, 8.47, 8.46, 0, 0, 3
 1262558108, 0.08, 0.09, -9.81, -9.81, 8.47, 8.47, 0, 0, 3
 1262658068, 0.07, 0.08, -9.86, -9.86, 8.47, 8.47, 0, 0, 3
 1262758028, 0.07, 0.08, -9.85, -9.86, 8.47, 8.48, 0, 0, 3
 1262857988, 0.07, 0.08, -9.69, -9.72, 8.47, 8.48, 0, 0, 3
 1262957948, 0.08, 0.08, -9.31, -9.36, 8.47, 8.48, 0, 0, 3
 1263057908, 0.08, 0.07, -8.8, -8.85, 8.47, 8.48, 0, 0, 3
 1263157868, 0.09, 0.08, -8.26, -8.29, 8.47, 8.48, 0, 0, 3
 1263257828, 0.09, 0.08, -7.71, -7.73, 8.47, 8.48, 0, 0, 3
 1263357788, 0.09, 0.08, -7.13, -7.14, 8.47, 8.48, 0, 0, 3
 1263457748, 0.08, 0.08, -6.54, -6.55, 8.47, 8.48, 0, 0, 3
 1263557708, 0.09, 0.09, -5.93, -5.93, 8.47, 8.48, 0, 0, 3
 1263657668, 0.09, 0.09, -5.3, -5.31, 8.47, 8.47, 0, 0, 3
 1263757628, 0.11, 0.11, -4.6, -4.62, 8.47, 8.47, 0, 0, 3
 1263857588, 0.18, 0.18, -3.73, -3.79, 8.5, 8.46, 0, 0, 3
 1263957548, 0.34, 0.33, -2.57, -2.65, 8.57, 8.47, 0, 0, 3
 1264057508, 0.55, 0.54, -1.24, -1.31, 8.7, 8.49, 0, 0, 3
 1264157468, 0.79, 0.78, 0.18, 0.13, 8.89, 8.55, 0, 0, 3
 1264257428, 1.04, 1.02, 1.66, 1.63, 9.17, 8.64, 0, 0, 3
 1264358221, 1.32, 1.28, 3.2, 3.19, 9.53, 8.79, 0, 0, 3
 1264458181, 1.64, 1.55, 4.76, 4.77, 10.02, 9.01, 0, 0, 3
 1264558141, 2.01, 1.86, 6.38, 6.4, 10.65, 9.33, 0, 0, 3
 1264658101, 2.44, 2.19, 8.02, 8.06, 11.47, 9.76, 0, 0, 3
 1264758061, 2.99, 2.59, 9.72, 9.8, 12.57, 10.34, 0, 0, 3
 1264858021, 3.68, 3.07, 11.4, 11.56, 14.05, 11.12, 0, 0, 3
 1264957981, 4.58, 3.67, 13.01, 13.3, 16.09, 12.16, 0, 0, 3
 1265057941, 5.78, 4.4, 14.32, 14.85, 19.01, 13.54, 0.01, 0, 3
 1265157901, 7.49, 5.31, 15.23, 16.16, 23.38, 15.38, 0.01, 0, 3
 1265257861, 9.79, 6.49, 15.53, 17.2, 29.55, 17.92, 0, 0, 3
 1265357821, 12.19, 8.03, 15.35, 17.91, 35.86, 21.41, 0, 0, 3
 1265457781, 14.51, 9.91, 14.64, 18.11, 42.07, 25.91, 0, 0, 3
 1265557741, 16.69, 12.12, 13.51, 17.78, 48.16, 31.36, 0, 0.01, 3
 1265657701, 18.67, 14.53, 12.01, 16.87, 54.13, 37.64, 0, 0.01, 3
 1265757661, 20.44, 17.02, 10.22, 15.39, 59.97, 44.6, 0, 0.01, 3
 1265857621, 21.87, 19.35, 8.15, 13.25, 65.68, 52.06, 0, 0.01, 3
 1265957581, 22.98, 21.38, 5.87, 10.52, 71.27, 59.87, 0, 0.02, 3
 1266057541, 23.72, 22.92, 3.42, 7.26, 76.77, 67.88, 0, 0.02, 3
 1266157501, 24.2, 23.97, 0.89, 3.66, 82.21, 76.02, 0, 0.02, 3
 1266257461, 24.38, 24.45, -1.68, -0.14, 87.63, 84.21, 0, 0.02, 3
 1266357421, 24.25, 24.32, -4.26, -3.97, 93.06, 92.39, 0, 0.02, 3
 1266458214, 23.69, 23.48, -6.75, -7.65, 98.54, 100.54, 0.01, 0.02, 3
 1266558174, 22.78, 22.05, -9.13, -10.94, 104.1, 108.46, 0.01, 0.02, 3
 1266658134, 21.54, 20.19, -11.38, -13.76, 109.76, 116.05, 0.01, 0.02, 3
 1266758094, 20.06, 18.05, -13.53, -16.18, 115.5, 123.34, 0.01, 0.02, 3
 1266858054, 18.3, 15.73, -15.52, -18.15, 121.34, 130.21, 0.01, 0.02, 3
 1266958014, 16.33, 13.35, -17.37, -19.73, 127.29, 136.62, 0.01, 0.02, 3
 1267057974, 14.17, 10.99, -19.07, -21.01, 133.35, 142.58, 0.01, 0.02, 3
 1267157934, 11.82, 8.66, -20.57, -22.02, 139.53, 148.16, 0.01, 0.02, 3
 1267257894, 9.33, 6.43, -21.89, -22.85, 145.82, 153.33, 0.01, 0.02, 3
 1267357854, 6.71, 4.3, -23, -23.53, 152.2, 158.23, 0.01, 0.02, 3
 1267457814, 3.98, 2.21, -23.84, -24.05, 158.67, 162.96, 0.01, 0.02, 3
 1267557774, 1.92, 0.17, -24.37, -24.44, 163.43, 167.61, 0.01, 0.01, 3
 1267657734, 0.88, -1.73, -24.73, -24.69, 165.88, 172.08, 0.01, 0.01, 3
 1267757694, 0.46, -3.35, -25.03, -24.83, 167.11, 176.06, 0.01, 0.01, 3
 1267857654, 0.4, -4.57, -25.28, -24.91, 167.7, 179.31, 0.01, 0.01, 3
 1267957614, 0.49, -5.39, -25.51, -24.99, 167.97, 181.68, 0.01, 0.01, 3
 1268057574, 0.66, -5.82, -25.71, -25.11, 168.08, 183.11, 0, 0.01, 3
 1268157534, 0.84, -5.87, -25.87, -25.27, 168.12, 183.62, 0, 0.01, 3
 1268257494, 1.02, -5.59, -26.05, -25.52, 168.11, 183.29, 0, 0.01, 3
 1268357454, 1.18, -5.01, -26.22, -25.82, 168.1, 182.21, 0, 0, 3
 1268457414, 1.32, -4.17, -26.42, -26.16, 168.07, 180.48, 0, 0, 3
 1268558207, 1.41, -3.12, -26.64, -26.51, 168.05, 178.2, 0, 0, 3
 1268658167, 1.45, -1.93, -26.94, -26.9, 168.04, 175.57, 0, 0, 3
 1268758127, 1.43, -0.69, -27.27, -27.28, 168.04, 172.74, 0, 0, 3
 1268858087, 1.33, 0.54, -27.58, -27.6, 168.07, 169.82, 0, 0, 3
 1268958047, 1.14, 1.67, -27.81, -27.8, 168.11, 167.02, 0, 0, 3
 1269058007, 0.88, 2.61, -27.98, -27.9, 168.17, 164.54, 0, 0, 3
 1269157967, 0.57, 3.31, -28.1, -27.95, 168.25, 162.47, 0, 0, 3
 1269257927, 0.25, 3.72, -28.13, -27.93, 168.33, 160.97, 0, 0, 3
 1269357887, -0.05, 3.88, -28.16, -27.94, 168.41, 160.06, 0, 0, 3
 1269457847, -0.34, 3.76, -28.16, -27.95, 168.48, 159.76, 0, 0, 3
 1269557807, -0.59, 3.41, -28.11, -27.94, 168.54, 160.02, 0, 0, 3
 1269657767, -0.8, 2.85, -28.05, -27.94, 168.59, 160.78, 0, 0, 3
 1269757727, -0.96, 2.15, -27.96, -27.91, 168.63, 161.96, 0, 0, 3
 1269857687, -1.06, 1.34, -27.86, -27.86, 168.66, 163.45, 0, 0, 3
 1269957647, -1.1, 0.51, -27.73, -27.76, 168.67, 165.14, 0, 0, 3
 1270057607, -1.07, -0.28, -27.63, -27.65, 168.66, 166.9, 0, 0, 3
 1270157567, -0.97, -0.99, -27.45, -27.47, 168.63, 168.61, 0, 0, 3
 1270257527, -0.82, -1.56, -27.22, -27.21, 168.59, 170.17, 0, 0, 3
 1270357487, -0.61, -1.97, -26.97, -26.92, 168.54, 171.48, 0, 0, 3
 1270457447, -0.37, -2.19, -26.75, -26.67, 168.48, 172.49, 0, 0, 3
 1270558240, -0.14, -2.27, -26.69, -26.57, 168.43, 173.16, 0, 0, 3
 1270658200, 0.09, -2.19, -26.67, -26.56, 168.37, 173.47, 0, 0, 3
 1270758160, 0.29, -2, -26.78, -26.68, 168.32, 173.43, 0, 0, 3
 1270858120, 0.47, -1.69, -26.92, -26.86, 168.28, 173.07, 0, 0, 3
 1270958080, 0.6, -1.28, -27.02, -26.99, 168.25, 172.44, 0, 0, 3
 1271058040, 0.7, -0.81, -27.07, -27.07, 168.22, 171.59, 0, 0, 3
 1271158000, 0.74, -0.32, -27.1, -27.11, 168.21, 170.6, 0, 0, 3
 1271257960, 0.74, 0.16, -27.14, -27.16, 168.21, 169.53, 0, 0, 3
 1271357920, 0.69, 0.6, -27.14, -27.15, 168.23, 168.47, 0, 0, 3
 1271457880, 0.6, 0.97, -27.19, -27.19, 168.25, 167.49, 0, 0, 3
 1271557840, 0.49, 1.25, -27.23, -27.22, 168.27, 166.64, 0, 0, 3
 1271657800, 0.36, 1.44, -27.27, -27.24, 168.31, 165.96, 0, 0, 3
 1271757760, 0.22, 1.54, -27.29, -27.26, 168.34, 165.48, 0, 0, 3
 1271857720, 0.08, 1.54, -27.31, -27.29, 168.37, 165.22, 0, 0, 3
 1271957680, -0.03, 1.44, -27.33, -27.31, 168.4, 165.18, 0, 0, 3
 1272057640, -0.14, 1.26, -27.35, -27.34, 168.43, 165.35, 0, 0, 3
 1272157600, -0.23, 1.03, -27.41, -27.4, 168.45, 165.69, 0, 0, 3
 1272257560, -0.29, 0.76, -27.44, -27.44, 168.47, 166.18, 0, 0, 3
 1272357520, -0.32, 0.47, -27.45, -27.45, 168.47, 166.76, 0, 0, 3
 1272457480, -0.31, 0.17, -27.47, -27.48, 168.47, 167.41, 0, 0, 3
 1272557440, -0.28, -0.09, -27.46, -27.47, 168.46, 168.06, 0, 0, 3
 1272658233, -0.23, -0.33, -27.46, -27.48, 168.45, 168.68, 0, 0, 3
 1272758193, -0.14, -0.52, -27.41, -27.41, 168.43, 169.23, 0, 0, 3
 1272858153, -0.05, -0.63, -27.46, -27.44, 168.41, 169.67, 0, 0, 3
 1272958113, 0.04, -0.7, -27.58, -27.55, 168.38, 170, 0, 0, 3
 1273058073, 0.13, -0.71, -27.66, -27.65, 168.36, 170.19, 0, 0, 3
 1273158033, 0.22, -0.66, -27.72, -27.7, 168.34, 170.25, 0, 0, 3
 1273257993, 0.3, -0.56, -27.75, -27.75, 168.32, 170.18, 0, 0, 3
 1273357953, 0.36, -0.41, -27.77, -27.77, 168.3, 169.99, 0, 0, 3
 1273457913, 0.41, -0.24, -27.78, -27.78, 168.29, 169.72, 0, 0, 3
 1273557873, 0.44, -0.05, -27.82, -27.81, 168.28, 169.37, 0, 0, 3
 1273657833, 0.44, 0.13, -27.84, -27.83, 168.28, 168.98, 0, 0, 3
 1273757793, 0.43, 0.3, -27.87, -27.85, 168.29, 168.58, 0, 0, 3
 1273857753, 0.4, 0.46, -27.89, -27.87, 168.29, 168.19, 0, 0, 3
 1273957713, 0.35, 0.58, -27.9, -27.88, 168.31, 167.84, 0, 0, 3
 1274057673, 0.29, 0.66, -27.91, -27.89, 168.32, 167.54, 0, 0, 3
 1274157633, 0.23, 0.71, -27.92, -27.9, 168.33, 167.32, 0, 0, 3
 1274257593, 0.18, 0.73, -27.97, -27.95, 168.35, 167.17, 0, 0, 3
 1274357553, 0.13, 0.7, -27.96, -27.96, 168.36, 167.11, 0, 0, 3
 1274457513, 0.08, 0.65, -27.96, -27.95, 168.37, 167.14, 0, 0, 3
 1274557473, 0.05, 0.56, -27.96, -27.95, 168.38, 167.24, 0, 0, 3
 1274657433, 0.02, 0.46, -27.92, -27.92, 168.39, 167.4, 0, 0, 3
 1274758226, 0.01, 0.36, -27.89, -27.9, 168.39, 167.61, 0, 0, 3
 1274858186, 0, 0.25, -27.86, -27.85, 168.39, 167.85, 0, 0, 3
 1274958146, 0, 0.14, -27.9, -27.89, 168.39, 168.1, 0, 0, 3
 1275058106, 0.02, 0.02, -27.97, -27.96, 168.39, 168.34, 0, 0, 3
 1275158066, 0.05, -0.05, -27.98, -27.99, 168.38, 168.57, 0, 0, 3
 1275258026, 0.09, -0.1, -27.98, -27.99, 168.37, 168.76, 0, 0, 3
 1275357986, 0.14, -0.13, -27.97, -27.98, 168.36, 168.91, 0, 0, 3
 1275457946, 0.18, -0.14, -27.94, -27.95, 168.35, 169.01, 0, 0, 3
 1275557906, 0.22, -0.13, -27.93, -27.93, 168.34, 169.05, 0, 0, 3
 1275657866, 0.26, -0.09, -27.94, -27.95, 168.33, 169.05, 0, 0, 3
 1275757826, 0.3, -0.03, -27.96, -27.95, 168.32, 169, 0, 0, 3
 1275857786, 0.32, 0.03, -27.97, -27.96, 168.31, 168.9, 0, 0, 3
 1275957746, 0.33, 0.11, -27.97, -27.97, 168.31, 168.78, 0, 0, 3
 1276057706, 0.34, 0.19, -27.98, -27.97, 168.31, 168.64, 0, 0, 3
 1276157666, 0.34, 0.27, -27.98, -27.98, 168.31, 168.48, 0, 0, 3
 1276257626, 0.32, 0.33, -28, -27.99, 168.31, 168.33, 0, 0, 3
 1276357586, 0.3, 0.38, -28.05, -28.05, 168.32, 168.19, 0, 0, 3
 1276457546, 0.27, 0.42, -28.04, -28.05, 168.32, 168.07, 0, 0, 3
 1276557506, 0.25, 0.43, -28.03, -28.04, 168.33, 167.97, 0, 0, 3
 1276657466, 0.22, 0.43, -28.03, -28.02, 168.34, 167.9, 0, 0, 3
 1276757426, 0.19, 0.42, -27.98, -27.97, 168.34, 167.87, 0, 0, 3
 1276858219, 0.17, 0.39, -27.93, -27.93, 168.35, 167.87, 0, 0, 3
 1276958179, 0.15, 0.36, -27.91, -27.9, 168.35, 167.9, 0, 0, 3
 1277058139, 0.13, 0.32, -27.95, -27.93, 168.36, 167.96, 0, 0, 3
 1277158099, 0.13, 0.26, -28.01, -27.99, 168.36, 168.03, 0, 0, 3
 1277258059, 0.13, 0.22, -28.01, -28.02, 168.36, 168.12, 0, 0, 3
 1277358019, 0.14, 0.19, -27.98, -28.01, 168.36, 168.21, 0, 0, 3
 1277457979, 0.14, 0.16, -27.97, -28, 168.36, 168.31, 0, 0, 3
 1277557939, 0.16, 0.13, -27.92, -27.94, 168.35, 168.39, 0, 0, 3
 1277657899, 0.16, 0.1, -27.93, -27.94, 168.35, 168.47, 0, 0, 3
 1277757859, 0.17, 0.09, -27.99, -27.98, 168.35, 168.53, 0, 0, 3
 1277857819, 0.18, 0.07, -28.05, -28.02, 168.35, 168.57, 0, 0, 3
 1277957779, 0.2, 0.08, -28.11, -28.09, 168.34, 168.6, 0, 0, 3
 1278057739, 0.21, 0.09, -28.14, -28.13, 168.34, 168.61, 0, 0, 3
 1278157699, 0.22, 0.1, -28.17, -28.17, 168.34, 168.59, 0, 0, 3
 1278257659, 0.23, 0.13, -28.19, -28.19, 168.33, 168.56, 0, 0, 3
 1278357619, 0.24, 0.16, -28.23, -28.23, 168.33, 168.52, 0, 0, 3
 1278457579, 0.25, 0.19, -28.27, -28.27, 168.33, 168.46, 0, 0, 3
 1278557539, 0.25, 0.21, -28.26, -28.28, 168.33, 168.4, 0, 0, 3
 1278657499, 0.25, 0.24, -28.26, -28.27, 168.33, 168.33, 0, 0, 3
 1278757459, 0.25, 0.27, -28.24, -28.26, 168.33, 168.27, 0, 0, 3
 1278857419, 0.25, 0.3, -28.21, -28.22, 168.33, 168.22, 0, 0, 3
 1278958212, 0.25, 0.31, -28.14, -28.16, 168.33, 168.18, 0, 0, 3
 1279058172, 0.23, 0.32, -28.15, -28.15, 168.33, 168.15, 0, 0, 3
 1279158132, 0.22, 0.32, -28.18, -28.17, 168.34, 168.13, 0, 0, 3
 1279258092, 0.2, 0.3, -28.24, -28.23, 168.34, 168.13, 0, 0, 3
 1279358052, 0.2, 0.29, -28.24, -28.24, 168.34, 168.14, 0, 0, 3
 1279458012, 0.2, 0.27, -28.23, -28.23, 168.34, 168.16, 0, 0, 3
 1279557972, 0.2, 0.25, -28.21, -28.22, 168.34, 168.19, 0, 0, 3
 1279657932, 0.2, 0.23, -28.16, -28.17, 168.34, 168.22, 0, 0, 3
 1279757892, 0.2, 0.22, -28.15, -28.16, 168.34, 168.26, 0, 0, 3
 1279857852, 0.2, 0.21, -28.15, -28.16, 168.34, 168.3, 0, 0, 3
 1279957812, 0.21, 0.2, -28.15, -28.16, 168.34, 168.33, 0, 0, 3
 1280057772, 0.21, 0.2, -28.15, -28.16, 168.34, 168.36, 0, 0, 3
 1280157732, 0.23, 0.2, -28.14, -28.16, 168.33, 168.38, 0, 0, 3
 1280257692, 0.23, 0.2, -28.14, -28.16, 168.33, 168.39, 0, 0, 3
 1280357652, 0.23, 0.21, -28.13, -28.15, 168.33, 168.39, 0, 0, 3
 1280457612, 0.23, 0.22, -28.17, -28.17, 168.33, 168.39, 0, 0, 3
 1280557572, 0.24, 0.23, -28.18, -28.18, 168.33, 168.37, 0, 0, 3
 1280657532, 0.24, 0.23, -28.17, -28.18, 168.33, 168.36, 0, 0, 3
 1280757492, 0.24, 0.24, -28.15, -28.16, 168.33, 168.34, 0, 0, 3
 1280857452, 0.24, 0.25, -28.13, -28.14, 168.33, 168.32, 0, 0, 3
 1280957412, 0.25, 0.26, -28.1, -28.11, 168.33, 168.3, 0, 0, 3
 1281058205, 0.24, 0.26, -28.03, -28.05, 168.33, 168.29, 0, 0, 3
 1281158165, 0.24, 0.26, -28.03, -28.03, 168.33, 168.27, 0, 0, 3
 1281258125, 0.23, 0.25, -28.06, -28.06, 168.33, 168.26, 0, 0, 3
 1281358085, 0.23, 0.25, -28.09, -28.09, 168.33, 168.25, 0, 0, 3
 1281458045, 0.23, 0.24, -28.09, -28.09, 168.33, 168.25, 0, 0, 3
 1281558005, 0.23, 0.24, -28.06, -28.07, 168.33, 168.24, 0, 0, 3
 1281657965, 0.23, 0.23, -28.05, -28.06, 168.34, 168.24, 0, 0, 3
 1281757925, 0.24, 0.24, -27.99, -28, 168.33, 168.25, 0, 0, 3
 1281857885, 0.24, 0.25, -28.01, -28.01, 168.33, 168.27, 0, 0, 3
 1281957845, 0.24, 0.25, -28.01, -28.02, 168.33, 168.28, 0, 0, 3
 1282057805, 0.24, 0.25, -28.02, -28.03, 168.33, 168.3, 0, 0, 3
 1282157765, 0.24, 0.25, -28.01, -28.03, 168.33, 168.32, 0, 0, 3
 1282257725, 0.23, 0.24, -28.01, -28.03, 168.34, 168.33, 0, 0, 3
 1282357685, 0.23, 0.23, -28.01, -28.02, 168.34, 168.34, 0, 0, 3
 1282457645, 0.22, 0.23, -28.01, -28.02, 168.34, 168.35, 0, 0, 3
 1282557605, 0.22, 0.22, -28.05, -28.05, 168.34, 168.35, 0, 0, 3
 1282657565, 0.22, 0.22, -28.06, -28.07, 168.34, 168.35, 0, 0, 3
 1282757525, 0.21, 0.22, -28.04, -28.06, 168.34, 168.35, 0, 0, 3
 1282857485, 0.21, 0.22, -28.04, -28.06, 168.34, 168.34, 0, 0, 3
 1282957445, 0.21, 0.22, -28, -28.02, 168.34, 168.33, 0, 0, 3
 1283058238, 0.2, 0.22, -28, -28.01, 168.34, 168.32, 0, 0, 3
 1283158198, 0.21, 0.22, -27.93, -27.94, 168.34, 168.32, 0, 0, 3
 1283258158, 0.2, 0.22, -27.98, -27.98, 168.34, 168.32, 0, 0, 3
 1283358118, 0.21, 0.22, -28.1, -28.09, 168.34, 168.32, 0, 0, 3
 1283458078, 0.21, 0.22, -28.19, -28.2, 168.34, 168.32, 0, 0, 3
 1283558038, 0.21, 0.22, -28.25, -28.25, 168.34, 168.32, 0, 0, 3
 1283657998, 0.21, 0.22, -28.28, -28.29, 168.34, 168.32, 0, 0, 3
 1283757958, 0.22, 0.22, -28.29, -28.31, 168.34, 168.32, 0, 0, 3
 1283857918, 0.22, 0.22, -28.28, -28.3, 168.34, 168.33, 0, 0, 3
 1283957878, 0.22, 0.23, -28.32, -28.32, 168.34, 168.33, 0, 0, 3
 1284057838, 0.22, 0.22, -28.35, -28.35, 168.34, 168.33, 0, 0, 3
 1284157798, 0.22, 0.22, -28.37, -28.37, 168.34, 168.33, 0, 0, 3
 1284257758, 0.22, 0.22, -28.37, -28.39, 168.34, 168.33, 0, 0, 3
 1284357718, 0.23, 0.22, -28.38, -28.4, 168.33, 168.33, 0, 0, 3
 1284457678, 0.24, 0.23, -28.38, -28.4, 168.33, 168.32, 0, 0, 3
 1284557638, 0.24, 0.24, -28.38, -28.4, 168.33, 168.32, 0, 0, 3
 1284657598, 0.25, 0.25, -28.42, -28.42, 168.33, 168.31, 0, 0, 3
 1284757558, 0.25, 0.25, -28.41, -28.42, 168.33, 168.31, 0, 0, 3
 1284857518, 0.25, 0.25, -28.4, -28.41, 168.33, 168.3, 0, 0, 3
 1284957478, 0.26, 0.26, -28.38, -28.38, 168.33, 168.31, 0, 0, 3
 1285057438, 0.26, 0.26, -28.32, -28.34, 168.33, 168.31, 0, 0, 3
 1285158231, 0.26, 0.26, -28.28, -28.3, 168.33, 168.32, 0, 0, 3
 1285258191, 0.26, 0.26, -28.21, -28.22, 168.33, 168.32, 0, 0, 3
 1285358151, 0.26, 0.26, -28.22, -28.22, 168.33, 168.32, 0, 0, 3
 1285458111, 0.26, 0.25, -28.27, -28.27, 168.33, 168.32, 0, 0, 3
 1285558071, 0.26, 0.25, -28.27, -28.27, 168.33, 168.32, 0, 0, 3
 1285658031, 0.26, 0.25, -28.25, -28.25, 168.33, 168.31, 0, 0, 3
 1285757991, 0.26, 0.25, -28.22, -28.23, 168.33, 168.31, 0, 0, 3
 1285857951, 0.26, 0.25, -28.17, -28.19, 168.33, 168.3, 0, 0, 3
 1285957911, 0.26, 0.26, -28.13, -28.14, 168.33, 168.3, 0, 0, 3
 1286057871, 0.26, 0.27, -28.13, -28.14, 168.33, 168.3, 0, 0, 3
 1286157831, 0.26, 0.27, -28.13, -28.14, 168.33, 168.29, 0, 0, 3
 1286257791, 0.26, 0.27, -28.13, -28.14, 168.33, 168.29, 0, 0, 3
 1286357751, 0.25, 0.26, -28.11, -28.12, 168.33, 168.3, 0, 0, 3
 1286457711, 0.24, 0.26, -28.1, -28.11, 168.33, 168.3, 0, 0, 3
 1286557671, 0.24, 0.25, -28.09, -28.1, 168.33, 168.3, 0, 0, 3
 1286657631, 0.23, 0.25, -28.1, -28.1, 168.33, 168.31, 0, 0, 3
 1286757591, 0.23, 0.24, -28.13, -28.14, 168.34, 168.31, 0, 0, 3
 1286857551, 0.23, 0.23, -28.13, -28.14, 168.34, 168.32, 0, 0, 3
 1286957511, 0.22, 0.23, -28.11, -28.12, 168.34, 168.33, 0, 0, 3
 1287057471, 0.22, 0.23, -28.11, -28.11, 168.34, 168.33, 0, 0, 3
 1287157431, 0.21, 0.22, -28.06, -28.06, 168.34, 168.34, 0, 0, 3
 1287258224, 0.21, 0.21, -28.03, -28.04, 168.34, 168.34, 0, 0, 3
 1287358184, 0.21, 0.21, -28, -28, 168.34, 168.34, 0, 0, 3
 1287458144, 0.22, 0.21, -28.04, -28.04, 168.34, 168.34, 0, 0, 3
 1287558104, 0.22, 0.21, -28.11, -28.11, 168.34, 168.34, 0, 0, 3
 1287658064, 0.22, 0.22, -28.12, -28.13, 168.34, 168.34, 0, 0, 3
 1287758024, 0.22, 0.22, -28.11, -28.12, 168.34, 168.34, 0, 0, 3
 1287857984, 0.22, 0.22, -28.11, -28.13, 168.34, 168.33, 0, 0, 3
 1287957944, 0.23, 0.23, -28.08, -28.1, 168.33, 168.33, 0, 0, 3
 1288057904, 0.23, 0.23, -28.08, -28.09, 168.33, 168.32, 0, 0, 3
 1288157864, 0.24, 0.24, -28.09, -28.1, 168.33, 168.31, 0, 0, 3
 1288257824, 0.24, 0.24, -28.11, -28.12, 168.33, 168.31, 0, 0, 3
 1288357784, 0.24, 0.25, -28.11, -28.13, 168.33, 168.3, 0, 0, 3
 1288457744, 0.23, 0.24, -28.12, -28.14, 168.33, 168.31, 0, 0, 3
 1288557704, 0.23, 0.24, -28.12, -28.14, 168.33, 168.31, 0, 0, 3
 1288657664, 0.24, 0.24, -28.14, -28.15, 168.33, 168.32, 0, 0, 3
 1288757624, 0.25, 0.24, -28.16, -28.16, 168.33, 168.32, 0, 0, 3
 1288857584, 0.25, 0.24, -28.2, -28.2, 168.33, 168.32, 0, 0, 3
 1288957544, 0.25, 0.24, -28.19, -28.21, 168.33, 168.32, 0, 0, 3
 1289057504, 0.25, 0.24, -28.19, -28.2, 168.33, 168.32, 0, 0, 3
 1289157464, 0.26, 0.25, -28.17, -28.19, 168.33, 168.32, 0, 0, 3
 1289257424, 0.26, 0.25, -28.15, -28.15, 168.33, 168.32, 0, 0, 3
 1289358217, 0.26, 0.25, -28.15, -28.16, 168.33, 168.33, 0, 0, 3
 1289458177, 0.26, 0.24, -28.19, -28.17, 168.33, 168.33, 0, 0, 3
 1289558137, 0.26, 0.23, -28.26, -28.23, 168.33, 168.34, 0, 0, 3
 1289658097, 0.25, 0.23, -28.36, -28.33, 168.33, 168.34, 0, 0, 3
 1289758057, 0.26, 0.23, -28.39, -28.38, 168.33, 168.35, 0, 0, 3
 1289858017, 0.26, 0.24, -28.39, -28.39, 168.32, 168.34, 0, 0, 3
 1289957977, 0.27, 0.25, -28.38, -28.39, 168.32, 168.33, 0, 0, 3
 1290057937, 0.27, 0.26, -28.34, -28.36, 168.32, 168.33, 0, 0, 3
 1290157897, 0.27, 0.27, -28.34, -28.35, 168.32, 168.32, 0, 0, 3
 1290257857, 0.27, 0.27, -28.35, -28.36, 168.32, 168.31, 0, 0, 3
 1290357817, 0.27, 0.27, -28.35, -28.36, 168.33, 168.3, 0, 0, 3
 1290457777, 0.26, 0.27, -28.35, -28.36, 168.33, 168.29, 0, 0, 3
 1290557737, 0.26, 0.27, -28.35, -28.36, 168.33, 168.29, 0, 0, 3
 1290657697, 0.25, 0.26, -28.35, -28.36, 168.33, 168.29, 0, 0, 3
 1290757657, 0.25, 0.26, -28.33, -28.36, 168.33, 168.29, 0, 0, 3
 1290857617, 0.24, 0.25, -28.35, -28.37, 168.33, 168.29, 0, 0, 3
 1290957577, 0.24, 0.24, -28.36, -28.39, 168.33, 168.29, 0, 0, 3
 1291057537, 0.24, 0.24, -28.33, -28.38, 168.33, 168.3, 0, 0, 3
 1291157497, 0.24, 0.23, -28.3, -28.35, 168.33, 168.3, 0, 0, 3
 1291257457, 0.24, 0.23, -28.27, -28.31, 168.33, 168.3, 0, 0, 3
 1291357417, 0.25, 0.24, -28.23, -28.24, 168.33, 168.31, 0, 0, 3
 1291458210, 0.24, 0.24, -28.16, -28.18, 168.33, 168.31, 0, 0, 3
 1291558170, 0.25, 0.24, -28.17, -28.16, 168.33, 168.32, 0, 0, 3
 1291658130, 0.25, 0.24, -28.22, -28.2, 168.33, 168.33, 0, 0, 3
 1291758090, 0.25, 0.25, -28.26, -28.25, 168.33, 168.33, 0, 0, 3
 1291858050, 0.25, 0.25, -28.26, -28.26, 168.33, 168.33, 0, 0, 3
 1291958010, 0.25, 0.25, -28.24, -28.24, 168.33, 168.33, 0, 0, 3
 1292057970, 0.25, 0.24, -28.23, -28.23, 168.33, 168.33, 0, 0, 3
 1292157930, 0.25, 0.25, -28.18, -28.18, 168.33, 168.33, 0, 0, 3
 1292257890, 0.25, 0.25, -28.18, -28.18, 168.33, 168.32, 0, 0, 3
 1292357850, 0.25, 0.26, -28.18, -28.18, 168.33, 168.32, 0, 0, 3
 1292457810, 0.25, 0.26, -28.19, -28.19, 168.33, 168.31, 0, 0, 3
 1292557770, 0.25, 0.26, -28.19, -28.2, 168.33, 168.31, 0, 0, 3
 1292657730, 0.25, 0.26, -28.19, -28.19, 168.33, 168.31, 0, 0, 3
 1292757690, 0.25, 0.25, -28.19, -28.2, 168.33, 168.3, 0, 0, 3
 1292857650, 0.25, 0.25, -28.19, -28.2, 168.33, 168.3, 0, 0, 3
 1292957610, 0.25, 0.25, -28.22, -28.22, 168.33, 168.3, 0, 0, 3
 1293057570, 0.25, 0.25, -28.24, -28.24, 168.33, 168.31, 0, 0, 3
 1293157530, 0.25, 0.26, -28.21, -28.22, 168.33, 168.31, 0, 0, 3
 1293257490, 0.25, 0.25, -28.21, -28.21, 168.33, 168.31, 0, 0, 3
 1293357450, 0.26, 0.26, -28.17, -28.18, 168.33, 168.31, 0, 0, 3
 1293457410, 0.26, 0.26, -28.16, -28.16, 168.33, 168.32, 0, 0, 3
 1293558203, 0.26, 0.25, -28.07, -28.08, 168.33, 168.32, 0, 0, 3
 1293658163, 0.26, 0.25, -28.1, -28.09, 168.33, 168.32, 0, 0, 3
 1293758123, 0.26, 0.26, -28.19, -28.17, 168.33, 168.32, 0, 0, 3
 1293858083, 0.27, 0.26, -28.28, -28.27, 168.32, 168.32, 0, 0, 3
 1293958043, 0.27, 0.26, -28.31, -28.33, 168.32, 168.32, 0, 0, 3
 1294058003, 0.27, 0.25, -28.33, -28.36, 168.33, 168.31, 0, 0, 3
 1294157963, 0.26, 0.26, -28.34, -28.36, 168.33, 168.31, 0, 0, 3
 1294257923, 0.26, 0.26, -28.31, -28.33, 168.33, 168.31, 0, 0, 3
 1294357883, 0.25, 0.25, -28.34, -28.34, 168.33, 168.31, 0, 0, 3
 1294457843, 0.24, 0.24, -28.37, -28.36, 168.33, 168.31, 0, 0, 3
 1294557803, 0.24, 0.24, -28.37, -28.37, 168.33, 168.31, 0, 0, 3
 1294657763, 0.24, 0.24, -28.37, -28.37, 168.33, 168.31, 0, 0, 3
 1294757723, 0.25, 0.25, -28.36, -28.36, 168.33, 168.31, 0, 0, 3
 1294857683, 0.25, 0.24, -28.35, -28.35, 168.33, 168.32, 0, 0, 3
 1294957643, 0.24, 0.23, -28.35, -28.34, 168.33, 168.32, 0, 0, 3
 1295057603, 0.24, 0.23, -28.39, -28.38, 168.33, 168.32, 0, 0, 3
 1295157563, 0.25, 0.23, -28.37, -28.38, 168.33, 168.32, 0, 0, 3
 1295257523, 0.25, 0.24, -28.35, -28.37, 168.33, 168.32, 0, 0, 3
 1295357483, 0.26, 0.24, -28.33, -28.34, 168.33, 168.31, 0, 0, 3
 1295457443, 0.26, 0.24, -28.28, -28.29, 168.33, 168.31, 0, 0, 3
 1295558236, 0.26, 0.25, -28.26, -28.25, 168.33, 168.31, 0, 0, 3
 1295658196, 0.27, 0.26, -28.19, -28.19, 168.32, 168.31, 0, 0, 3
 1295758156, 0.27, 0.27, -28.21, -28.2, 168.32, 168.31, 0, 0, 3
 1295858116, 0.27, 0.27, -28.26, -28.25, 168.32, 168.31, 0, 0, 3
 1295958076, 0.26, 0.27, -28.28, -28.29, 168.33, 168.31, 0, 0, 3
 1296058036, 0.26, 0.27, -28.27, -28.28, 168.33, 168.31, 0, 0, 3
 1296157996, 0.26, 0.27, -28.25, -28.26, 168.33, 168.31, 0, 0, 3
 1296257956, 0.25, 0.26, -28.22, -28.24, 168.33, 168.31, 0, 0, 3
 1296357916, 0.25, 0.26, -28.17, -28.18, 168.33, 168.31, 0, 0, 3
 1296457876, 0.25, 0.25, -28.17, -28.17, 168.33, 168.31, 0, 0, 3
 1296557836, 0.25, 0.24, -28.17, -28.17, 168.33, 168.31, 0, 0, 3
 1296657796, 0.25, 0.24, -28.17, -28.17, 168.33, 168.31, 0, 0, 3
 1296757756, 0.25, 0.23, -28.17, -28.16, 168.33, 168.31, 0, 0, 3
 1296857716, 0.25, 0.22, -28.17, -28.16, 168.33, 168.31, 0, 0, 3
 1296957676, 0.26, 0.23, -28.17, -28.16, 168.33, 168.31, 0, 0, 3
 1297057636, 0.26, 0.25, -28.18, -28.16, 168.32, 168.31, 0, 0, 3
 1297157596, 0.26, 0.27, -28.22, -28.21, 168.33, 168.31, 0, 0, 3
 1297257556, 0.26, 0.28, -28.22, -28.24, 168.33, 168.31, 0, 0, 3
 1297357516, 0.25, 0.28, -28.2, -28.23, 168.33, 168.31, 0, 0, 3
 1297457476, 0.24, 0.27, -28.2, -28.21, 168.33, 168.31, 0, 0, 3
 1297557436, 0.23, 0.25, -28.14, -28.16, 168.33, 168.32, 0, 0, 3
 1297658229, 0.23, 0.23, -28.1, -28.13, 168.34, 168.32, 0, 0, 3
 1297758189, 0.22, 0.22, -27.96, -27.98, 168.34, 168.33, 0, 0, 3
 1297858149, 0.22, 0.21, -27.73, -27.77, 168.34, 168.33, 0, 0, 3
 1297958109, 0.23, 0.21, -27.32, -27.38, 168.34, 168.33, 0, 0, 3
 1298058069, 0.23, 0.22, -26.78, -26.84, 168.34, 168.34, 0, 0, 3
 1298158029, 0.23, 0.22, -26.15, -26.2, 168.34, 168.34, 0, 0, 3
 1298257989, 0.23, 0.22, -25.51, -25.55, 168.34, 168.34, 0, 0, 3
 1298357949, 0.23, 0.22, -24.79, -24.83, 168.34, 168.34, 0, 0, 3
 1298457909, 0.23, 0.23, -24.08, -24.09, 168.34, 168.35, 0, 0, 3
 1298557869, 0.22, 0.24, -23.38, -23.4, 168.35, 168.35, 0, 0, 3
 1298657829, 0.22, 0.23, -22.62, -22.64, 168.35, 168.35, 0, 0, 3
 1298757789, 0.21, 0.21, -21.8, -21.83, 168.35, 168.35, 0, 0, 3
 1298857749, 0.21, 0.2, -20.93, -20.95, 168.35, 168.35, 0, 0, 3
 1298957709, 0.21, 0.21, -19.98, -20.01, 168.36, 168.35, 0, 0, 3
 1299057669, 0.2, 0.2, -19, -19.01, 168.36, 168.35, 0, 0, 3
 1299157629, 0.2, 0.2, -17.95, -17.96, 168.36, 168.35, 0, 0, 3
 1299257589, 0.19, 0.19, -16.88, -16.89, 168.36, 168.35, 0, 0, 3
 1299357549, 0.18, 0.19, -15.7, -15.7, 168.37, 168.34, 0, 0, 3
 1299457509, 0.17, 0.17, -14.46, -14.46, 168.37, 168.34, 0, 0, 3
 1299557469, 0.15, 0.16, -13.15, -13.16, 168.38, 168.33, 0, 0, 3
 1299657429, 0.14, 0.15, -11.77, -11.78, 168.38, 168.33, 0, 0, 3
 1299758222, 0.12, 0.14, -10.32, -10.32, 168.38, 168.33, 0, 0, 3
 1299858182, 0.11, 0.13, -8.84, -8.84, 168.38, 168.33, 0, 0, 3
 1299958142, 0.15, 0.16, -7.34, -7.33, 168.4, 168.33, 0, 0, 3
 1300058102, 0.36, 0.34, -5.83, -5.83, 168.45, 168.34, 0, 0, 3
 1300158062, 0.74, 0.71, -4.21, -4.22, 168.57, 168.37, 0, 0, 3
 1300258022, 1.24, 1.22, -2.62, -2.61, 168.79, 168.43, 0, 0, 3
 1300357982, 1.76, 1.76, -1.17, -1.12, 169.12, 168.53, 0, 0, 3
 1300457942, 2.3, 2.3, 0, 0.1, 169.57, 168.7, 0, 0, 3
 1300557902, 2.85, 2.84, 1.03, 1.16, 170.16, 168.94, 0, 0, 3
 1300657862, 3.43, 3.39, 1.95, 2.09, 170.9, 169.3, 0, 0.01, 3
 1300757822, 4.04, 3.95, 2.84, 3.01, 171.82, 169.81, 0, 0.01, 3
 1300857782, 4.69, 4.54, 3.65, 3.86, 172.94, 170.49, 0, 0.01, 3
 1300957742, 5.4, 5.18, 4.4, 4.67, 174.31, 171.38, 0, 0.01, 3
 1301057702, 6.16, 5.86, 5.01, 5.38, 175.96, 172.51, 0, 0.01, 3
 1301157662, 6.99, 6.6, 5.52, 6.01, 177.93, 173.92, 0, 0.01, 3
 1301257622, 7.89, 7.4, 5.84, 6.48, 180.29, 175.66, 0, 0.01, 3
 1301357582, 8.87, 8.28, 6, 6.81, 183.09, 177.76, 0, 0.01, 3
 1301457542, 9.87, 9.21, 5.81, 6.87, 186.38, 180.29, 0, 0.02, 3
 1301557502, 10.81, 10.13, 5.19, 6.54, 190.17, 183.26, 0, 0.02, 3
 1301657462, 11.54, 10.92, 4.19, 5.77, 194.41, 186.73, 0, 0.02, 3
 1301757422, 12, 11.48, 3.05, 4.79, 199.04, 190.77, 0, 0.03, 3
 1301858215, 12.22, 11.86, 1.81, 3.64, 204, 195.47, 0, 0.03, 3
 1301958175, 12.32, 12.13, 0.5, 2.33, 209.22, 200.72, 0, 0.03, 3
 1302058135, 12.27, 12.27, -0.9, 0.85, 214.58, 206.48, 0, 0.04, 3
 1302158095, 12.08, 12.27, -2.31, -0.78, 219.93, 212.79, 0, 0.04, 3
 1302258055, 11.69, 12, -3.68, -2.51, 225.16, 219.5, 0, 0.05, 3
 1302358015, 11.17, 11.47, -4.94, -4.24, 230.14, 226.5, 0, 0.05, 3
 1302457975, 10.51, 10.64, -6.05, -5.88, 234.76, 233.63, 0, 0.05, 3
 1302557935, 9.73, 9.53, -6.86, -7.23, 238.94, 240.74, 0, 0.06, 3
 1302657895, 8.89, 8.25, -7.38, -8.18, 242.67, 247.5, 0.01, 0.06, 3
 1302757855, 8.07, 6.96, -7.7, -8.79, 245.95, 253.71, 0.01, 0.06, 3
 1302857815, 7.29, 5.75, -7.9, -9.13, 248.81, 259.15, 0.01, 0.05, 3
 1302957775, 6.55, 4.68, -8, -9.26, 251.28, 263.69, 0.01, 0.05, 3
 1303057735, 5.86, 3.76, -8.03, -9.23, 253.4, 267.28, 0.01, 0.05, 3
 1303157695, 5.2, 3.01, -7.99, -9.07, 255.2, 269.92, 0.01, 0.04, 3
 1303257655, 4.58, 2.39, -7.92, -8.84, 256.73, 271.65, 0.01, 0.03, 3
 1303357615, 3.98, 1.9, -7.81, -8.57, 257.99, 272.54, 0.01, 0.03, 3
 1303457575, 3.4, 1.5, -7.66, -8.26, 259.02, 272.67, 0.01, 0.02, 3
 1303557535, 2.83, 1.17, -7.46, -7.9, 259.83, 272.14, 0.01, 0.02, 3
 1303657495, 2.28, 0.9, -7.24, -7.54, 260.44, 271.05, 0.01, 0.02, 3
 1303757455, 1.71, 0.64, -6.98, -7.17, 260.87, 269.51, 0.01, 0.02, 3
 1303857415, 1.15, 0.38, -6.71, -6.8, 261.11, 267.64, 0.01, 0.02, 3
 1303958208, 0.64, 0.15, -6.39, -6.43, 261.2, 265.53, 0.01, 0.02, 3
 1304058168, 0.34, 0.08, -6.14, -6.13, 261.23, 263.36, 0.01, 0.02, 3
 1304158128, 0.23, 0.18, -6.01, -5.98, 261.23, 261.27, 0.01, 0.03, 3
 1304258088, 0.22, 0.38, -6.05, -6, 261.23, 259.35, 0.01, 0.03, 3
 1304358048, 0.2, 0.56, -6.17, -6.11, 261.23, 257.72, 0.01, 0.02, 3
 1304458008, 0.19, 0.7, -6.31, -6.24, 261.23, 256.46, 0, 0.02, 3
 1304557968, 0.15, 0.78, -6.42, -6.36, 261.23, 255.62, 0, 0.02, 3
 1304657928, 0.12, 0.81, -6.49, -6.44, 261.23, 255.23, 0, 0.02, 3
 1304757888, 0.09, 0.78, -6.57, -6.52, 261.24, 255.27, 0, 0.02, 3
 1304857848, 0.06, 0.72, -6.62, -6.59, 261.24, 255.7, 0, 0.01, 3
 1304957808, 0.02, 0.59, -6.66, -6.64, 261.24, 256.44, 0, 0.01, 3
 1305057768, 0, 0.45, -6.68, -6.68, 261.24, 257.44, 0, 0.01, 3
 1305157728, -0.02, 0.29, -6.69, -6.7, 261.24, 258.59, 0, 0.01, 3
 1305257688, -0.04, 0.13, -6.69, -6.7, 261.24, 259.81, 0, 0, 3
 1305357648, -0.06, -0.02, -6.69, -6.7, 261.25, 261.01, 0, 0, 3
 1305457608, -0.06, -0.16, -6.7, -6.7, 261.25, 262.11, 0, 0, 3
 1305557568, -0.06, -0.27, -6.68, -6.68, 261.25, 263.06, 0, 0, 3
 1305657528, -0.05, -0.35, -6.65, -6.64, 261.25, 263.8, 0, 0, 3
 1305757488, -0.05, -0.4, -6.61, -6.59, 261.25, 264.3, 0, 0, 3
 1305857448, -0.04, -0.43, -6.57, -6.55, 261.24, 264.55, 0, 0, 3
 1305957408, -0.04, -0.42, -6.53, -6.5, 261.24, 264.56, 0, 0, 3
 1306058201, -0.03, -0.38, -6.47, -6.45, 261.24, 264.34, 0, 0, 3
 1306158161, -0.03, -0.33, -6.45, -6.44, 261.24, 263.94, 0, 0, 3
 1306258121, -0.02, -0.27, -6.43, -6.41, 261.24, 263.4, 0, 0, 3
 1306358081, -0.03, -0.2, -6.41, -6.4, 261.24, 262.76, 0, 0.01, 3
 1306458041, -0.03, -0.12, -6.37, -6.35, 261.24, 262.08, 0, 0.01, 3
 1306558001, -0.04, -0.06, -6.32, -6.32, 261.24, 261.4, 0, 0.01, 3
 1306657961, -0.04, 0, -6.28, -6.28, 261.24, 260.76, 0, 0.01, 3
 1306757921, -0.05, 0.06, -6.22, -6.22, 261.25, 260.22, 0, 0.01, 3
 1306857881, -0.06, 0.1, -6.19, -6.18, 261.25, 259.8, 0, 0.01, 3
 1306957841, -0.07, 0.12, -6.16, -6.15, 261.25, 259.5, 0, 0.01, 3
 1307057801, -0.08, 0.12, -6.13, -6.11, 261.25, 259.35, 0, 0.01, 3
 1307157761, -0.08, 0.11, -6.12, -6.1, 261.25, 259.34, 0, 0.01, 3
 1307257721, -0.08, 0.1, -6.1, -6.09, 261.25, 259.45, 0, 0.01, 3
 1307357681, -0.07, 0.08, -6.08, -6.08, 261.25, 259.67, 0, 0.01, 3
 1307457641, -0.06, 0.06, -6.06, -6.06, 261.25, 259.97, 0, 0.01, 3
 1307557601, -0.04, 0.05, -6.07, -6.06, 261.24, 260.33, 0, 0, 3
 1307657561, -0.03, 0.02, -6.05, -6.04, 261.24, 260.71, 0, 0, 3
 1307757521, -0.02, 0, -6.04, -6.03, 261.24, 261.1, 0, 0, 3
 1307857481, -0.01, -0.03, -6.03, -6.02, 261.24, 261.45, 0, 0, 3
 1307957441, 0.01, -0.05, -6.01, -6.01, 261.24, 261.77, 0, 0, 3
 1308058234, 0.04, -0.05, -6, -5.99, 261.24, 262.02, 0, 0, 3
 1308158194, 0.06, -0.05, -5.97, -5.97, 261.24, 262.19, 0, 0, 3
 1308258154, 0.07, -0.04, -5.99, -5.98, 261.24, 262.28, 0, 0, 3
 1308358114, 0.09, -0.02, -6.02, -6.01, 261.24, 262.3, 0, 0, 3
 1308458074, 0.1, 0, -6.02, -6.03, 261.24, 262.24, 0, 0, 3
 1308558034, 0.12, 0.03, -6.01, -6.03, 261.24, 262.12, 0, 0, 3
 1308657994, 0.13, 0.05, -6, -6.01, 261.24, 261.95, 0, 0, 3
 1308757954, 0.14, 0.09, -5.99, -6, 261.23, 261.75, 0, 0, 3
 1308857914, 0.13, 0.11, -5.98, -5.99, 261.23, 261.53, 0, 0, 3
 1308957874, 0.15, 0.13, -5.99, -6, 261.23, 261.3, 0, 0, 3
 1309057834, 0.15, 0.15, -5.99, -5.99, 261.23, 261.1, 0, 0, 3
