Time,SIM_Roll,SIM_Pitch,SIM_Yaw,SIM_Alt,SIM_Lat,SIM_Lng,SIM_Q1,SIM_Q2,SIM_Q3,SIM_Q4
 1214358229, 0, 0, 344.14, 558.09, 33.6216403, 72.9556861, 0.9904397, 0, 0, -0.1379465
 1214458189, 0, 0, 344.14, 558.09, 33.6216403, 72.9556861, 0.9904397, 0, 0, -0.1379465
 1214558149, 0, 0, 344.14, 558.09, 33.6216403, 72.9556861, 0.9904397, 0, 0, -0.1379465
 1214658109, 0, 0, 344.14, 558.09, 33.6216403, 72.9556861, 0.9904397, 0, 0, -0.1379465
 1214758069, 0, 0, 344.14, 558.09, 33.6216403, 72.9556861, 0.9904397, 0, 0, -0.1379465
 1214858029, 0, 0, 344.14, 558.09, 33.6216403, 72.9556861, 0.9904397, 0, 0, -0.1379465
 1214957989, 0, 0, 344.14, 558.09, 33.6216403, 72.9556861, 0.9904397, 0, 0, -0.1379465
 1215057949, 0, 0, 344.14, 558.09, 33.6216403, 72.9556861, 0.9904397, 0, 0, -0.1379465
 1215157909, 0, 0, 344.14, 558.09, 33.6216403, 72.9556861, 0.9904397, 0, 0, -0.1379465
 1215257869, 0, 0, 344.14, 558.09, 33.6216403, 72.9556861, 0.9904397, 0, 0, -0.1379465
 1215357829, 0, 0, 344.14, 558.09, 33.6216403, 72.9556861, 0.9904397, 0, 0, -0.1379465
 1215457789, 0, 0, 344.14, 558.09, 33.6216403, 72.9556861, 0.9904397, 0, 0, -0.1379465
 1215557749, 0, 0, 344.14, 558.09, 33.6216403, 72.9556861, 0.9904397, 0, 0, -0.1379465
 1215657709, 0, 0, 344.14, 558.09, 33.6216403, 72.9556861, 0.9904397, 0, 0, -0.1379465
 1215757669, 0, 0, 344.14, 558.09, 33.6216403, 72.9556861, 0.9904397, 0, 0, -0.1379465
 1215857629, 0, 0, 344.14, 558.09, 33.6216403, 72.9556861, 0.9904397, 0, 0, -0.1379465
 1215957589, 0, 0, 344.14, 558.09, 33.6216403, 72.9556861, 0.9904397, 0, 0, -0.1379465
 1216057549, 0, 0, 344.14, 558.09, 33.6216403, 72.9556861, 0.9904397, 0, 0, -0.1379465
 1216157509, 0, 0, 344.14, 558.09, 33.6216403, 72.9556861, 0.9904397, 0, 0, -0.1379465
 1216257469, 0, 0, 344.14, 558.09, 33.6216403, 72.9556861, 0.9904397, 0, 0, -0.1379465
 1216357429, 0, 0, 344.14, 558.09, 33.6216403, 72.9556861, 0.9904397, 0, 0, -0.1379465
 1216458222, 0, 0, 344.14, 558.09, 33.6216403, 72.9556861, 0.9904397, 0, 0, -0.1379465
 1216558182, 0, 0, 344.14, 558.09, 33.6216403, 72.9556861, 0.9904397, 0, 0, -0.1379465
 1216658142, 0, 0, 344.14, 558.09, 33.6216403, 72.9556861, 0.9904397, 0, 0, -0.1379465
 1216758102, 0, 0, 344.14, 558.09, 33.6216403, 72.9556861, 0.9904397, 0, 0, -0.1379465
 1216858062, 0, 0, 344.14, 558.09, 33.6216403, 72.9556861, 0.9904397, 0, 0, -0.1379465
 1216958022, 0, 0, 344.14, 558.09, 33.6216403, 72.9556861, 0.9904397, 0, 0, -0.1379465
 1217057982, 0, 0, 344.14, 558.09, 33.6216403, 72.9556861, 0.9904397, 0, 0, -0.1379465
 1217157942, 0, 0, 344.14, 558.09, 33.6216403, 72.9556861, 0.9904397, 0, 0, -0.1379465
 1217257902, 0, 0, 344.14, 558.09, 33.6216403, 72.9556861, 0.9904397, 0, 0, -0.1379465
 1217357862, 0, 0, 344.14, 558.09, 33.6216403, 72.9556861, 0.9904397, 0, 0, -0.1379465
 1217457822, 0, 0, 344.14, 558.09, 33.6216403, 72.9556861, 0.9904397, 0, 0, -0.1379465
 1217557782, 0, 0, 344.14, 558.09, 33.6216403, 72.9556861, 0.9904397, 0, 0, -0.1379465
 1217657742, 0, 0, 344.14, 558.09, 33.6216403, 72.9556861, 0.9904397, 0, 0, -0.1379465
 1217757702, 0, 0, 344.14, 558.09, 33.6216403, 72.9556861, 0.9904397, 0, 0, -0.1379465
 1217857662, 0, 0, 344.14, 558.09, 33.6216403, 72.9556861, 0.9904397, 0, 0, -0.1379465
 1217957622, 0, 0, 344.14, 558.09, 33.6216403, 72.9556861, 0.9904397, 0, 0, -0.1379465
 1218057582, 0, 0, 344.14, 558.09, 33.6216403, 72.9556861, 0.9904397, 0, 0, -0.1379465
 1218157542, 0, 0, 344.14, 558.09, 33.6216403, 72.9556861, 0.9904397, 0, 0, -0.1379465
 1218257502, 0, 0, 344.14, 558.09, 33.6216403, 72.9556861, 0.9904397, 0, 0, -0.1379465
 1218357462, 0, 0, 344.14, 558.09, 33.6216403, 72.9556861, 0.9904397, 0, 0, -0.1379465
 1218457422, 0, 0, 344.14, 558.09, 33.6216403, 72.9556861, 0.9904397, 0, 0, -0.1379465
 1218558215, 0, 0, 344.14, 558.09, 33.6216403, 72.9556861, 0.9904397, 0, 0, -0.1379465
 1218658175, 0, 0, 344.14, 558.09, 33.6216403, 72.9556861, 0.9904397, 0, 0, -0.1379465
 1218758135, 0, 0, 344.14, 558.09, 33.6216403, 72.9556861, 0.9904397, 0, 0, -0.1379465
 1218858095, 0, 0, 344.14, 558.09, 33.6216403, 72.9556861, 0.9904397, 0, 0, -0.1379465
 1218958055, 0, 0, 344.14, 558.09, 33.6216403, 72.9556861, 0.9904397, 0, 0, -0.1379465
 1219058015, 0, 0, 344.14, 558.09, 33.6216403, 72.9556861, 0.9904397, 0, 0, -0.1379465
 1219157975, 0, 0, 344.14, 558.09, 33.6216403, 72.9556861, 0.9904397, 0, 0, -0.1379465
 1219257935, 0, 0, 344.14, 558.09, 33.6216403, 72.9556861, 0.9904397, 0, 0, -0.1379465
 1219357895, 0, 0, 344.14, 558.09, 33.6216403, 72.9556861, 0.9904397, 0, 0, -0.1379465
 1219457855, 0, 0, 344.14, 558.09, 33.6216403, 72.9556861, 0.9904397, 0, 0, -0.1379465
 1219557815, 0, 0, 344.14, 558.09, 33.6216403, 72.9556861, 0.9904397, 0, 0, -0.1379465
 1219657775, 0, 0, 344.14, 558.09, 33.6216403, 72.9556861, 0.9904397, 0, 0, -0.1379465
 1219757735, 0, 0, 344.14, 558.09, 33.6216403, 72.9556861, 0.9904397, 0, 0, -0.1379465
 1219857695, 0, 0, 344.14, 558.09, 33.6216403, 72.9556861, 0.9904397, 0, 0, -0.1379465
 1219957655, 0, 0, 344.14, 558.09, 33.6216403, 72.9556861, 0.9904397, 0, 0, -0.1379465
 1220057615, 0, 0, 344.14, 558.1, 33.6216403, 72.9556861, 0.9904397, 0, 0, -0.1379465
 1220157575, 0, 0, 344.14, 558.11, 33.6216403, 72.9556861, 0.9904397, 0, 0, -0.1379465
 1220257535, 0, 0, 344.14, 558.14, 33.6216403, 72.9556861, 0.9904397, 0, 0, -0.1379465
 1220357495, 0, 0, 344.14, 558.19, 33.6216403, 72.9556861, 0.9904397, 0, 0, -0.1379465
 1220457455, -0.04, -0.04, 344.14, 558.25, 33.6216403, 72.9556861, 0.9904391, -0.0004018159, -0.0003471675, -0.1379497
 1220557415, -0.09, -0.11, 344.13, 558.36, 33.6216403, 72.9556861, 0.9904359, -0.0009713745, -0.0009021955, -0.1379673
 1220658208, -0.11, -0.14, 344.13, 558.52, 33.6216403, 72.9556861, 0.9904305, -0.001203402, -0.001150878, -0.1380021
 1220758168, -0.11, -0.14, 344.13, 558.69, 33.6216403, 72.9556861, 0.9904245, -0.001126375, -0.001103275, -0.1380467
 1220858128, -0.09, -0.11, 344.12, 558.88, 33.6216403, 72.9556861, 0.9904175, -0.000915491, -0.0008650914, -0.1381002
 1220958088, -0.06, -0.07, 344.11, 559.06, 33.6216403, 72.9556861, 0.9904093, -0.0006337686, -0.000589797, -0.1381617
 1221058048, -0.03, -0.04, 344.1, 559.26, 33.6216403, 72.9556861, 0.9904009, -0.0003814576, -0.0003451758, -0.1382242
 1221158008, -0.02, -0.02, 344.1, 559.46, 33.6216403, 72.9556861, 0.9903924, -0.0002041742, -0.0001757453, -0.1382852
 1221257968, -0.01, -0.01, 344.09, 559.68, 33.6216403, 72.9556861, 0.990384, -0.0001111933, -9.214209E-05, -0.1383458
 1221357928, 0, 0, 344.08, 559.9, 33.6216403, 72.9556861, 0.9903757, -7.848279E-05, -3.109733E-05, -0.1384052
 1221457888, -0.01, 0, 344.08, 560.14, 33.6216403, 72.9556861, 0.9903674, -0.000125329, -2.461896E-05, -0.1384645
 1221557848, 0, 0.01, 344.07, 560.38, 33.6216403, 72.9556861, 0.9903601, 6.669695E-05, 0.0001068814, -0.1385166
 1221657808, 0.02, 0.02, 344.07, 560.63, 33.6216403, 72.955686, 0.9903542, 0.0002037885, 0.0001883655, -0.1385591
 1221757768, 0.02, 0.03, 344.06, 560.88, 33.6216403, 72.955686, 0.9903495, 0.0002682014, 0.0002290951, -0.1385917
 1221857728, 0.03, 0.03, 344.06, 561.14, 33.6216403, 72.955686, 0.9903463, 0.0003167371, 0.0002804104, -0.1386148
 1221957688, 0.03, 0.04, 344.06, 561.41, 33.6216403, 72.955686, 0.9903443, 0.0003645281, 0.0003089276, -0.1386291
 1222057648, 0.03, 0.04, 344.06, 561.67, 33.6216403, 72.955686, 0.990343, 0.0003571369, 0.0003259473, -0.138638
 1222157608, 0.03, 0.03, 344.06, 561.93, 33.6216403, 72.955686, 0.9903411, 0.0003723444, 0.0002923, -0.1386516
 1222257568, 0.03, 0.02, 344.05, 562.19, 33.6216403, 72.955686, 0.9903383, 0.0003130351, 0.0002183422, -0.1386722
 1222357528, 0.03, 0.03, 344.05, 562.45, 33.6216403, 72.955686, 0.9903346, 0.0003231427, 0.0002323632, -0.138698
 1222457488, 0.03, 0.02, 344.05, 562.71, 33.6216403, 72.955686, 0.9903312, 0.0003217512, 0.0002179761, -0.138723
 1222557448, 0.03, 0.02, 344.04, 562.96, 33.6216403, 72.955686, 0.9903252, 0.0002912461, 0.0001542268, -0.1387654
 1222657408, 0.02, 0, 344.04, 563.21, 33.6216403, 72.955686, 0.9903173, 0.0002431497, -4.645264E-05, -0.1388222
 1222758201, 0.02, 0, 344.03, 563.46, 33.6216403, 72.955686, 0.9903095, 0.0002510644, -8.27143E-05, -0.1388778
 1222858161, 0.02, 0, 344.03, 563.71, 33.6216403, 72.955686, 0.9903054, 0.0001777272, -8.645317E-05, -0.1389071
 1222958121, 0.02, 0, 344.02, 563.96, 33.6216403, 72.955686, 0.9903029, 0.0001750046, -8.173775E-05, -0.1389249
 1223058081, 0, 0, 344.02, 564.2, 33.6216403, 72.955686, 0.990302, 2.904274E-05, -5.184557E-05, -0.1389318
 1223158041, 0, 0, 344.02, 564.44, 33.6216403, 72.955686, 0.9903032, 5.009002E-05, -7.795404E-05, -0.138923
 1223258001, 0, -0.01, 344.03, 564.68, 33.6216403, 72.955686, 0.9903063, 4.858359E-05, -0.0001816816, -0.1389008
 1223357961, 0, -0.01, 344.03, 564.92, 33.6216403, 72.955686, 0.9903115, 1.971293E-05, -0.0001707525, -0.1388637
 1223457921, 0, -0.01, 344.04, 565.16, 33.6216403, 72.955686, 0.9903172, -2.094716E-05, -0.0001521521, -0.1388234
 1223557881, 0, -0.01, 344.04, 565.4, 33.6216403, 72.955686, 0.9903235, -4.591478E-05, -0.000168308, -0.1387781
 1223657841, 0, -0.02, 344.05, 565.64, 33.6216403, 72.955686, 0.99033, -4.746605E-07, -0.0001969793, -0.1387316
 1223757801, 0, -0.02, 344.05, 565.88, 33.6216403, 72.955686, 0.9903366, 7.203559E-06, -0.0002188825, -0.1386846
 1223857761, -0.01, -0.02, 344.06, 566.12, 33.6216403, 72.955686, 0.9903433, -0.0001860313, -0.000169506, -0.1386365
 1223957721, -0.02, -0.02, 344.06, 566.36, 33.6216403, 72.955686, 0.9903493, -0.0002546862, -0.0001430095, -0.1385936
 1224057681, -0.03, -0.01, 344.07, 566.6, 33.6216403, 72.9556858, 0.9903545, -0.0003105226, -0.0001316534, -0.1385566
 1224157641, -0.03, -0.02, 344.07, 566.84, 33.6216403, 72.9556858, 0.9903552, -0.0003324866, -0.0001507485, -0.1385516
 1224257601, -0.03, -0.01, 344.07, 567.08, 33.6216403, 72.9556858, 0.9903533, -0.0003267303, -0.0001136963, -0.1385645
 1224357561, -0.02, 0, 344.06, 567.32, 33.6216403, 72.9556858, 0.9903512, -0.00018044, -1.676862E-05, -0.1385802
 1224457521, -0.01, 0, 344.06, 567.56, 33.6216403, 72.9556858, 0.9903497, -0.0001194661, -1.685387E-05, -0.1385909
 1224557481, 0, 0, 344.06, 567.8, 33.6216403, 72.9556858, 0.9903486, 4.831637E-05, -2.42714E-07, -0.1385988
 1224657441, 0, 0, 344.06, 568.04, 33.6216405, 72.9556858, 0.9903495, 6.366544E-05, -1.060404E-05, -0.1385921
 1224758234, 0.03, 0, 344.06, 568.28, 33.6216405, 72.9556858, 0.9903511, 0.000263856, -9.696329E-06, -0.1385809
 1224858194, 0.03, 0, 344.07, 568.52, 33.6216405, 72.9556858, 0.9903531, 0.0002820723, -1.028428E-07, -0.1385664
 1224958154, 0.03, 0, 344.07, 568.76, 33.6216405, 72.9556858, 0.9903574, 0.0003532196, 2.979808E-05, -0.1385357
 1225058114, 0.04, 0.01, 344.07, 569, 33.6216405, 72.9556858, 0.990362, 0.0003668232, 5.988497E-05, -0.1385026
 1225158074, 0.04, 0.03, 344.08, 569.24, 33.6216405, 72.9556858, 0.9903656, 0.0004265441, 0.0002674352, -0.1384763
 1225258034, 0.03, 0.04, 344.08, 569.48, 33.6216405, 72.9556858, 0.990369, 0.0003911818, 0.0003215744, -0.1384523
 1225357994, 0.03, 0.05, 344.08, 569.72, 33.6216405, 72.9556858, 0.9903725, 0.0003924615, 0.0004226769, -0.1384265
 1225457954, 0.03, 0.05, 344.08, 569.96, 33.6216405, 72.9556858, 0.990375, 0.0003744556, 0.0004499453, -0.1384084
 1225557914, 0.03, 0.06, 344.08, 570.2, 33.6216405, 72.9556858, 0.9903764, 0.0003716537, 0.0004986078, -0.1383991
 1225657874, 0.02, 0.06, 344.08, 570.44, 33.6216405, 72.9556858, 0.9903738, 0.0003139315, 0.0005047366, -0.138417
 1225757834, 0.02, 0.06, 344.08, 570.68, 33.6216405, 72.9556858, 0.99037, 0.0003019383, 0.0004979903, -0.1384446
 1225857794, 0.02, 0.06, 344.08, 570.92, 33.6216405, 72.9556858, 0.990368, 0.0002597768, 0.0004999145, -0.1384589
 1225957754, 0.02, 0.05, 344.08, 571.16, 33.6216405, 72.9556858, 0.9903679, 0.0002616843, 0.0004680055, -0.1384597
 1226057714, 0.01, 0.05, 344.08, 571.4, 33.6216405, 72.9556858, 0.9903692, 0.0002117715, 0.0004807111, -0.1384508
 1226157674, 0.01, 0.05, 344.08, 571.64, 33.6216405, 72.9556858, 0.9903714, 0.0001763448, 0.0004552204, -0.1384348
 1226257634, 0.01, 0.05, 344.08, 571.88, 33.6216405, 72.9556858, 0.9903742, 0.000176684, 0.0004537436, -0.138415
 1226357594, 0.01, 0.05, 344.09, 572.11, 33.6216405, 72.9556858, 0.9903771, 0.000172468, 0.0004283004, -0.1383945
 1226457554, 0, 0.04, 344.09, 572.35, 33.6216405, 72.9556858, 0.9903802, 0.0001248104, 0.0004008423, -0.1383722
 1226557514, 0.01, 0.04, 344.09, 572.59, 33.6216405, 72.9556858, 0.9903834, 0.0001527735, 0.0004183163, -0.1383488
 1226657474, 0, 0.03, 344.09, 572.83, 33.6216405, 72.9556858, 0.990387, 9.488835E-05, 0.0003074721, -0.1383238
 1226757434, 0, 0.03, 344.1, 573.07, 33.6216405, 72.9556858, 0.9903902, 8.61955E-05, 0.0002959763, -0.138301
 1226858227, 0, 0.02, 344.1, 573.31, 33.6216405, 72.9556858, 0.9903933, 6.434927E-05, 0.0002450149, -0.1382788
 1226958187, 0.01, 0.02, 344.1, 573.55, 33.6216405, 72.9556858, 0.9903958, 0.0001172774, 0.0001684868, -0.1382608
 1227058147, 0.01, 0.01, 344.1, 573.79, 33.6216405, 72.9556858, 0.9903984, 0.0001665947, 9.672725E-05, -0.1382427
 1227158107, 0.02, 0, 344.1, 574.03, 33.6216405, 72.9556858, 0.9904009, 0.0002125987, 2.979678E-05, -0.1382246
 1227258067, 0.01, 0, 344.11, 574.26, 33.6216405, 72.9556858, 0.9904035, 0.0001721252, 4.388723E-05, -0.1382057
 1227358027, 0.01, 0.01, 344.11, 574.5, 33.6216405, 72.9556858, 0.9904067, 0.0001372015, 8.682677E-05, -0.1381831
 1227457987, 0, 0.01, 344.11, 574.74, 33.6216405, 72.955686, 0.9904056, 5.322603E-05, 0.0001259005, -0.138191
 1227557947, -0.01, 0, 344.11, 574.98, 33.6216405, 72.955686, 0.9904025, -8.316388E-05, 8.416623E-05, -0.1382133
 1227657907, -0.02, 0, 344.1, 575.22, 33.6216405, 72.955686, 0.9903994, -0.0002037243, 9.197825E-05, -0.1382357
 1227757867, -0.03, 0, 344.1, 575.45, 33.6216405, 72.955686, 0.9903963, -0.0002696274, 9.272521E-05, -0.1382572
 1227857827, -0.02, 0.01, 344.1, 575.69, 33.6216405, 72.955686, 0.9903936, -0.0002199821, 0.0001285377, -0.1382762
 1227957787, -0.02, 0.01, 344.1, 575.93, 33.6216405, 72.955686, 0.9903915, -0.0001607683, 0.0001895282, -0.1382922
 1228057747, -0.01, 0.01, 344.1, 576.16, 33.6216403, 72.955686, 0.9903896, -0.0001284189, 0.0001690604, -0.1383055
 1228157707, -0.01, 0.01, 344.09, 576.4, 33.6216403, 72.955686, 0.9903885, -0.0001126797, 0.0001679258, -0.1383138
 1228257667, -0.02, 0.01, 344.09, 576.64, 33.6216403, 72.955686, 0.9903879, -0.0002064816, 0.000167849, -0.1383177
 1228357627, -0.04, 0, 344.09, 576.88, 33.6216403, 72.955686, 0.9903873, -0.0003532452, 0.000106533, -0.1383218
 1228457587, -0.04, -0.01, 344.09, 577.13, 33.6216403, 72.955686, 0.9903864, -0.0003968643, -4.859875E-05, -0.1383277
 1228557547, -0.03, -0.02, 344.09, 577.37, 33.6216403, 72.955686, 0.9903862, -0.0003205441, -0.0001352463, -0.1383291
 1228657507, -0.02, -0.03, 344.09, 577.61, 33.6216403, 72.955686, 0.9903868, -0.0002679446, -0.0002414524, -0.1383251
 1228757467, -0.03, -0.03, 344.09, 577.86, 33.6216403, 72.955686, 0.9903875, -0.0003281325, -0.0002197979, -0.1383199
 1228857427, -0.02, -0.04, 344.09, 578.1, 33.6216403, 72.955686, 0.9903885, -0.0003157778, -0.000373649, -0.1383132
 1228958220, -0.02, -0.05, 344.1, 578.34, 33.6216403, 72.955686, 0.9903898, -0.000243355, -0.0004577159, -0.1383036
 1229058180, -0.01, -0.06, 344.1, 578.58, 33.6216403, 72.955686, 0.990391, -0.0001869656, -0.0005373575, -0.1382949
 1229158140, 0, -0.06, 344.1, 578.83, 33.6216403, 72.955686, 0.9903916, -0.0001554696, -0.0005503151, -0.1382904
 1229258100, 0, -0.06, 344.1, 579.07, 33.6216403, 72.955686, 0.9903916, -0.0001632653, -0.0005637327, -0.1382905
 1229358060, 0, -0.06, 344.1, 579.31, 33.6216403, 72.955686, 0.9903915, -0.0001242813, -0.0005672463, -0.1382911
 1229458020, 0, -0.06, 344.1, 579.55, 33.6216403, 72.955686, 0.9903917, -0.0001419829, -0.0005254965, -0.1382893
 1229557980, 0, -0.05, 344.1, 579.79, 33.6216403, 72.955686, 0.9903919, -0.0001118602, -0.0005009868, -0.1382882
 1229657940, 0, -0.05, 344.1, 580.03, 33.6216403, 72.955686, 0.9903917, -4.367226E-05, -0.0005040465, -0.1382894
 1229757900, 0, -0.04, 344.1, 580.27, 33.6216403, 72.955686, 0.9903917, 6.721323E-06, -0.0003910493, -0.1382899
 1229857860, 0, -0.04, 344.1, 580.5, 33.6216403, 72.955686, 0.9903908, -4.36496E-05, -0.0004112034, -0.138296
 1229957820, 0, -0.05, 344.1, 580.74, 33.6216403, 72.955686, 0.9903893, -7.838064E-05, -0.0004317396, -0.1383072
 1230057780, 0, -0.04, 344.09, 580.98, 33.6216403, 72.955686, 0.9903875, -0.0001017537, -0.0003868457, -0.1383201
 1230157740, 0, -0.02, 344.09, 581.22, 33.6216403, 72.955686, 0.9903859, -7.420332E-05, -0.0002104899, -0.1383316
 1230257700, 0, -0.02, 344.09, 581.46, 33.6216403, 72.955686, 0.9903851, -8.705407E-05, -0.0001667099, -0.1383378
 1230357660, -0.01, -0.02, 344.09, 581.69, 33.6216403, 72.955686, 0.9903852, -0.0001288621, -0.0001671948, -0.138337
 1230457620, -0.01, -0.02, 344.09, 581.93, 33.6216403, 72.955686, 0.9903867, -0.000140003, -0.0001567039, -0.1383268
 1230557580, -0.01, -0.01, 344.09, 582.17, 33.6216403, 72.955686, 0.9903886, -0.0001384971, -8.578631E-05, -0.1383124
 1230657540, -0.01, -0.01, 344.1, 582.41, 33.6216403, 72.955686, 0.990394, -0.0001147075, -0.0001051974, -0.1382741
 1230757500, -0.01, -0.01, 344.11, 582.65, 33.6216403, 72.955686, 0.9904044, -0.0001195572, -8.68603E-05, -0.1382
 1230857460, -0.02, 0, 344.12, 582.88, 33.6216403, 72.955686, 0.9904143, -0.000190346, -2.713022E-05, -0.1381285
 1230957420, -0.02, 0, 344.12, 583.12, 33.6216403, 72.955686, 0.9904232, -0.0001718661, 6.508527E-05, -0.1380646
 1231058213, -0.02, 0, 344.13, 583.36, 33.6216403, 72.955686, 0.9904286, -0.0001719519, 8.953908E-05, -0.1380261
 1231158173, -0.01, 0, 344.13, 583.6, 33.6216403, 72.955686, 0.9904324, -0.0001373091, 3.111893E-05, -0.1379987
 1231258133, -0.01, 0, 344.13, 583.84, 33.6216403, 72.955686, 0.9904334, -0.0001279846, -2.74678E-05, -0.1379914
 1231358093, -0.01, 0, 344.13, 584.07, 33.6216403, 72.955686, 0.9904305, -0.0001048959, -5.566108E-05, -0.1380128
 1231458053, 0, -0.01, 344.13, 584.31, 33.6216403, 72.955686, 0.9904253, -8.605988E-05, -0.0001037633, -0.1380496
 1231558013, 0, -0.01, 344.12, 584.55, 33.6216403, 72.955686, 0.9904196, -9.654294E-05, -0.000109293, -0.1380907
 1231657973, 0, -0.01, 344.12, 584.79, 33.6216403, 72.955686, 0.9904133, -7.115021E-05, -0.0001193205, -0.1381359
 1231757933, 0, -0.01, 344.11, 585.02, 33.6216403, 72.955686, 0.9904072, -5.900944E-05, -0.0001530536, -0.1381797
 1231857893, 0, -0.02, 344.11, 585.26, 33.6216403, 72.955686, 0.9904047, -4.817516E-05, -0.0001983832, -0.1381972
 1231957853, 0, -0.02, 344.11, 585.5, 33.6216403, 72.955686, 0.9904069, -4.179373E-05, -0.0002016189, -0.1381815
 1232057813, 0, -0.02, 344.11, 585.73, 33.6216403, 72.955686, 0.9904099, -6.433308E-05, -0.0002089802, -0.1381599
 1232157773, 0, -0.02, 344.11, 585.97, 33.6216403, 72.955686, 0.9904132, -4.78376E-05, -0.0002171003, -0.1381365
 1232257733, 0, -0.01, 344.12, 586.21, 33.6216403, 72.955686, 0.9904161, -6.038774E-06, -0.0001676468, -0.1381155
 1232357693, 0, -0.01, 344.12, 586.44, 33.6216403, 72.955686, 0.9904183, 1.084854E-05, -0.0001266862, -0.1380997
 1232457653, 0, -0.01, 344.12, 586.68, 33.6216403, 72.955686, 0.9904199, 5.34535E-07, -0.0001525679, -0.1380882
 1232557613, 0, -0.01, 344.12, 586.92, 33.6216403, 72.955686, 0.9904206, 1.202278E-05, -0.0001584877, -0.1380831
 1232657573, 0, -0.01, 344.12, 587.15, 33.6216403, 72.955686, 0.9904208, 1.236336E-05, -0.0001495021, -0.1380819
 1232757533, 0, -0.01, 344.12, 587.39, 33.6216403, 72.9556858, 0.9904187, -6.513737E-06, -0.0001261966, -0.1380969
 1232857493, 0, -0.01, 344.11, 587.63, 33.6216403, 72.9556858, 0.9904121, -4.39111E-06, -8.816054E-05, -0.1381442
 1232957453, 0, 0, 344.11, 587.86, 33.6216403, 72.9556858, 0.9904037, -2.402962E-05, -8.427436E-05, -0.1382049
 1233057413, 0, -0.01, 344.1, 588.1, 33.6216403, 72.9556858, 0.9903987, 1.465189E-05, -0.0001241405, -0.1382404
 1233158206, 0.01, 0, 344.1, 588.34, 33.6216403, 72.9556858, 0.9903973, 0.0001278901, -6.263936E-05, -0.1382499
 1233258166, 0.01, 0, 344.1, 588.57, 33.6216403, 72.9556858, 0.9903972, 0.0001383442, -6.160267E-05, -0.1382509
 1233358126, 0.02, 0, 344.1, 588.81, 33.6216405, 72.9556858, 0.9903984, 0.0002534659, -3.711645E-05, -0.1382426
 1233458086, 0.03, 0, 344.1, 589.05, 33.6216405, 72.9556858, 0.9903997, 0.000279178, -9.607719E-05, -0.1382331
 1233558046, 0.03, 0, 344.11, 589.28, 33.6216405, 72.9556858, 0.9904016, 0.0003253262, 7.41536E-06, -0.1382193
 1233658006, 0.03, 0.01, 344.11, 589.52, 33.6216405, 72.9556858, 0.990404, 0.0003510554, 0.0001197472, -0.1382024
 1233757966, 0.03, 0.03, 344.11, 589.75, 33.6216405, 72.9556858, 0.990408, 0.0003320465, 0.0002857394, -0.1381733
 1233857926, 0.02, 0.03, 344.12, 589.99, 33.6216405, 72.9556858, 0.990414, 0.0002616372, 0.0003030744, -0.1381305
 1233957886, 0.02, 0.05, 344.12, 590.23, 33.6216405, 72.9556858, 0.9904216, 0.0002709772, 0.0004098441, -0.1380753
 1234057846, 0.02, 0.04, 344.13, 590.47, 33.6216405, 72.9556858, 0.9904296, 0.0002379597, 0.000391819, -0.1380182
 1234157806, 0.01, 0.05, 344.13, 590.7, 33.6216405, 72.9556858, 0.9904364, 0.0002201385, 0.0004237106, -0.1379692
 1234257766, 0.01, 0.05, 344.14, 590.94, 33.6216405, 72.9556858, 0.9904411, 0.000181045, 0.0004200226, -0.1379361
 1234357726, 0.01, 0.04, 344.14, 591.18, 33.6216405, 72.9556858, 0.9904433, 0.0001618576, 0.0004096722, -0.1379198
 1234457686, 0.01, 0.05, 344.14, 591.42, 33.6216405, 72.9556858, 0.9904437, 0.0001642698, 0.0004215775, -0.1379167
 1234557646, 0.01, 0.04, 344.14, 591.65, 33.6216405, 72.9556858, 0.9904428, 0.0001547046, 0.0004056804, -0.1379233
 1234657606, 0.01, 0.04, 344.14, 591.89, 33.6216405, 72.9556858, 0.9904401, 0.0001524947, 0.0004031398, -0.1379426
 1234757566, 0.01, 0.04, 344.13, 592.13, 33.6216405, 72.9556858, 0.9904342, 0.0001650294, 0.0004045474, -0.1379854
 1234857526, 0.01, 0.04, 344.13, 592.37, 33.6216405, 72.9556858, 0.9904279, 0.0001482151, 0.0003720451, -0.1380302
 1234957486, 0, 0.04, 344.12, 592.61, 33.6216405, 72.9556858, 0.9904218, 0.0001133075, 0.0003559667, -0.138074
 1235057446, 0, 0.03, 344.12, 592.84, 33.6216405, 72.9556858, 0.9904162, 8.465802E-05, 0.0003343514, -0.1381147
 1235158239, 0, 0.03, 344.11, 593.08, 33.6216405, 72.9556858, 0.9904125, 9.707041E-05, 0.0002743331, -0.1381412
 1235258199, 0, 0.02, 344.11, 593.32, 33.6216405, 72.9556858, 0.9904075, 5.331354E-05, 0.0002397452, -0.1381773
 1235358159, 0, 0.01, 344.11, 593.56, 33.6216405, 72.9556858, 0.9904021, -5.15315E-05, 0.000164882, -0.1382159
 1235458119, -0.01, 0, 344.1, 593.8, 33.6216405, 72.9556858, 0.9903967, -0.0001492121, 9.504049E-05, -0.1382546
 1235558079, 0, 0.01, 344.1, 594.04, 33.6216405, 72.9556858, 0.9903919, -2.559933E-05, 0.0001616748, -0.1382896
 1235658039, 0, 0.03, 344.1, 594.27, 33.6216405, 72.9556858, 0.990391, 7.057774E-05, 0.0002585775, -0.1382949
 1235757999, 0, 0.04, 344.1, 594.51, 33.6216405, 72.9556858, 0.9903954, 0.0001098161, 0.0003558979, -0.1382641
 1235857959, 0, 0.03, 344.11, 594.75, 33.6216405, 72.9556858, 0.9904038, 0.0001188994, 0.0003196591, -0.1382037
 1235957919, 0, 0.04, 344.12, 594.99, 33.6216405, 72.9556858, 0.9904134, 0.0001341863, 0.0003362659, -0.1381344
 1236057879, 0, 0.02, 344.12, 595.23, 33.6216405, 72.9556858, 0.9904219, 0.0001106223, 0.0001786533, -0.1380738
 1236157839, 0, 0.02, 344.13, 595.46, 33.6216405, 72.9556858, 0.9904294, 0.0001161246, 0.0002284224, -0.1380203
 1236257799, 0, 0.01, 344.13, 595.7, 33.6216405, 72.9556858, 0.9904364, 0.0001049287, 0.0001572745, -0.1379704
 1236357759, 0, 0, 344.14, 595.94, 33.6216405, 72.9556858, 0.9904431, 8.557524E-05, 2.661364E-05, -0.1379222
 1236457719, 0, 0, 344.15, 596.18, 33.6216405, 72.9556858, 0.9904498, 6.757431E-05, -9.525193E-05, -0.1378741
 1236557679, 0, -0.02, 344.15, 596.42, 33.6216405, 72.9556858, 0.9904564, 5.0835E-05, -0.0002089234, -0.137826
 1236657639, 0, -0.03, 344.16, 596.65, 33.6216405, 72.9556858, 0.9904625, 1.979109E-05, -0.0003065547, -0.1377824
 1236757599, 0, -0.01, 344.16, 596.89, 33.6216405, 72.9556858, 0.9904649, 6.108827E-05, -0.0001279662, -0.1377652
 1236857559, 0, 0, 344.16, 597.13, 33.6216405, 72.9556858, 0.990466, 3.707835E-05, 5.18643E-05, -0.1377575
 1236957519, 0, 0.02, 344.16, 597.37, 33.6216405, 72.9556858, 0.9904671, 1.473699E-05, 0.0002194788, -0.1377497
 1237057479, 0, 0.03, 344.16, 597.6, 33.6216405, 72.9556858, 0.9904677, -1.744166E-05, 0.0002937856, -0.1377451
 1237157439, -0.01, 0.03, 344.16, 597.84, 33.6216405, 72.9556858, 0.9904667, -5.397292E-05, 0.000315745, -0.1377525
 1237258232, -0.01, 0.03, 344.16, 598.08, 33.6216405, 72.955686, 0.9904655, -9.26895E-05, 0.0003045439, -0.1377609
 1237358192, 0, 0.02, 344.16, 598.32, 33.6216405, 72.955686, 0.9904624, 3.050812E-05, 0.0002419809, -0.1377829
 1237458152, 0, 0.02, 344.15, 598.55, 33.6216405, 72.955686, 0.9904565, 7.071318E-05, 0.0001939768, -0.1378257
 1237558112, 0, 0.01, 344.15, 598.79, 33.6216405, 72.955686, 0.9904504, 6.737601E-05, 0.0001548445, -0.1378696
 1237658072, 0, 0, 344.14, 599.03, 33.6216405, 72.955686, 0.990444, 5.536656E-05, 5.408226E-05, -0.1379153
 1237758032, 0, 0, 344.13, 599.26, 33.6216403, 72.955686, 0.9904372, 4.206554E-05, -5.539642E-05, -0.1379646
 1237857992, 0, -0.01, 344.13, 599.5, 33.6216403, 72.955686, 0.9904278, -0.0001035298, -0.0001546099, -0.138032
 1237957952, -0.01, -0.02, 344.12, 599.74, 33.6216403, 72.955686, 0.9904135, -0.0001181605, -0.0001908775, -0.138134
 1238057912, -0.02, -0.03, 344.1, 599.97, 33.6216403, 72.955686, 0.9903979, -0.0002946309, -0.0002704039, -0.1382458
 1238157872, -0.03, -0.04, 344.09, 600.21, 33.6216403, 72.955686, 0.9903843, -0.0003599549, -0.0003108103, -0.1383428
 1238257832, -0.04, -0.05, 344.08, 600.45, 33.6216403, 72.955686, 0.990371, -0.0004115629, -0.000385364, -0.1384372
 1238357792, -0.03, -0.05, 344.07, 600.68, 33.6216403, 72.955686, 0.9903585, -0.0003995568, -0.000395911, -0.1385269
 1238457752, -0.03, -0.05, 344.06, 600.91, 33.6216403, 72.955686, 0.9903482, -0.0004071961, -0.0004613873, -0.1386004
 1238557712, -0.02, -0.06, 344.06, 601.13, 33.6216403, 72.955686, 0.9903413, -0.0003215086, -0.0004953822, -0.1386497
 1238657672, -0.02, -0.05, 344.05, 601.36, 33.6216403, 72.955686, 0.990337, -0.0002808882, -0.0004830988, -0.1386808
 1238757632, -0.02, -0.06, 344.05, 601.57, 33.6216403, 72.955686, 0.9903358, -0.0003157157, -0.0005111246, -0.138689
 1238857592, -0.02, -0.05, 344.05, 601.78, 33.6216403, 72.955686, 0.9903374, -0.0002866948, -0.0004680886, -0.1386777
 1238957552, -0.01, -0.04, 344.06, 601.99, 33.6216403, 72.955686, 0.990341, -0.0002202796, -0.0003634109, -0.1386525
 1239057512, -0.01, -0.03, 344.06, 602.19, 33.6216403, 72.955686, 0.9903466, -0.0001695294, -0.0002590116, -0.1386134
 1239157472, -0.01, -0.02, 344.07, 602.38, 33.6216403, 72.955686, 0.9903539, -0.0001642396, -0.0002030144, -0.1385607
 1239257432, -0.01, -0.02, 344.07, 602.57, 33.6216403, 72.955686, 0.9903618, -0.0001963191, -0.0002095846, -0.1385043
 1239358225, -0.02, -0.02, 344.08, 602.75, 33.6216403, 72.955686, 0.9903698, -0.0002294919, -0.0002145718, -0.1384472
 1239458185, -0.02, -0.03, 344.09, 602.93, 33.6216403, 72.955686, 0.9903772, -0.0002846042, -0.0002297047, -0.1383936
 1239558145, -0.02, -0.03, 344.09, 603.1, 33.6216403, 72.955686, 0.9903851, -0.0002324119, -0.0002449384, -0.1383372
 1239658105, -0.01, -0.03, 344.1, 603.26, 33.6216403, 72.955686, 0.9903916, -0.0001939721, -0.000289564, -0.138291
 1239758065, 0, -0.03, 344.1, 603.42, 33.6216403, 72.955686, 0.9903973, -9.545966E-05, -0.0002638157, -0.1382501
 1239858025, 0, -0.02, 344.11, 603.58, 33.6216403, 72.955686, 0.9904029, -4.940832E-05, -0.0001952895, -0.1382104
 1239957985, 0, -0.02, 344.11, 603.73, 33.6216403, 72.955686, 0.990406, -2.003366E-05, -0.0002330776, -0.1381883
 1240057945, 0, -0.03, 344.11, 603.87, 33.6216403, 72.955686, 0.9904079, 2.163946E-05, -0.0003426833, -0.1381737
 1240157905, 0, -0.03, 344.11, 604.01, 33.6216403, 72.955686, 0.9904085, 1.437077E-05, -0.0003430758, -0.1381698
 1240257865, 0, -0.03, 344.11, 604.15, 33.6216403, 72.955686, 0.9904068, -1.574373E-05, -0.0003494192, -0.1381821
 1240357825, 0.01, -0.03, 344.11, 604.28, 33.6216403, 72.955686, 0.9904015, 4.737721E-05, -0.0002991325, -0.1382199
 1240457785, 0, -0.03, 344.1, 604.4, 33.6216403, 72.955686, 0.9903934, 3.021378E-05, -0.0002965438, -0.138278
 1240557745, 0, -0.02, 344.09, 604.52, 33.6216403, 72.955686, 0.9903849, -3.067226E-06, -0.000204288, -0.1383388
 1240657705, 0, -0.01, 344.08, 604.63, 33.6216403, 72.955686, 0.9903765, -6.76141E-05, -0.0001447285, -0.1383993
 1240757665, 0, -0.01, 344.08, 604.74, 33.6216403, 72.955686, 0.9903684, -9.717941E-05, -0.0001060059, -0.1384575
 1240857625, -0.01, -0.01, 344.07, 604.84, 33.6216403, 72.955686, 0.9903611, -0.0001280875, -8.572018E-05, -0.1385096
 1240957585, -0.01, 0, 344.07, 604.94, 33.6216403, 72.955686, 0.9903544, -0.0001575498, -6.328675E-05, -0.1385572
 1241057545, -0.02, -0.01, 344.06, 605.03, 33.6216403, 72.955686, 0.9903488, -0.0001969535, -0.0001195183, -0.1385976
 1241157505, -0.01, -0.01, 344.06, 605.12, 33.6216403, 72.955686, 0.990345, -0.0001725234, -9.873916E-05, -0.1386245
 1241257465, -0.02, -0.01, 344.06, 605.2, 33.6216403, 72.955686, 0.9903436, -0.0002352852, -0.0001212695, -0.1386341
 1241357425, -0.02, 0, 344.06, 605.28, 33.6216403, 72.9556858, 0.9903449, -0.0001834878, -4.772511E-05, -0.1386254
 1241458218, -0.01, 0, 344.06, 605.35, 33.6216403, 72.9556858, 0.9903477, -0.0001716634, 1.527169E-05, -0.1386054
 1241558178, -0.01, 0, 344.06, 605.42, 33.6216403, 72.9556858, 0.9903508, -0.0001516664, 7.192728E-05, -0.1385828
 1241658138, 0, 0, 344.07, 605.48, 33.6216403, 72.9556858, 0.9903557, -6.366063E-05, 9.478102E-05, -0.1385481
 1241758098, 0.01, 0, 344.07, 605.53, 33.6216403, 72.9556858, 0.9903613, 0.0001626066, -5.592397E-06, -0.1385081
 1241858058, 0.02, 0, 344.08, 605.58, 33.6216403, 72.9556858, 0.9903671, 0.0001911179, -0.0001069, -0.1384669
 1241958018, 0.03, 0, 344.08, 605.63, 33.6216405, 72.9556858, 0.9903731, 0.0003354032, -7.224612E-05, -0.1384233
 1242057978, 0.04, 0, 344.09, 605.66, 33.6216405, 72.9556858, 0.9903787, 0.0004269886, -2.750749E-05, -0.1383832
 1242157938, 0.04, 0, 344.09, 605.69, 33.6216405, 72.9556858, 0.9903835, 0.0004400109, 2.3946E-05, -0.1383483
 1242257898, 0.04, 0, 344.09, 605.72, 33.6216405, 72.9556858, 0.9903876, 0.0004316429, 1.612884E-05, -0.1383197
 1242357858, 0.06, 0.02, 344.1, 605.73, 33.6216405, 72.9556858, 0.9903906, 0.0006008786, 0.0001669974, -0.1382972
 1242457818, 0.08, 0.01, 344.1, 605.74, 33.6216405, 72.9556858, 0.9903926, 0.0007131351, 5.66618E-05, -0.138282
 1242557778, 0.15, -0.14, 344.1, 605.74, 33.6216405, 72.9556858, 0.990392, 0.001167979, -0.00141388, -0.1382762
 1242657738, 0.31, -0.52, 344.1, 605.74, 33.6216405, 72.9556858, 0.9903788, 0.002094598, -0.004952752, -0.1382783
 1242757698, 0.54, -1.05, 344.09, 605.73, 33.6216405, 72.9556858, 0.9903387, 0.003453001, -0.009740986, -0.1382842
 1242857658, 0.78, -1.61, 344.08, 605.72, 33.6216405, 72.9556858, 0.9902675, 0.004841205, -0.01491181, -0.138291
 1242957618, 1.02, -2.15, 344.07, 605.71, 33.6216406, 72.9556858, 0.9901731, 0.006246862, -0.01982331, -0.1382944
 1243057578, 1.24, -2.65, 344.06, 605.71, 33.6216407, 72.9556858, 0.9900604, 0.007500991, -0.02446906, -0.1382947
 1243157538, 1.44, -3.12, 344.05, 605.7, 33.6216408, 72.9556858, 0.9899363, 0.008730609, -0.02876401, -0.1382843
 1243257498, 1.64, -3.58, 344.04, 605.71, 33.6216409, 72.9556858, 0.9897978, 0.009827154, -0.03295315, -0.1382674
 1243357458, 1.84, -4.01, 344.03, 605.71, 33.6216413, 72.955686, 0.9896497, 0.01106115, -0.03690439, -0.1382356
 1243457418, 2.03, -4.44, 344.01, 605.72, 33.6216415, 72.955686, 0.9894884, 0.01215843, -0.04082683, -0.138196
 1243558211, 2.23, -4.86, 344, 605.74, 33.621642, 72.9556861, 0.9893122, 0.01341419, -0.04474296, -0.1381283
 1243658171, 2.42, -5.3, 344.01, 605.76, 33.6216424, 72.9556862, 0.989135, 0.01449954, -0.04877101, -0.137924
 1243758131, 2.61, -5.77, 344.21, 605.79, 33.621643, 72.9556863, 0.9891661, 0.01567395, -0.05298054, -0.1360062
 1243858091, 2.73, -6.28, 345.03, 605.82, 33.6216436, 72.9556863, 0.9898825, 0.0164868, -0.05741302, -0.1287036
 1243958051, 2.72, -6.84, 346.9, 605.86, 33.6216443, 72.9556865, 0.9915903, 0.01677737, -0.06198779, -0.1123594
 1244058011, 2.52, -7.46, 349.95, 605.91, 33.621645, 72.9556867, 0.9939264, 0.01623594, -0.066779, -0.08594982
 1244157971, 2.15, -8.14, 353.92, 605.96, 33.6216461, 72.9556869, 0.9959689, 0.01495946, -0.07186572, -0.05155036
 1244257931, 1.6, -8.81, 358.45, 606.02, 33.621647, 72.955687, 0.996869, 0.01290081, -0.07703172, -0.01232891
 1244357891, 0.93, -9.48, 3.24, 606.09, 33.6216482, 72.9556872, 0.9961231, 0.01043511, -0.08244286, 0.02886141
 1244457851, 0.16, -10.12, 7.97, 606.16, 33.6216496, 72.9556875, 0.9936782, 0.0075335, -0.08793423, 0.06938718
 1244557811, -0.63, -10.71, 12.36, 606.24, 33.621651, 72.9556877, 0.9898805, 0.004548474, -0.09345819, 0.1066841
 1244657771, -1.41, -11.26, 16.14, 606.33, 33.6216524, 72.9556881, 0.9854079, 0.001635468, -0.09891687, 0.1385067
 1244757731, -2.08, -11.77, 19.1, 606.43, 33.6216542, 72.9556884, 0.9810795, -0.0008212394, -0.1040966, 0.1632368
 1244857691, -2.59, -12.15, 21.14, 606.54, 33.621656, 72.9556887, 0.9776818, -0.002741056, -0.1082063, 0.1800617
 1244957651, -2.9, -12.41, 22.24, 606.66, 33.6216581, 72.9556891, 0.9756888, -0.003855163, -0.1109082, 0.1889865
 1245057611, -3, -12.62, 22.43, 606.79, 33.6216602, 72.9556894, 0.9751732, -0.004176615, -0.1128578, 0.1904807
 1245157571, -2.89, -12.79, 21.82, 606.92, 33.6216626, 72.9556899, 0.9760185, -0.003583106, -0.114121, 0.1853413
 1245257531, -2.6, -12.84, 20.52, 607.07, 33.6216651, 72.9556904, 0.9780208, -0.002272798, -0.1140996, 0.1745033
 1245357491, -2.14, -12.79, 18.66, 607.23, 33.6216676, 72.9556908, 0.9807925, -0.0003378681, -0.112926, 0.1590398
 1245457451, -1.61, -12.67, 16.38, 607.39, 33.6216705, 72.9556913, 0.9838743, 0.001872441, -0.111199, 0.1400806
 1245557411, -1.04, -12.55, 13.85, 607.56, 33.6216734, 72.9556918, 0.9868259, 0.004231133, -0.109651, 0.1188841
 1245658204, -0.46, -12.42, 11.21, 607.74, 33.6216764, 72.9556925, 0.9894014, 0.006536674, -0.1081359, 0.09668924
 1245758164, 0.05, -12.34, 8.69, 607.93, 33.6216795, 72.955693, 0.9913394, 0.008632584, -0.1071832, 0.07538793
 1245858124, 0.5, -12.28, 6.42, 608.12, 33.6216827, 72.9556937, 0.9926609, 0.01034255, -0.1065824, 0.05619267
 1245958084, 0.85, -12.22, 4.54, 608.32, 33.6216861, 72.9556942, 0.9934766, 0.01161165, -0.1060644, 0.04024765
 1246058044, 1.07, -12.11, 3.15, 608.52, 33.6216894, 72.9556949, 0.993966, 0.01226779, -0.105249, 0.02834916
 1246158004, 1.2, -12, 2.29, 608.73, 33.621693, 72.9556954, 0.9942403, 0.0125602, -0.1043485, 0.02097454
 1246257964, 1.21, -11.91, 1.96, 608.95, 33.6216965, 72.9556961, 0.9943798, 0.01229377, -0.1035749, 0.01816589
 1246357924, 1.11, -11.78, 2.15, 609.17, 33.6217002, 72.9556968, 0.9944792, 0.01161437, -0.102416, 0.01967426
 1246457884, 0.93, -11.68, 2.78, 609.39, 33.6217039, 72.9556975, 0.9944579, 0.01062722, -0.1015695, 0.02498327
 1246557844, 0.7, -11.57, 3.77, 609.62, 33.6217077, 72.9556983, 0.9943202, 0.00945243, -0.1006087, 0.0334064
 1246657804, 0.43, -11.46, 5.03, 609.85, 33.6217114, 72.955699, 0.9940135, 0.008159507, -0.09963081, 0.04409445
 1246757764, 0.15, -11.31, 6.44, 610.08, 33.6217154, 72.9556997, 0.993544, 0.00685887, -0.09836147, 0.05610883
 1246857724, -0.12, -11.15, 7.9, 610.31, 33.6217193, 72.9557004, 0.9929081, 0.005619803, -0.09700563, 0.06849745
 1246957684, -0.36, -10.94, 9.3, 610.55, 33.6217233, 72.9557011, 0.9921826, 0.004566221, -0.09533086, 0.0804039
 1247057644, -0.56, -10.72, 10.54, 610.79, 33.6217272, 72.9557018, 0.9914361, 0.003741628, -0.09352081, 0.09107316
 1247157604, -0.69, -10.48, 11.57, 611.03, 33.6217314, 72.9557026, 0.9907726, 0.003203616, -0.09153571, 0.09990296
 1247257564, -0.77, -10.22, 12.34, 611.27, 33.6217355, 72.9557033, 0.9902894, 0.00287336, -0.0893507, 0.1064664
 1247357524, -0.78, -9.93, 12.81, 611.51, 33.6217394, 72.955704, 0.9900643, 0.002873325, -0.08683008, 0.1105668
 1247457484, -0.76, -9.77, 12.98, 611.75, 33.6217435, 72.9557047, 0.9900102, 0.00303883, -0.08541451, 0.1121381
 1247557444, -0.71, -9.75, 12.88, 611.99, 33.6217477, 72.9557054, 0.9901209, 0.003410171, -0.0852109, 0.1113016
 1247658237, -0.63, -9.88, 12.53, 612.23, 33.6217519, 72.9557061, 0.9903653, 0.003890589, -0.08621864, 0.1082953
 1247758197, -0.52, -10, 11.98, 612.47, 33.621756, 72.9557069, 0.9907784, 0.004556058, -0.08723386, 0.103575
 1247858157, -0.4, -10.18, 11.27, 612.71, 33.62176, 72.9557076, 0.991255, 0.005260693, -0.08868352, 0.09757601
 1247958117, -0.25, -10.32, 10.48, 612.94, 33.6217642, 72.9557083, 0.9917932, 0.006027701, -0.08977087, 0.0908359
 1248058077, -0.1, -10.42, 9.67, 613.18, 33.6217684, 72.955709, 0.9923262, 0.006711452, -0.09061946, 0.08385659
 1248158037, 0.03, -10.45, 8.88, 613.42, 33.6217725, 72.9557097, 0.9928463, 0.00732334, -0.09085374, 0.07712524
 1248257997, 0.13, -10.48, 8.16, 613.65, 33.6217767, 72.9557104, 0.9932774, 0.007693286, -0.09107687, 0.07103455
 1248357957, 0.22, -10.48, 7.57, 613.89, 33.6217809, 72.9557112, 0.9936326, 0.008003912, -0.09100217, 0.06594487
 1248457917, 0.29, -10.45, 7.12, 614.12, 33.621785, 72.9557119, 0.9938973, 0.008198662, -0.09080269, 0.06209613
 1248557877, 0.31, -10.45, 6.83, 614.36, 33.6217892, 72.9557126, 0.9940486, 0.008201937, -0.09079654, 0.05963255
 1248657837, 0.3, -10.45, 6.72, 614.59, 33.6217934, 72.9557133, 0.9941129, 0.008024066, -0.09076662, 0.0586227
 1248757797, 0.28, -10.41, 6.76, 614.83, 33.6217977, 72.9557141, 0.9941242, 0.007800653, -0.09042079, 0.05899446
 1248857757, 0.22, -10.37, 6.95, 615.06, 33.6218019, 72.9557148, 0.9940619, 0.007472684, -0.09009725, 0.06056108
 1248957717, 0.16, -10.32, 7.25, 615.3, 33.6218062, 72.9557155, 0.9939404, 0.007149896, -0.0897122, 0.06311107
 1249057677, 0.1, -10.3, 7.63, 615.53, 33.6218104, 72.9557164, 0.9937478, 0.00687148, -0.08950906, 0.06637993
 1249157637, 0.04, -10.25, 8.06, 615.77, 33.6218147, 72.9557171, 0.9935264, 0.006689466, -0.08915336, 0.07008697
 1249257597, -0.02, -10.24, 8.51, 616, 33.6218189, 72.9557179, 0.993263, 0.006390849, -0.08902555, 0.07390687
 1249357557, -0.09, -10.18, 8.94, 616.24, 33.6218232, 72.9557186, 0.9930269, 0.006124862, -0.08854365, 0.07758919
 1249457517, -0.15, -10.12, 9.32, 616.47, 33.6218275, 72.9557193, 0.9928061, 0.005863914, -0.08807911, 0.08089311
 1249557477, -0.17, -10.07, 9.64, 616.71, 33.6218317, 72.9557202, 0.9926155, 0.005906384, -0.08765054, 0.08364831
 1249657437, -0.19, -10.02, 9.88, 616.94, 33.621836, 72.9557209, 0.9924814, 0.005858018, -0.08720791, 0.08568107
 1249758230, -0.19, -9.98, 10.03, 617.18, 33.6218403, 72.9557217, 0.9924067, 0.005907692, -0.08680551, 0.08694118
 1249858190, -0.18, -9.91, 10.07, 617.42, 33.6218446, 72.9557224, 0.9924181, 0.005996592, -0.08623221, 0.08737569
 1249958150, -0.16, -9.9, 10.03, 617.66, 33.621849, 72.9557232, 0.9924559, 0.006158094, -0.08613123, 0.08703343
 1250058110, -0.15, -9.92, 9.91, 617.89, 33.6218533, 72.955724, 0.9925302, 0.006176671, -0.08633457, 0.08597728
 1250158070, -0.11, -9.91, 9.72, 618.13, 33.6218576, 72.9557246, 0.9926785, 0.006291571, -0.08621515, 0.08436058
 1250258030, -0.07, -9.88, 9.48, 618.37, 33.6218618, 72.9557255, 0.9928703, 0.006437327, -0.08596037, 0.08232756
 1250357990, -0.02, -9.86, 9.21, 618.6, 33.6218661, 72.9557262, 0.9930775, 0.006709085, -0.08570295, 0.08004504
 1250457950, 0.01, -9.83, 8.94, 618.84, 33.6218704, 72.955727, 0.9932891, 0.006841404, -0.08542547, 0.07766964
 1250557910, 0.06, -9.78, 8.67, 619.08, 33.6218747, 72.9557277, 0.9935032, 0.006988596, -0.08498193, 0.07536997
 1250657870, 0.1, -9.77, 8.42, 619.31, 33.6218789, 72.9557284, 0.9936625, 0.00712976, -0.0849318, 0.07328455
 1250757830, 0.12, -9.77, 8.22, 619.55, 33.6218832, 72.9557293, 0.9937947, 0.007198576, -0.08489049, 0.07151076
 1250857790, 0.13, -9.78, 8.06, 619.79, 33.6218875, 72.95573, 0.9938874, 0.007132355, -0.08495316, 0.0701426
 1250957750, 0.13, -9.77, 7.96, 620.03, 33.6218917, 72.9557308, 0.9939555, 0.007051135, -0.0848908, 0.06925527
 1251057710, 0.12, -9.78, 7.91, 620.26, 33.621896, 72.9557315, 0.9939788, 0.006953009, -0.08496936, 0.06883337
 1251157670, 0.1, -9.77, 7.91, 620.5, 33.6219002, 72.9557322, 0.9939823, 0.006823344, -0.08491967, 0.0688572
 1251257630, 0.09, -9.77, 7.96, 620.74, 33.6219045, 72.9557331, 0.9939532, 0.00672462, -0.08491551, 0.06929114
 1251357590, 0.08, -9.79, 8.05, 620.97, 33.6219087, 72.9557339, 0.9938845, 0.006773141, -0.0850935, 0.07004832
 1251457550, 0.07, -9.8, 8.16, 621.21, 33.621913, 72.9557346, 0.9938072, 0.006753141, -0.08519454, 0.07101826
 1251557510, 0.05, -9.79, 8.29, 621.45, 33.6219172, 72.9557354, 0.9937315, 0.006673756, -0.08514824, 0.0721318
 1251657470, 0.03, -9.79, 8.43, 621.69, 33.6219215, 72.9557361, 0.9936497, 0.006541914, -0.08512066, 0.07329314
 1251757430, 0, -9.75, 8.56, 621.92, 33.6219257, 72.9557368, 0.9935964, 0.006407605, -0.08477435, 0.07442158
 1251858223, -0.02, -9.74, 8.68, 622.16, 33.62193, 72.9557377, 0.9935251, 0.006243519, -0.08472976, 0.07543059
 1251958183, -0.03, -9.72, 8.78, 622.4, 33.6219342, 72.9557385, 0.9934794, 0.006188768, -0.08451744, 0.07627112
 1252058143, -0.05, -9.76, 8.85, 622.64, 33.6219384, 72.9557392, 0.9934031, 0.006103048, -0.08487805, 0.07686757
 1252158103, -0.06, -9.84, 8.89, 622.87, 33.6219427, 72.9557399, 0.9933167, 0.006066303, -0.08560228, 0.07718403
 1252258063, -0.07, -9.91, 8.89, 623.11, 33.6219469, 72.9557408, 0.9932631, 0.006079358, -0.08618551, 0.07722401
 1252358023, -0.05, -9.93, 8.87, 623.35, 33.621951, 72.9557416, 0.9932643, 0.00624668, -0.08632883, 0.07703543
 1252457983, -0.04, -9.92, 8.82, 623.59, 33.6219554, 72.9557423, 0.9932988, 0.006284157, -0.08630241, 0.07661471
 1252557943, -0.03, -9.91, 8.75, 623.82, 33.6219595, 72.955743, 0.9933525, 0.006257989, -0.08620155, 0.07603317
 1252657903, -0.03, -9.91, 8.67, 624.06, 33.6219639, 72.9557437, 0.9934092, 0.006250937, -0.08615196, 0.0753457
 1252757863, 0, -9.92, 8.58, 624.3, 33.621968, 72.9557446, 0.9934536, 0.00643245, -0.08628272, 0.074591
 1252857823, 0.01, -9.95, 8.49, 624.53, 33.6219722, 72.9557454, 0.9934921, 0.006552255, -0.08650653, 0.0738043
 1252957783, 0.03, -9.95, 8.4, 624.77, 33.6219765, 72.9557461, 0.9935423, 0.00669437, -0.08654425, 0.07306902
 1253057743, 0.04, -9.96, 8.33, 625.01, 33.6219807, 72.9557469, 0.9935852, 0.00669395, -0.08661652, 0.0723965
 1253157703, 0.04, -9.97, 8.26, 625.24, 33.621985, 72.9557477, 0.9936215, 0.006657245, -0.0866625, 0.07184433
 1253257663, 0.03, -9.97, 8.22, 625.48, 33.6219892, 72.9557483, 0.9936466, 0.006563913, -0.08670891, 0.07144832
 1253357623, 0.03, -9.98, 8.19, 625.71, 33.6219934, 72.9557492, 0.9936592, 0.006491316, -0.08675893, 0.07121941
 1253457583, 0.02, -9.98, 8.18, 625.95, 33.6219977, 72.95575, 0.9936603, 0.006435593, -0.08680611, 0.07115045
 1253557543, 0.01, -9.95, 8.2, 626.19, 33.622002, 72.9557507, 0.9936757, 0.006365265, -0.08655347, 0.07125003
 1253657503, 0, -9.94, 8.22, 626.42, 33.6220062, 72.9557514, 0.9936696, 0.006285633, -0.08645628, 0.07146045
 1253757463, 0, -9.93, 8.25, 626.66, 33.6220105, 72.9557523, 0.9936575, 0.006259034, -0.08635687, 0.07174969
 1253857423, 0, -9.89, 8.29, 626.9, 33.6220147, 72.955753, 0.9936625, 0.006227921, -0.08603982, 0.07206373
 1253958216, 0, -9.85, 8.33, 627.13, 33.622019, 72.9557538, 0.9936688, 0.006192529, -0.08569688, 0.07238834
 1254058176, -0.01, -9.84, 8.37, 627.37, 33.6220232, 72.9557545, 0.9936534, 0.00610373, -0.08561692, 0.07270099
 1254158136, -0.01, -9.86, 8.4, 627.61, 33.6220275, 72.9557552, 0.993621, 0.006136866, -0.0857643, 0.07296691
 1254258096, -0.02, -9.91, 8.42, 627.84, 33.6220318, 72.9557561, 0.993572, 0.006133277, -0.08616051, 0.07316675
 1254358056, -0.01, -9.9, 8.44, 628.08, 33.622036, 72.9557569, 0.9935641, 0.006237828, -0.08610822, 0.07332726
 1254458016, 0, -9.89, 8.45, 628.32, 33.6220403, 72.9557576, 0.9935669, 0.006371055, -0.0859745, 0.07343505
 1254557976, 0.01, -9.87, 8.45, 628.55, 33.6220445, 72.9557583, 0.9935738, 0.006498195, -0.0858535, 0.07347216
 1254657936, 0.01, -9.85, 8.44, 628.79, 33.6220488, 72.9557592, 0.9935988, 0.00643877, -0.08562253, 0.07340854
 1254757896, 0, -9.83, 8.43, 629.02, 33.622053, 72.9557598, 0.993619, 0.006382045, -0.08551645, 0.07326346
 1254857856, 0, -9.84, 8.4, 629.26, 33.6220573, 72.9557607, 0.9936289, 0.006212359, -0.08560125, 0.07304414
 1254957816, -0.02, -9.84, 8.37, 629.5, 33.6220615, 72.9557614, 0.9936493, 0.006069878, -0.08560274, 0.07277653
 1255057776, -0.02, -9.85, 8.34, 629.74, 33.6220658, 72.9557622, 0.9936653, 0.006021924, -0.08565234, 0.07250268
 1255157736, -0.01, -9.85, 8.31, 629.97, 33.6220701, 72.9557629, 0.9936816, 0.00610547, -0.08567365, 0.07224783
 1255257696, -0.01, -9.85, 8.29, 630.21, 33.6220743, 72.9557636, 0.9936994, 0.00611223, -0.08566617, 0.0720096
 1255357656, 0, -9.85, 8.26, 630.45, 33.6220785, 72.9557645, 0.9937131, 0.00616734, -0.08566278, 0.07182043
 1255457616, 0, -9.87, 8.24, 630.69, 33.6220828, 72.9557652, 0.9937078, 0.006204239, -0.08585443, 0.07166176
 1255557576, 0, -9.88, 8.23, 630.92, 33.622087, 72.955766, 0.9937112, 0.006241044, -0.08591232, 0.07154122
 1255657536, 0.01, -9.87, 8.22, 631.16, 33.6220913, 72.9557667, 0.9937213, 0.006262667, -0.08584943, 0.07147439
 1255757496, 0.01, -9.86, 8.22, 631.4, 33.6220955, 72.9557674, 0.9937319, 0.006309017, -0.08572299, 0.07147546
 1255857456, 0.01, -9.85, 8.23, 631.64, 33.6220998, 72.9557683, 0.9937348, 0.006277638, -0.085658, 0.07151565
 1255957416, 0.01, -9.82, 8.23, 631.88, 33.622104, 72.955769, 0.9937485, 0.006322623, -0.08543283, 0.07159031
 1256058209, 0.01, -9.79, 8.25, 632.12, 33.6221083, 72.9557698, 0.9937694, 0.006296403, -0.08511131, 0.07168496
 1256158169, 0.01, -9.77, 8.26, 632.36, 33.6221125, 72.9557705, 0.993773, 0.006305345, -0.08498963, 0.07177927
 1256258129, 0.02, -9.79, 8.27, 632.59, 33.6221168, 72.9557713, 0.9937525, 0.006332687, -0.08515076, 0.07186992
 1256358089, 0.02, -9.84, 8.28, 632.83, 33.622121, 72.955772, 0.9937064, 0.006380449, -0.08561426, 0.07195195
 1256458049, 0.02, -9.85, 8.28, 633.07, 33.6221253, 72.9557727, 0.9936972, 0.006399194, -0.08566554, 0.07201577
 1256558009, 0.03, -9.84, 8.29, 633.31, 33.6221295, 72.9557736, 0.9937015, 0.006504875, -0.08558355, 0.07204478
 1256657969, 0.04, -9.85, 8.28, 633.55, 33.6221337, 72.9557743, 0.9936996, 0.00661369, -0.08561637, 0.07202356
 1256757929, 0.05, -9.82, 8.27, 633.78, 33.622138, 72.9557751, 0.9937229, 0.006699118, -0.08539452, 0.07195631
 1256857889, 0.06, -9.84, 8.26, 634.02, 33.6221422, 72.9557758, 0.9937177, 0.006789476, -0.08553328, 0.0718542
 1256957849, 0.07, -9.87, 8.25, 634.26, 33.6221465, 72.9557765, 0.9937004, 0.0068036, -0.08582949, 0.07173935
 1257057809, 0.05, -9.9, 8.24, 634.5, 33.6221507, 72.9557774, 0.9936852, 0.006662603, -0.08611115, 0.07162519
 1257157769, 0.04, -9.93, 8.23, 634.74, 33.6221549, 72.9557781, 0.9936692, 0.006580977, -0.08636487, 0.07155002
 1257257729, 0.03, -9.96, 8.22, 634.97, 33.6221592, 72.9557789, 0.9936522, 0.006535631, -0.08659458, 0.07151199
 1257357689, 0.03, -9.97, 8.22, 635.21, 33.6221634, 72.9557796, 0.9936442, 0.006516443, -0.0866925, 0.07150698
 1257457649, 0.02, -9.98, 8.23, 635.45, 33.6221677, 72.9557804, 0.9936366, 0.006481091, -0.08678037, 0.07150854
 1257557609, 0.02, -10.01, 8.23, 635.68, 33.6221719, 72.9557811, 0.993616, 0.006510429, -0.08700809, 0.07151555
 1257657569, 0.02, -10.02, 8.23, 635.92, 33.6221762, 72.9557818, 0.9936057, 0.006484889, -0.08713016, 0.07151288
 1257757529, 0.02, -10, 8.23, 636.16, 33.6221804, 72.9557827, 0.9936182, 0.006477051, -0.08699116, 0.07150742
 1257857489, 0.02, -9.99, 8.22, 636.4, 33.6221847, 72.9557834, 0.9936284, 0.006434259, -0.08688957, 0.07149345
 1257957449, 0.01, -9.98, 8.22, 636.63, 33.6221889, 72.9557842, 0.9936383, 0.006398777, -0.08679419, 0.07147511
 1258057409, 0.01, -9.97, 8.22, 636.87, 33.6221932, 72.9557849, 0.9936503, 0.006371905, -0.08668061, 0.07145029
 1258158202, 0.01, -9.92, 8.21, 637.11, 33.6221975, 72.9557856, 0.9936891, 0.006331392, -0.08628022, 0.07139806
 1258258162, 0.01, -9.93, 8.2, 637.35, 33.6222017, 72.9557865, 0.9936886, 0.006327536, -0.08634625, 0.07132521
 1258358122, 0.02, -9.95, 8.2, 637.58, 33.622206, 72.9557873, 0.9936758, 0.006419193, -0.08654062, 0.07125879
 1258458082, 0.02, -9.97, 8.19, 637.82, 33.6222102, 72.955788, 0.9936646, 0.006428658, -0.08672465, 0.07119171
 1258558042, 0.02, -9.95, 8.18, 638.06, 33.6222145, 72.9557887, 0.9936842, 0.006415462, -0.08654792, 0.07113435
 1258658002, 0.02, -9.94, 8.18, 638.29, 33.6222188, 72.9557895, 0.9936941, 0.006409535, -0.08647613, 0.07108425
 1258757962, 0.02, -9.93, 8.17, 638.53, 33.622223, 72.9557902, 0.9937111, 0.006415836, -0.08630957, 0.07104702
 1258857922, 0.02, -9.89, 8.17, 638.77, 33.6222273, 72.9557911, 0.9937369, 0.006379279, -0.08603656, 0.07102034
 1258957882, 0.02, -9.88, 8.17, 639, 33.6222315, 72.9557918, 0.9937433, 0.006393564, -0.08596179, 0.07102104
 1259057842, 0.02, -9.89, 8.17, 639.24, 33.6222358, 72.9557926, 0.9937396, 0.006354542, -0.08598008, 0.07105369
 1259157802, 0.03, -9.88, 8.18, 639.48, 33.62224, 72.9557933, 0.9937418, 0.006414646, -0.08590856, 0.07110494
 1259257762, 0.02, -9.88, 8.18, 639.71, 33.6222443, 72.955794, 0.9937372, 0.006391233, -0.08593145, 0.07114264
 1259357722, 0.03, -9.87, 8.19, 639.95, 33.6222486, 72.9557949, 0.9937412, 0.006418262, -0.0858534, 0.07117899
 1259457682, 0.02, -9.87, 8.19, 640.19, 33.6222528, 72.9557956, 0.9937426, 0.006394989, -0.08582075, 0.07120048
 1259557642, 0.02, -9.87, 8.19, 640.42, 33.6222571, 72.9557964, 0.9937446, 0.006395106, -0.08579292, 0.07120716
 1259657602, 0.02, -9.89, 8.19, 640.66, 33.6222613, 72.9557971, 0.993729, 0.00636921, -0.08598742, 0.07119168
 1259757562, 0.02, -9.88, 8.19, 640.9, 33.6222656, 72.9557978, 0.9937351, 0.006390484, -0.08593518, 0.07116804
 1259857522, 0.02, -9.87, 8.18, 641.14, 33.6222698, 72.9557987, 0.9937434, 0.006399222, -0.08587097, 0.07112896
 1259957482, 0.03, -9.87, 8.17, 641.37, 33.6222741, 72.9557994, 0.9937493, 0.006453556, -0.08583602, 0.07108381
 1260057442, 0.03, -9.86, 8.17, 641.61, 33.6222783, 72.9558002, 0.9937637, 0.006419459, -0.08571676, 0.07102922
 1260158235, 0.04, -9.84, 8.16, 641.85, 33.6222826, 72.9558009, 0.9937773, 0.006463094, -0.08559591, 0.07098036
 1260258195, 0.04, -9.8, 8.16, 642.09, 33.6222869, 72.9558017, 0.9938104, 0.006432228, -0.08525553, 0.07093036
 1260358155, 0.04, -9.81, 8.15, 642.32, 33.6222911, 72.9558024, 0.9938101, 0.006485135, -0.08529673, 0.07088085
 1260458115, 0.04, -9.85, 8.14, 642.56, 33.6222954, 72.9558031, 0.9937859, 0.006520975, -0.0856147, 0.07083227
 1260558075, 0.05, -9.86, 8.14, 642.8, 33.6222996, 72.955804, 0.993775, 0.006616791, -0.0857611, 0.07079829
 1260658035, 0.06, -9.87, 8.14, 643.03, 33.6223039, 72.9558048, 0.9937735, 0.006671469, -0.0858032, 0.07076425
 1260757995, 0.06, -9.85, 8.13, 643.27, 33.6223081, 72.9558055, 0.9937876, 0.006676904, -0.08566436, 0.07073307
 1260857955, 0.04, -9.83, 8.13, 643.51, 33.6223124, 72.9558062, 0.9938099, 0.006507575, -0.08545419, 0.07069103
 1260957915, 0.02, -9.77, 8.12, 643.75, 33.6223166, 72.9558069, 0.9938578, 0.006271005, -0.08495329, 0.07064185
 1261057875, 0.01, -9.77, 8.12, 643.99, 33.6223209, 72.9558078, 0.9938626, 0.006122954, -0.08494968, 0.07059199
 1261157835, 0.01, -9.77, 8.12, 644.22, 33.6223251, 72.9558086, 0.9938655, 0.006190804, -0.08493188, 0.07056598
 1261257795, 0.02, -9.77, 8.11, 644.46, 33.6223294, 72.9558093, 0.9938664, 0.00625462, -0.08493853, 0.07054003
 1261357755, 0.03, -9.77, 8.11, 644.7, 33.6223336, 72.95581, 0.9938652, 0.006314815, -0.08496934, 0.07051452
 1261457715, 0.03, -9.78, 8.11, 644.94, 33.6223379, 72.9558108, 0.9938624, 0.00637154, -0.08501907, 0.07048921
 1261557675, 0.04, -9.79, 8.1, 645.18, 33.6223421, 72.9558115, 0.9938577, 0.006425424, -0.08509054, 0.07046404
 1261657635, 0.05, -9.8, 8.1, 645.42, 33.6223462, 72.9558124, 0.9938489, 0.00647837, -0.08520874, 0.07044117
 1261757595, 0.05, -9.83, 8.1, 645.65, 33.6223506, 72.9558131, 0.9938259, 0.006536495, -0.0854757, 0.0704373
 1261857555, 0.05, -9.85, 8.1, 645.89, 33.6223547, 72.9558139, 0.9938075, 0.006586767, -0.08568414, 0.07043779
 1261957515, 0.06, -9.86, 8.1, 646.13, 33.6223589, 72.9558146, 0.9938064, 0.006619231, -0.08568989, 0.07044403
 1262057475, 0.06, -9.85, 8.1, 646.37, 33.6223632, 72.9558153, 0.9938086, 0.006646041, -0.08565615, 0.07045145
 1262157435, 0.06, -9.8, 8.1, 646.61, 33.6223674, 72.955816, 0.9938447, 0.006641837, -0.0852251, 0.07046528
 1262258228, 0.07, -9.78, 8.1, 646.85, 33.6223717, 72.9558169, 0.9938564, 0.006653556, -0.08506602, 0.07049149
 1262358188, 0.06, -9.76, 8.11, 647.09, 33.6223759, 72.9558177, 0.9938735, 0.006575059, -0.08483376, 0.07053654
 1262458148, 0.04, -9.8, 8.11, 647.33, 33.6223802, 72.9558184, 0.9938381, 0.006459452, -0.08522375, 0.07057597
 1262558108, 0.03, -9.88, 8.12, 647.57, 33.6223844, 72.9558191, 0.9937758, 0.006423473, -0.08591615, 0.07061712
 1262658068, 0.02, -9.93, 8.13, 647.8, 33.6223887, 72.95582, 0.9937326, 0.006361819, -0.08639643, 0.07064444
 1262758028, 0.02, -9.94, 8.13, 648.04, 33.6223929, 72.9558206, 0.9937297, 0.006354383, -0.08641607, 0.07066202
 1262857988, 0.01, -9.8, 8.13, 648.28, 33.6223972, 72.9558215, 0.9938351, 0.006215949, -0.08519515, 0.07067528
 1262957948, 0.02, -9.44, 8.13, 648.52, 33.6224014, 72.9558222, 0.9940963, 0.00602753, -0.08208109, 0.07070351
 1263057908, 0.01, -8.93, 8.13, 648.76, 33.6224057, 72.955823, 0.9944505, 0.005668055, -0.0776816, 0.07072251
 1263157868, 0.02, -8.37, 8.13, 648.99, 33.6224099, 72.9558237, 0.9948164, 0.005405115, -0.07284676, 0.0707428
 1263257828, 0.02, -7.81, 8.13, 649.23, 33.6224141, 72.9558244, 0.9951656, 0.005039689, -0.06793617, 0.07074399
 1263357788, 0.02, -7.22, 8.12, 649.46, 33.6224182, 72.9558251, 0.9955015, 0.004691905, -0.06285831, 0.07073517
 1263457748, 0.02, -6.63, 8.12, 649.69, 33.6224222, 72.955826, 0.9958169, 0.00430821, -0.05770655, 0.07071195
 1263557708, 0.03, -6.02, 8.11, 649.92, 33.6224264, 72.9558267, 0.9961157, 0.003990521, -0.05236138, 0.07068056
 1263657668, 0.03, -5.39, 8.1, 650.14, 33.6224304, 72.9558273, 0.996392, 0.003617729, -0.0469125, 0.07063457
 1263757628, 0.04, -4.7, 8.1, 650.36, 33.6224343, 72.955828, 0.9966611, 0.003330366, -0.04089751, 0.07059051
 1263857588, 0.11, -3.86, 8.09, 650.58, 33.6224382, 72.9558287, 0.9969351, 0.003403017, -0.03358882, 0.07057394
 1263957548, 0.26, -2.72, 8.09, 650.79, 33.622442, 72.9558294, 0.9972156, 0.004027823, -0.0235792, 0.07063242
 1264057508, 0.48, -1.39, 8.11, 650.99, 33.6224457, 72.9558302, 0.997407, 0.005051905, -0.01184048, 0.07080675
 1264157468, 0.72, 0.06, 8.16, 651.19, 33.6224492, 72.9558308, 0.997444, 0.006232136, 0.0009828174, 0.07117298
 1264257428, 0.96, 1.56, 8.25, 651.38, 33.6224526, 72.9558315, 0.9972888, 0.007377189, 0.01422874, 0.07182046
 1264358221, 1.21, 3.12, 8.39, 651.56, 33.622456, 72.9558321, 0.9969105, 0.008612146, 0.02800245, 0.07287806
 1264458181, 1.48, 4.7, 8.61, 651.74, 33.6224591, 72.9558327, 0.9962945, 0.009872286, 0.04188527, 0.07446795
 1264558141, 1.79, 6.34, 8.91, 651.9, 33.622462, 72.9558334, 0.9953901, 0.01127856, 0.05638693, 0.07675953
 1264658101, 2.12, 8.01, 9.34, 652.06, 33.6224647, 72.955834, 0.9941715, 0.01277583, 0.07118836, 0.0799506
 1264758061, 2.52, 9.76, 9.92, 652.2, 33.6224672, 72.9558346, 0.992557, 0.01449449, 0.0866963, 0.08428647
 1264858021, 3, 11.52, 10.69, 652.34, 33.6224695, 72.9558352, 0.9905189, 0.01661947, 0.102385, 0.09007419
 1264957981, 3.6, 13.27, 11.72, 652.46, 33.6224717, 72.9558358, 0.9879926, 0.0192626, 0.1180713, 0.09776936
 1265057941, 4.31, 14.81, 13.08, 652.57, 33.6224735, 72.9558364, 0.9850553, 0.02244535, 0.1322239, 0.1080693
 1265157901, 5.23, 16.13, 14.91, 652.67, 33.622475, 72.955837, 0.9815376, 0.02660152, 0.1448454, 0.1220492
 1265257861, 6.4, 17.18, 17.45, 652.75, 33.6224762, 72.9558376, 0.9770703, 0.03199709, 0.1558218, 0.141525
 1265357821, 7.94, 17.9, 20.93, 652.82, 33.6224773, 72.9558382, 0.9710012, 0.03911511, 0.1651021, 0.1684279
 1265457781, 9.82, 18.11, 25.42, 652.89, 33.622478, 72.9558388, 0.9627557, 0.04798088, 0.1715983, 0.2033548
 1265557741, 12.03, 17.79, 30.86, 652.93, 33.6224784, 72.9558394, 0.9514034, 0.05889921, 0.1758399, 0.2458512
 1265657701, 14.44, 16.9, 37.14, 652.97, 33.6224784, 72.95584, 0.9360596, 0.07145878, 0.1778374, 0.2950592
 1265757661, 16.93, 15.43, 44.11, 652.99, 33.6224781, 72.9558406, 0.9158164, 0.0853712, 0.1779088, 0.3497721
 1265857621, 19.27, 13.3, 51.58, 653.01, 33.6224775, 72.9558413, 0.8901414, 0.1000027, 0.1751987, 0.4085991
 1265957581, 21.31, 10.59, 59.39, 653.01, 33.6224767, 72.9558419, 0.8584943, 0.1149911, 0.170007, 0.4699597
 1266057541, 22.86, 7.35, 67.41, 653, 33.6224756, 72.9558426, 0.8207611, 0.1297172, 0.1620643, 0.5322216
 1266157501, 23.93, 3.75, 75.56, 652.98, 33.6224741, 72.9558433, 0.7769368, 0.1441385, 0.1523226, 0.5936253
 1266257461, 24.42, -0.04, 83.75, 652.96, 33.6224722, 72.955844, 0.7276415, 0.1577857, 0.14092, 0.6525206
 1266357421, 24.3, -3.87, 91.93, 652.92, 33.6224701, 72.9558449, 0.6739712, 0.1700146, 0.1282811, 0.7073908
 1266458214, 23.48, -7.55, 100.09, 652.88, 33.6224677, 72.9558457, 0.6170964, 0.1798543, 0.1142293, 0.7574933
 1266558174, 22.07, -10.84, 108.01, 652.83, 33.622465, 72.9558464, 0.5596091, 0.1870427, 0.0996644, 0.8011989
 1266658134, 20.2, -13.69, 115.67, 652.77, 33.622462, 72.9558473, 0.5026528, 0.1920725, 0.08494788, 0.8385894
 1266758094, 18.07, -16.11, 122.95, 652.71, 33.6224587, 72.9558481, 0.44754, 0.1958923, 0.07060528, 0.8696833
 1266858054, 15.76, -18.08, 129.82, 652.64, 33.6224553, 72.9558491, 0.39527, 0.1984062, 0.05662667, 0.8950922
 1266958014, 13.39, -19.67, 136.23, 652.57, 33.6224516, 72.95585, 0.3462626, 0.2002888, 0.04339034, 0.9154801
 1267057974, 11.03, -20.95, 142.18, 652.49, 33.6224476, 72.955851, 0.3006392, 0.201889, 0.03080297, 0.9316159
 1267157934, 8.73, -21.97, 147.71, 652.41, 33.6224434, 72.9558519, 0.2581814, 0.203304, 0.01896081, 0.9442724
 1267257894, 6.51, -22.8, 152.89, 652.32, 33.6224391, 72.9558529, 0.2184371, 0.2049213, 0.007867624, 0.9540601
 1267357854, 4.37, -23.48, 157.79, 652.23, 33.6224346, 72.955854, 0.1807794, 0.2067754, -0.002495395, 0.9615386
 1267457814, 2.28, -24.01, 162.52, 652.14, 33.6224299, 72.955855, 0.1444442, 0.2085855, -0.01228934, 0.9672006
 1267557774, 0.24, -24.41, 167.17, 652.04, 33.622425, 72.9558562, 0.1086883, 0.2103321, -0.0215227, 0.9713311
 1267657734, -1.66, -24.66, 171.64, 651.95, 33.62242, 72.9558572, 0.07428437, 0.2119899, -0.02970454, 0.9739916
 1267757694, -3.28, -24.81, 175.62, 651.84, 33.6224148, 72.9558584, 0.04340596, 0.2135646, -0.03613221, 0.9752951
 1267857654, -4.5, -24.89, 178.87, 651.74, 33.6224094, 72.9558596, 0.01806064, 0.21499, -0.04045446, 0.9756109
 1267957614, -5.32, -24.97, 181.23, 651.64, 33.6224039, 72.955861, -0.0004689161, 0.2164925, -0.04300144, 0.9753367
 1268057574, -5.75, -25.1, 182.66, 651.53, 33.6223984, 72.9558624, -0.01174131, 0.2180989, -0.04397752, 0.9748646
 1268157534, -5.81, -25.26, 183.17, 651.42, 33.6223927, 72.9558638, -0.0159385, 0.2196873, -0.04340798, 0.9744738
 1268257494, -5.53, -25.5, 182.84, 651.31, 33.6223868, 72.9558651, -0.01357032, 0.2215896, -0.04159676, 0.9741579
 1268357454, -4.95, -25.8, 181.76, 651.2, 33.6223808, 72.9558667, -0.00537828, 0.2237214, -0.03871153, 0.9738692
 1268457414, -4.12, -26.14, 180.04, 651.08, 33.6223746, 72.9558682, 0.007739629, 0.2260386, -0.0349259, 0.9734613
