Time,AHR2_Roll,AHR2_Pitch,AHR2_Yaw,AHR2_Alt,AHR2_Lat,AHR2_Lng,AHR2_Q1,AHR2_Q2,AHR2_Q3,AHR2_Q4
 70194411, 0.1, 0.09, 0.17, 558.04, 33.6412058, 72.9955928, 0.999998, 0.0009182179, 0.0008241453, 0.001544874
 70294371, 0.1, 0.09, 0.17, 558.04, 33.6412058, 72.9955928, 0.999998, 0.0009189724, 0.0008222794, 0.001540823
 70394331, 0.1, 0.09, 0.17, 558.04, 33.6412058, 72.9955928, 0.999998, 0.0009187504, 0.0008184685, 0.001538291
 70494291, 0.1, 0.09, 0.17, 558.04, 33.6412058, 72.9955928, 0.9999981, 0.0009205429, 0.0008153603, 0.001536022
 70594251, 0.1, 0.09, 0.17, 558.04, 33.6412058, 72.9955928, 0.9999981, 0.0009191614, 0.0008135125, 0.001533994
 70694211, 0.1, 0.09, 0.17, 558.04, 33.6412058, 72.9955928, 0.9999981, 0.0009167625, 0.0008151163, 0.001527106
 70794171, 0.1, 0.09, 0.17, 558.04, 33.6412058, 72.9955928, 0.9999981, 0.0009149472, 0.0008147488, 0.001522873
 70894131, 0.1, 0.09, 0.17, 558.04, 33.6412058, 72.9955928, 0.9999981, 0.0009148006, 0.0008138215, 0.001516949
 70994091, 0.1, 0.09, 0.17, 558.04, 33.6412058, 72.9955928, 0.9999981, 0.0009133705, 0.000815056, 0.001514269
 71094051, 0.1, 0.09, 0.17, 558.04, 33.6412058, 72.9955928, 0.9999981, 0.0009118456, 0.0008172875, 0.001512076
 71194011, 0.1, 0.09, 0.17, 558.04, 33.6412058, 72.9955928, 0.9999981, 0.0009120171, 0.0008170624, 0.001507974
 71293971, 0.1, 0.09, 0.17, 558.04, 33.6412058, 72.9955928, 0.9999981, 0.0009114626, 0.0008137655, 0.00150651
 71393931, 0.1, 0.09, 0.17, 558.04, 33.6412058, 72.9955928, 0.9999981, 0.0009119154, 0.0008103122, 0.001503871
 71493891, 0.1, 0.09, 0.17, 558.04, 33.6412058, 72.9955928, 0.9999981, 0.0009097413, 0.0008075265, 0.00150197
 71593851, 0.1, 0.09, 0.17, 558.04, 33.6412058, 72.9955928, 0.9999982, 0.0009064744, 0.0008059464, 0.001500646
 71693811, 0.1, 0.09, 0.17, 558.04, 33.6412058, 72.9955928, 0.9999982, 0.0009062809, 0.000805249, 0.001497177
 71793771, 0.1, 0.09, 0.17, 558.04, 33.6412058, 72.9955928, 0.9999982, 0.0009027522, 0.0008028001, 0.001495141
 71893731, 0.1, 0.09, 0.17, 558.04, 33.6412058, 72.9955928, 0.9999982, 0.000901718, 0.0008003708, 0.001491637
 71993691, 0.1, 0.09, 0.17, 558.04, 33.6412058, 72.9955928, 0.9999982, 0.0009006556, 0.00080213, 0.001487542
 72093651, 0.1, 0.09, 0.17, 558.04, 33.6412058, 72.9955928, 0.9999982, 0.00090042, 0.0008008039, 0.001484567
 72193611, 0.1, 0.09, 0.17, 558.04, 33.6412058, 72.9955928, 0.9999982, 0.0009002389, 0.0008015085, 0.001484049
 72294404, 0.1, 0.09, 0.16, 558.04, 33.6412058, 72.9955928, 0.9999982, 0.0009018758, 0.0008031743, 0.00148184
 72394364, 0.1, 0.09, 0.16, 558.04, 33.6412058, 72.9955928, 0.9999982, 0.0008982615, 0.0008035527, 0.00148224
 72494324, 0.1, 0.09, 0.16, 558.04, 33.6412058, 72.9955928, 0.9999982, 0.000896925, 0.0008029496, 0.001482589
 72594284, 0.1, 0.09, 0.16, 558.04, 33.6412058, 72.9955928, 0.9999982, 0.0008983032, 0.0008046335, 0.001479518
 72694244, 0.1, 0.09, 0.16, 558.04, 33.6412058, 72.9955928, 0.9999982, 0.0009011446, 0.0008040433, 0.001477231
 72794204, 0.1, 0.09, 0.16, 558.04, 33.6412058, 72.9955928, 0.9999982, 0.0009016186, 0.0008065844, 0.001476755
 72894164, 0.1, 0.09, 0.16, 558.04, 33.6412058, 72.9955928, 0.9999982, 0.0009018942, 0.0008059643, 0.001475135
 72994124, 0.1, 0.09, 0.16, 558.04, 33.6412058, 72.9955928, 0.9999982, 0.0009044944, 0.0008089359, 0.001472751
 73094084, 0.1, 0.09, 0.16, 558.04, 33.6412058, 72.9955928, 0.9999982, 0.0009048379, 0.0008093206, 0.001471691
 73194044, 0.1, 0.09, 0.16, 558.04, 33.6412058, 72.9955928, 0.9999982, 0.000904971, 0.0008128824, 0.001467903
 73294004, 0.1, 0.09, 0.16, 558.04, 33.6412058, 72.9955928, 0.9999982, 0.0009079194, 0.0008158268, 0.001469595
 73393964, 0.1, 0.09, 0.16, 558.04, 33.6412058, 72.9955928, 0.9999982, 0.0009088284, 0.0008167365, 0.001469685
 73493924, 0.1, 0.09, 0.16, 558.04, 33.6412058, 72.9955928, 0.9999982, 0.0009093352, 0.0008179441, 0.001467818
 73593884, 0.1, 0.09, 0.16, 558.04, 33.6412058, 72.9955928, 0.9999982, 0.0009075314, 0.0008199154, 0.001464941
 73693844, 0.1, 0.09, 0.16, 558.04, 33.6412058, 72.9955928, 0.9999982, 0.0009097807, 0.0008201528, 0.001461971
 73793804, 0.1, 0.09, 0.16, 558.04, 33.6412058, 72.9955928, 0.9999982, 0.0009103315, 0.0008198319, 0.001463242
 73893764, 0.1, 0.09, 0.16, 558.04, 33.6412058, 72.9955928, 0.9999982, 0.0009135588, 0.000820845, 0.001461825
 73993724, 0.1, 0.09, 0.16, 558.04, 33.6412058, 72.9955928, 0.9999982, 0.0009169276, 0.000822795, 0.001462551
 74093684, 0.1, 0.09, 0.16, 558.04, 33.6412058, 72.9955928, 0.9999982, 0.0009166095, 0.0008216001, 0.001462933
 74193644, 0.1, 0.09, 0.16, 558.04, 33.6412058, 72.9955928, 0.9999982, 0.0009166834, 0.0008259843, 0.001460183
 74293604, 0.1, 0.09, 0.16, 558.04, 33.6412058, 72.9955928, 0.9999982, 0.0009165758, 0.0008291031, 0.001461736
 74394397, 0.1, 0.09, 0.16, 558.04, 33.6412058, 72.9955928, 0.9999982, 0.0009207877, 0.0008304672, 0.001461329
 74494357, 0.1, 0.09, 0.16, 558.04, 33.6412058, 72.9955928, 0.9999982, 0.0009205295, 0.0008293387, 0.001461948
 74594317, 0.1, 0.09, 0.16, 558.04, 33.6412058, 72.9955928, 0.9999982, 0.0009195967, 0.000831301, 0.001460565
 74694277, 0.1, 0.09, 0.16, 558.04, 33.6412058, 72.9955928, 0.9999982, 0.0009218439, 0.0008323427, 0.001459262
 74794237, 0.1, 0.09, 0.16, 558.04, 33.6412058, 72.9955928, 0.9999982, 0.000923252, 0.0008324726, 0.001460742
 74894197, 0.1, 0.09, 0.16, 558.04, 33.6412058, 72.9955928, 0.9999982, 0.0009230099, 0.0008301586, 0.001460312
 74994157, 0.1, 0.09, 0.16, 558.04, 33.6412058, 72.9955928, 0.9999982, 0.00092488, 0.0008279285, 0.001459006
 75094117, 0.1, 0.09, 0.16, 558.04, 33.6412058, 72.9955928, 0.9999982, 0.0009216137, 0.0008245067, 0.00146095
 75194077, 0.1, 0.09, 0.16, 558.04, 33.6412058, 72.9955928, 0.9999982, 0.0009186363, 0.0008229534, 0.001461813
 75294037, 0.1, 0.09, 0.16, 558.04, 33.6412058, 72.9955928, 0.9999982, 0.00091653, 0.0008194144, 0.001459408
 75393997, 0.1, 0.09, 0.16, 558.04, 33.6412058, 72.9955928, 0.9999982, 0.0009114693, 0.0008171055, 0.00146021
 75493957, 0.1, 0.09, 0.16, 558.04, 33.6412058, 72.9955928, 0.9999982, 0.0009107636, 0.000815262, 0.001461322
 75593917, 0.1, 0.09, 0.16, 558.04, 33.6412058, 72.9955928, 0.9999982, 0.0009095041, 0.0008149662, 0.001460301
 75693877, 0.1, 0.09, 0.16, 558.04, 33.6412058, 72.9955928, 0.9999982, 0.0009072787, 0.0008124621, 0.00145786
 75793837, 0.1, 0.09, 0.16, 558.04, 33.6412058, 72.9955928, 0.9999982, 0.0009070246, 0.0008117409, 0.001459668
 75893797, 0.1, 0.09, 0.16, 558.04, 33.6412058, 72.9955928, 0.9999982, 0.0009048133, 0.0008098034, 0.001458151
 75993757, 0.1, 0.09, 0.16, 558.04, 33.6412058, 72.9955928, 0.9999982, 0.000902338, 0.0008114933, 0.001458026
 76093717, 0.1, 0.09, 0.16, 558.04, 33.6412058, 72.9955928, 0.9999982, 0.0008978155, 0.0008092758, 0.001454444
 76193677, 0.1, 0.09, 0.16, 558.04, 33.6412058, 72.9955928, 0.9999982, 0.0008977144, 0.000804536, 0.001455166
 76293637, 0.1, 0.09, 0.16, 558.04, 33.6412058, 72.9955928, 0.9999982, 0.0008933123, 0.0008013345, 0.001456763
 76394430, 0.1, 0.09, 0.16, 558.04, 33.6412058, 72.9955928, 0.9999982, 0.000892569, 0.0007995528, 0.001456917
 76494390, 0.1, 0.09, 0.16, 558.04, 33.6412058, 72.9955928, 0.9999982, 0.0008930497, 0.0007974608, 0.001458387
 76594350, 0.1, 0.09, 0.16, 558.04, 33.6412058, 72.9955928, 0.9999982, 0.0008960527, 0.0007970271, 0.001458548
 76694310, 0.1, 0.09, 0.16, 558.04, 33.6412058, 72.9955928, 0.9999982, 0.0008961114, 0.0007989766, 0.001458216
 76794270, 0.1, 0.09, 0.16, 558.04, 33.6412058, 72.9955928, 0.9999982, 0.0008953888, 0.0007988985, 0.001460692
 76894230, 0.1, 0.09, 0.16, 558.04, 33.6412058, 72.9955928, 0.9999982, 0.0008931851, 0.0007981459, 0.00146285
 76994190, 0.1, 0.09, 0.16, 558.04, 33.6412058, 72.9955928, 0.9999982, 0.0008924998, 0.0007967411, 0.001464137
 77094150, 0.1, 0.09, 0.16, 558.04, 33.6412058, 72.9955928, 0.9999982, 0.0008926364, 0.0007954558, 0.001464005
 77194110, 0.1, 0.09, 0.16, 558.04, 33.6412058, 72.9955928, 0.9999982, 0.0008928496, 0.0007964217, 0.0014644
 77294070, 0.1, 0.09, 0.16, 558.04, 33.6412058, 72.9955928, 0.9999982, 0.000895908, 0.0007971086, 0.001465379
 77394030, 0.1, 0.09, 0.16, 558.04, 33.6412058, 72.9955928, 0.9999982, 0.0008946583, 0.0007982475, 0.001465592
 77493990, 0.1, 0.09, 0.16, 558.04, 33.6412058, 72.9955928, 0.9999982, 0.0008952018, 0.000798286, 0.001466873
 77593950, 0.1, 0.09, 0.16, 558.04, 33.6412058, 72.9955928, 0.9999982, 0.0008981574, 0.0007989628, 0.001467117
 77693910, 0.1, 0.09, 0.16, 558.04, 33.6412058, 72.9955928, 0.9999982, 0.0008984177, 0.0008004347, 0.001467299
 77793870, 0.1, 0.09, 0.16, 558.05, 33.6412058, 72.9955928, 0.9999982, 0.0008981278, 0.0007999422, 0.001467547
 77893830, 0.1, 0.09, 0.16, 558.07, 33.6412058, 72.9955928, 0.9999982, 0.000898534, 0.0008022693, 0.001468162
 77993790, 0.1, 0.09, 0.16, 558.1, 33.6412058, 72.9955928, 0.9999982, 0.0008999821, 0.0008036943, 0.001468999
 78093750, 0.1, 0.09, 0.16, 558.13, 33.6412058, 72.9955928, 0.9999982, 0.0009014559, 0.0008046817, 0.00147002
 78193710, 0, -0.01, 0.16, 558.19, 33.6412058, 72.9955928, 0.9999989, -7.775002E-05, -0.0001400645, 0.001473451
 78293670, -0.27, -0.27, 0.16, 558.31, 33.6412058, 72.9955928, 0.9999931, -0.0024038, -0.002403572, 0.001455343
 78393630, -0.39, -0.38, 0.16, 558.46, 33.6412058, 72.9955928, 0.9999876, -0.003399278, -0.003348413, 0.001425968
 78494423, -0.37, -0.37, 0.16, 558.65, 33.6412058, 72.9955928, 0.9999884, -0.003259322, -0.003257932, 0.001400096
 78594383, -0.28, -0.28, 0.15, 558.85, 33.6412058, 72.9955928, 0.9999928, -0.002493487, -0.002520699, 0.001373548
 78694343, -0.17, -0.18, 0.15, 559.05, 33.6412058, 72.9955928, 0.9999967, -0.001541111, -0.001589408, 0.001342508
 78794303, -0.07, -0.08, 0.14, 559.26, 33.6412058, 72.9955928, 0.9999986, -0.0006688718, -0.0007648233, 0.00130671
 78894263, 0, 0, 0.14, 559.48, 33.6412059, 72.9955928, 0.9999992, 1.668936E-05, -6.441755E-05, 0.001265003
 78994223, 0.06, 0.06, 0.13, 559.71, 33.6412059, 72.9955927, 0.9999989, 0.0005698706, 0.0005526142, 0.001217228
 79094183, 0.12, 0.11, 0.13, 559.95, 33.6412059, 72.9955927, 0.9999982, 0.001047407, 0.001038284, 0.001170312
 79194143, 0.16, 0.16, 0.12, 560.2, 33.641206, 72.9955926, 0.9999973, 0.001446323, 0.001416998, 0.001129644
 79294103, 0.2, 0.19, 0.12, 560.46, 33.641206, 72.9955926, 0.9999964, 0.001745592, 0.001705836, 0.001093764
 79394063, 0.22, 0.21, 0.12, 560.73, 33.6412061, 72.9955925, 0.9999957, 0.001964404, 0.001900883, 0.001062754
 79494023, 0.24, 0.23, 0.11, 561, 33.6412061, 72.9955926, 0.999995, 0.002131094, 0.002092348, 0.001039619
 79593983, 0.26, 0.26, 0.11, 561.27, 33.6412061, 72.9955925, 0.9999942, 0.002306734, 0.002284328, 0.001025393
 79693943, 0.27, 0.28, 0.11, 561.56, 33.6412062, 72.9955925, 0.9999936, 0.002403047, 0.002461005, 0.001024234
 79793903, 0.28, 0.3, 0.11, 561.83, 33.6412062, 72.9955925, 0.999993, 0.002442817, 0.002638027, 0.00103266
 79893863, 0.27, 0.3, 0.12, 562.11, 33.6412062, 72.9955925, 0.999993, 0.002384503, 0.002672683, 0.001052189
 79993823, 0.26, 0.3, 0.12, 562.38, 33.6412062, 72.9955925, 0.9999932, 0.002324655, 0.002641994, 0.001067415
 80093783, 0.25, 0.29, 0.12, 562.66, 33.6412062, 72.9955924, 0.9999937, 0.002242478, 0.002539454, 0.001075087
 80193743, 0.25, 0.27, 0.12, 562.92, 33.6412062, 72.9955924, 0.9999939, 0.00222883, 0.002440271, 0.001078513
 80293703, 0.25, 0.27, 0.12, 563.17, 33.6412063, 72.9955923, 0.9999942, 0.002204393, 0.002363453, 0.001071873
 80393663, 0.24, 0.25, 0.12, 563.42, 33.6412063, 72.9955923, 0.9999945, 0.002176767, 0.002267878, 0.001058639
 80493623, 0.24, 0.24, 0.11, 563.66, 33.6412063, 72.9955923, 0.9999948, 0.002132474, 0.002172656, 0.001041451
 80594416, 0.24, 0.24, 0.11, 563.9, 33.6412063, 72.9955923, 0.9999949, 0.002135127, 0.00212489, 0.001023017
 80694376, 0.23, 0.23, 0.11, 564.11, 33.6412063, 72.9955923, 0.9999952, 0.002064958, 0.002092429, 0.000996224
 80794336, 0.22, 0.24, 0.11, 564.33, 33.6412063, 72.9955923, 0.9999954, 0.001987847, 0.002096416, 0.0009725534
 80894296, 0.22, 0.23, 0.1, 564.55, 33.6412063, 72.9955923, 0.9999956, 0.00195427, 0.00202676, 0.000949037
 80994256, 0.22, 0.21, 0.1, 564.74, 33.6412063, 72.9955923, 0.9999959, 0.001924247, 0.001881691, 0.0009245494
 81094216, 0.21, 0.2, 0.1, 564.94, 33.6412063, 72.9955923, 0.9999962, 0.001907206, 0.001778171, 0.0009051532
 81194176, 0.21, 0.19, 0.1, 565.13, 33.6412063, 72.9955923, 0.9999964, 0.001856273, 0.00169266, 0.0008920992
 81294136, 0.2, 0.18, 0.1, 565.31, 33.6412063, 72.9955923, 0.9999966, 0.0018294, 0.001615816, 0.0008840052
 81394096, 0.2, 0.18, 0.1, 565.49, 33.6412063, 72.9955923, 0.9999967, 0.001831094, 0.001589758, 0.0008867802
 81494056, 0.2, 0.17, 0.1, 565.66, 33.6412063, 72.9955923, 0.9999968, 0.00175948, 0.001533825, 0.0008910133
 81594016, 0.2, 0.17, 0.1, 565.82, 33.6412063, 72.9955923, 0.9999968, 0.001796496, 0.001545672, 0.0008997321
 81693976, 0.2, 0.18, 0.1, 565.98, 33.6412062, 72.9955923, 0.9999968, 0.001748585, 0.001577748, 0.0009116912
 81793936, 0.18, 0.16, 0.1, 566.14, 33.6412062, 72.9955923, 0.9999973, 0.001600481, 0.001420684, 0.0009233574
 81893896, 0.16, 0.13, 0.1, 566.28, 33.6412062, 72.9955924, 0.9999978, 0.001456755, 0.001176154, 0.000932816
 81993856, 0.15, 0.12, 0.1, 566.43, 33.6412062, 72.9955924, 0.999998, 0.001360983, 0.001100501, 0.0009412954
 82093816, 0.13, 0.11, 0.1, 566.57, 33.6412061, 72.9955925, 0.9999983, 0.001145978, 0.001033255, 0.0009463154
 82193776, 0.11, 0.1, 0.1, 566.69, 33.6412061, 72.9955925, 0.9999986, 0.001023923, 0.0009531928, 0.0009448523
 82293736, 0.1, 0.09, 0.1, 566.82, 33.6412061, 72.9955925, 0.9999987, 0.0009021213, 0.0008428062, 0.0009412114
 82393696, 0.1, 0.09, 0.1, 566.94, 33.6412061, 72.9955925, 0.9999988, 0.0009343894, 0.0008198516, 0.0009312193
 82493656, 0.1, 0.08, 0.1, 567.06, 33.641206, 72.9955926, 0.9999989, 0.0009435366, 0.0007523052, 0.0009144596
 82593616, 0.1, 0.08, 0.1, 567.17, 33.641206, 72.9955926, 0.9999989, 0.0008759669, 0.0007686745, 0.0008979649
 82694409, 0.08, 0.07, 0.1, 567.27, 33.6412059, 72.9955926, 0.9999992, 0.0007233509, 0.0006439576, 0.0008755962
 82794369, 0.06, 0.05, 0.09, 567.36, 33.6412059, 72.9955926, 0.9999993, 0.0006089882, 0.0004976261, 0.0008506264
 82894329, 0.06, 0.02, 0.09, 567.46, 33.6412059, 72.9955927, 0.9999995, 0.0005520746, 0.000208441, 0.0008179329
 82994289, 0.05, 0.02, 0.09, 567.55, 33.6412059, 72.9955927, 0.9999996, 0.0004753128, 0.0001778156, 0.0007883071
 83094249, 0.04, 0.02, 0.08, 567.63, 33.6412058, 72.9955927, 0.9999996, 0.0003847348, 0.0001919817, 0.0007577199
 83194209, 0.04, 0.01, 0.08, 567.71, 33.6412058, 72.9955927, 0.9999996, 0.0003806596, 0.000159785, 0.0007278557
 83294169, 0.04, 0.01, 0.08, 567.78, 33.6412058, 72.9955927, 0.9999997, 0.0003966679, 0.0001229138, 0.000701307
 83394129, 0.04, 0, 0.07, 567.85, 33.6412058, 72.9955927, 0.9999997, 0.000397569, 6.384738E-05, 0.0006745876
 83494089, 0.04, 0, 0.07, 567.9, 33.6412058, 72.9955928, 0.9999997, 0.0003771513, 2.19914E-05, 0.0006475653
 83594049, 0.04, 0, 0.07, 567.95, 33.6412058, 72.9955928, 0.9999997, 0.0003716985, -1.992575E-05, 0.0006221944
 83694009, 0.04, 0, 0.06, 567.99, 33.6412058, 72.9955928, 0.9999998, 0.0003803224, -3.731703E-05, 0.0005980056
 83793969, 0.03, 0, 0.06, 568.04, 33.6412058, 72.9955928, 0.9999998, 0.0003076739, -4.713471E-06, 0.000570757
 83893929, 0.03, 0, 0.06, 568.07, 33.6412058, 72.9955928, 0.9999998, 0.0002958275, 2.215338E-05, 0.0005430896
 83993889, 0.02, 0, 0.05, 568.1, 33.6412058, 72.9955928, 0.9999998, 0.0002542584, -3.001829E-05, 0.0005162177
 84093849, 0.03, 0, 0.05, 568.12, 33.6412058, 72.9955928, 0.9999998, 0.0002882784, 1.562988E-05, 0.0004934331
 84193809, 0.04, 0.02, 0.05, 568.13, 33.6412058, 72.9955928, 0.9999998, 0.0003509712, 0.0002256597, 0.000470063
 84293769, 0.03, 0.03, 0.05, 568.13, 33.6412058, 72.9955928, 0.9999998, 0.0003330801, 0.0003186245, 0.0004465354
 84393729, 0.04, 0.04, 0.04, 568.13, 33.6412058, 72.9955928, 0.9999998, 0.0003641797, 0.000408446, 0.0004268568
 84493689, 0.04, 0.04, 0.04, 568.13, 33.6412058, 72.9955928, 0.9999997, 0.0003965962, 0.0004338288, 0.0004091071
 84593649, 0.04, 0.05, 0.04, 568.12, 33.6412058, 72.9955928, 0.9999997, 0.0004107352, 0.0005138644, 0.000384662
 84693609, 0.04, 0.05, 0.04, 568.11, 33.6412058, 72.9955928, 0.9999997, 0.0004284463, 0.0005050813, 0.0003624668
 84794402, 0.05, 0.06, 0.03, 568.09, 33.6412058, 72.9955928, 0.9999997, 0.0004650448, 0.0005454084, 0.0003424568
 84894362, 0.05, 0.06, 0.03, 568.08, 33.6412058, 72.9955928, 0.9999997, 0.000466699, 0.0005514054, 0.0003202854
 84994322, 0.05, 0.06, 0.03, 568.07, 33.6412058, 72.9955928, 0.9999996, 0.0004929907, 0.0005502508, 0.0003005041
 85094282, 0.05, 0.05, 0.03, 568.06, 33.6412058, 72.9955928, 0.9999998, 0.0004449509, 0.0004919286, 0.000280457
 85194242, 0.05, 0.05, 0.02, 568.05, 33.6412058, 72.9955928, 0.9999997, 0.0004739525, 0.0004994315, 0.0002574769
 85294202, 0.05, 0.05, 0.02, 568.04, 33.6412058, 72.9955928, 0.9999997, 0.0005213167, 0.0005140637, 0.0002354658
 85394162, 0.06, 0.05, 0.02, 568.05, 33.6412058, 72.9955928, 0.9999997, 0.0005465407, 0.0005105286, 0.0002136227
 85494122, 0.06, 0.05, 0.02, 568.06, 33.6412058, 72.9955928, 0.9999997, 0.0005490215, 0.0004838023, 0.0001951935
 85594082, 0.05, 0.04, 0.02, 568.08, 33.6412058, 72.9955928, 0.9999998, 0.0005139474, 0.0004062777, 0.0001768131
 85694042, 0.05, 0.04, 0.01, 568.12, 33.6412058, 72.9955928, 0.9999998, 0.0005107735, 0.0003962901, 0.0001540617
 85794002, 0.05, 0.05, 0.01, 568.16, 33.6412058, 72.9955928, 0.9999998, 0.0004936708, 0.0004374914, 0.0001307405
 85893962, 0.04, 0.05, 0.01, 568.23, 33.6412058, 72.9955928, 0.9999998, 0.0004173396, 0.0005008485, 0.0001060236
 85993922, 0.06, 0.06, 0, 568.3, 33.6412058, 72.9955928, 0.9999997, 0.0005334897, 0.0005365085, 7.190467E-05
 86093882, 0.05, 0.05, 0, 568.38, 33.6412058, 72.9955928, 0.9999997, 0.0005008689, 0.0005211285, 4.570067E-05
 86193842, 0.05, 0.05, 0, 568.47, 33.6412058, 72.9955928, 0.9999998, 0.0004794562, 0.0004955233, 2.025991E-05
 86293802, 0.05, 0.03, 359.99, 568.58, 33.6412058, 72.9955928, 0.9999998, 0.0004787276, 0.0003387937, -8.515071E-07
 86393762, 0.05, 0.03, 359.99, 568.7, 33.6412058, 72.9955928, 0.9999998, 0.000492726, 0.0002797599, -2.158671E-05
 86493722, 0.06, 0.03, 359.99, 568.82, 33.6412058, 72.9955928, 0.9999998, 0.000540424, 0.0003303511, -4.566601E-05
 86593682, 0.06, 0.03, 359.99, 568.97, 33.6412058, 72.9955928, 0.9999998, 0.0005437002, 0.0003075714, -6.821436E-05
 86693642, 0.06, 0.03, 359.98, 569.11, 33.6412058, 72.9955928, 0.9999998, 0.0005440356, 0.0003005865, -8.904618E-05
 86794435, 0.06, 0.04, 359.98, 569.27, 33.6412058, 72.9955928, 0.9999998, 0.0005579233, 0.0004127958, -0.0001067599
 86894395, 0.06, 0.05, 359.98, 569.44, 33.6412058, 72.9955928, 0.9999997, 0.000536427, 0.000490513, -0.0001242964
 86994355, 0.05, 0.05, 359.98, 569.63, 33.6412058, 72.9955928, 0.9999997, 0.0005030655, 0.000517881, -0.0001401832
 87094315, 0.06, 0.05, 359.98, 569.82, 33.6412058, 72.9955927, 0.9999997, 0.0005995375, 0.0004926415, -0.0001590227
 87194275, 0.08, 0.05, 359.97, 570.02, 33.6412058, 72.9955927, 0.9999996, 0.0007521383, 0.0004977483, -0.0001813594
 87294235, 0.09, 0.06, 359.97, 570.23, 33.6412058, 72.9955927, 0.9999995, 0.0008118665, 0.0005859957, -0.0002042141
 87394195, 0.11, 0.06, 359.97, 570.45, 33.6412058, 72.9955927, 0.9999993, 0.0009853172, 0.0005682545, -0.0002228912
 87494155, 0.12, 0.07, 359.97, 570.69, 33.6412059, 72.9955927, 0.9999992, 0.001070837, 0.0006136975, -0.0002305479
 87594115, 0.11, 0.08, 359.97, 570.93, 33.6412059, 72.9955927, 0.9999992, 0.001015736, 0.0007034851, -0.0002364733
 87694075, 0.1, 0.07, 359.97, 571.19, 33.6412059, 72.9955926, 0.9999993, 0.0009324069, 0.0006943447, -0.0002407573
 87794035, 0.1, 0.08, 359.97, 571.44, 33.6412059, 72.9955926, 0.9999992, 0.0009429696, 0.0007717673, -0.0002463741
 87893995, 0.11, 0.09, 359.97, 571.7, 33.6412059, 72.9955926, 0.9999991, 0.0009704658, 0.0008385869, -0.0002501218
 87993955, 0.11, 0.1, 359.97, 571.96, 33.6412059, 72.9955926, 0.999999, 0.001034554, 0.0008830705, -0.0002492026
 88093915, 0.12, 0.1, 359.97, 572.22, 33.6412059, 72.9955926, 0.9999989, 0.001094682, 0.0009550605, -0.0002397704
 88193875, 0.12, 0.1, 359.97, 572.49, 33.6412059, 72.9955926, 0.9999989, 0.001071985, 0.0009390526, -0.000225869
 88293835, 0.12, 0.1, 359.97, 572.75, 33.641206, 72.9955925, 0.9999989, 0.001077654, 0.0009313732, -0.0002166981
 88393795, 0.13, 0.12, 359.97, 573.01, 33.641206, 72.9955925, 0.9999987, 0.001187457, 0.001085508, -0.0002094858
 88493755, 0.13, 0.12, 359.97, 573.27, 33.6412061, 72.9955925, 0.9999986, 0.001199565, 0.001121233, -0.0002062655
 88593715, 0.14, 0.13, 359.97, 573.54, 33.6412061, 72.9955925, 0.9999985, 0.001233435, 0.001183546, -0.0002040185
 88693675, 0.15, 0.15, 359.97, 573.8, 33.6412061, 72.9955925, 0.9999982, 0.001318649, 0.001327885, -0.0002179132
 88793635, 0.15, 0.16, 359.97, 574.05, 33.6412061, 72.9955925, 0.999998, 0.001343742, 0.001458603, -0.0002508348
 88894428, 0.13, 0.17, 359.96, 574.31, 33.6412061, 72.9955925, 0.999998, 0.001178251, 0.001551924, -0.0002909845
 88994388, 0.12, 0.17, 359.96, 574.56, 33.6412061, 72.9955925, 0.9999981, 0.001120238, 0.001548461, -0.0003310125
 89094348, 0.13, 0.16, 359.95, 574.81, 33.6412061, 72.9955925, 0.9999982, 0.001161323, 0.001443489, -0.0003736429
 89194308, 0.13, 0.15, 359.95, 575.07, 33.6412061, 72.9955925, 0.9999982, 0.001194721, 0.001390387, -0.0004022874
 89294268, 0.14, 0.15, 359.95, 575.32, 33.6412061, 72.9955925, 0.9999982, 0.001233588, 0.001337278, -0.0004281309
 89394228, 0.13, 0.14, 359.94, 575.57, 33.6412061, 72.9955925, 0.9999984, 0.001211219, 0.001235843, -0.0004491141
 89494188, 0.13, 0.13, 359.94, 575.82, 33.6412061, 72.9955924, 0.9999985, 0.00117696, 0.001139748, -0.0004654622
 89594148, 0.13, 0.12, 359.94, 576.07, 33.6412061, 72.9955924, 0.9999985, 0.001215779, 0.001105761, -0.0004840179
 89694108, 0.14, 0.12, 359.94, 576.32, 33.6412061, 72.9955923, 0.9999985, 0.001254941, 0.001086161, -0.0004887506
 89794068, 0.14, 0.11, 359.94, 576.57, 33.6412061, 72.9955923, 0.9999986, 0.00124992, 0.001021677, -0.0004779665
 89894028, 0.14, 0.11, 359.94, 576.83, 33.6412061, 72.9955923, 0.9999986, 0.001282865, 0.0009880366, -0.000455307
 89993988, 0.14, 0.11, 359.95, 577.08, 33.6412061, 72.9955923, 0.9999986, 0.001300879, 0.0009627907, -0.0004303192
 90093948, 0.15, 0.1, 359.95, 577.33, 33.6412061, 72.9955923, 0.9999986, 0.001332253, 0.0009372946, -0.0004221111
 90193908, 0.15, 0.1, 359.95, 577.58, 33.6412061, 72.9955923, 0.9999986, 0.001345262, 0.000924853, -0.000427213
 90293868, 0.15, 0.1, 359.94, 577.83, 33.6412061, 72.9955923, 0.9999986, 0.00132961, 0.0009103554, -0.0004382997
 90393828, 0.15, 0.1, 359.94, 578.08, 33.6412061, 72.9955923, 0.9999986, 0.001324091, 0.0009333746, -0.0004600007
 90493788, 0.14, 0.1, 359.94, 578.34, 33.6412061, 72.9955923, 0.9999987, 0.001257774, 0.0009014518, -0.0004862616
 90593748, 0.14, 0.1, 359.94, 578.58, 33.6412061, 72.9955923, 0.9999987, 0.001228815, 0.0008912911, -0.000505899
 90693708, 0.14, 0.09, 359.94, 578.83, 33.6412061, 72.9955923, 0.9999987, 0.001236124, 0.0008701953, -0.0005185743
 90793668, 0.14, 0.1, 359.93, 579.08, 33.6412061, 72.9955923, 0.9999987, 0.001243531, 0.0008839815, -0.0005349204
 90893628, 0.13, 0.09, 359.93, 579.33, 33.6412061, 72.9955923, 0.9999988, 0.001198065, 0.0008416513, -0.0005496229
 90994421, 0.13, 0.09, 359.93, 579.58, 33.6412061, 72.9955923, 0.9999987, 0.001189094, 0.0008605956, -0.0005631549
 91094381, 0.13, 0.1, 359.93, 579.83, 33.6412061, 72.9955923, 0.9999987, 0.001174066, 0.000902654, -0.0005694556
 91194341, 0.13, 0.1, 359.93, 580.09, 33.6412061, 72.9955923, 0.9999987, 0.00116453, 0.0009046709, -0.000578213
 91294301, 0.13, 0.1, 359.93, 580.34, 33.6412061, 72.9955923, 0.9999987, 0.001150974, 0.0008864698, -0.0005857722
 91394261, 0.12, 0.1, 359.93, 580.59, 33.6412061, 72.9955923, 0.9999988, 0.001089544, 0.0009009455, -0.0005848554
 91494221, 0.12, 0.1, 359.93, 580.83, 33.6412061, 72.9955923, 0.9999988, 0.001090137, 0.0008801908, -0.0005867821
 91594181, 0.12, 0.09, 359.93, 581.08, 33.6412061, 72.9955923, 0.9999989, 0.001100469, 0.0008683686, -0.0005868849
 91694141, 0.12, 0.09, 359.93, 581.34, 33.6412061, 72.9955924, 0.9999989, 0.001065458, 0.0008706856, -0.000587361
 91794101, 0.11, 0.1, 359.93, 581.59, 33.6412061, 72.9955924, 0.9999989, 0.00104047, 0.0008859276, -0.0005935243
 91894061, 0.1, 0.1, 359.93, 581.84, 33.6412061, 72.9955925, 0.999999, 0.0009075248, 0.0009076723, -0.0006035236
 91994021, 0.09, 0.1, 359.92, 582.09, 33.6412061, 72.9955925, 0.9999991, 0.0008003358, 0.0008943685, -0.000615349
 92093981, 0.08, 0.1, 359.92, 582.34, 33.6412061, 72.9955925, 0.9999991, 0.0007463231, 0.0008964951, -0.000633768
 92193941, 0.07, 0.1, 359.92, 582.58, 33.6412061, 72.9955925, 0.9999991, 0.0006818879, 0.0008912414, -0.000655707
 92293901, 0.06, 0.1, 359.92, 582.84, 33.6412061, 72.9955925, 0.9999992, 0.0006028813, 0.000897703, -0.0006821465
 92393861, 0.06, 0.1, 359.91, 583.09, 33.6412061, 72.9955925, 0.9999992, 0.0005884457, 0.0009133367, -0.0007067473
 92493821, 0.06, 0.1, 359.91, 583.34, 33.6412061, 72.9955925, 0.9999992, 0.0005642, 0.0008894244, -0.0007269105
 92593781, 0.06, 0.1, 359.91, 583.6, 33.6412061, 72.9955925, 0.9999992, 0.0005411498, 0.0008798742, -0.0007450904
 92693741, 0.06, 0.1, 359.91, 583.85, 33.6412061, 72.9955925, 0.9999991, 0.0005602707, 0.0009145389, -0.000757188
 92793701, 0.07, 0.1, 359.91, 584.11, 33.6412061, 72.9955925, 0.999999, 0.0006386637, 0.00095578, -0.0007629749
 92893661, 0.07, 0.1, 359.91, 584.36, 33.6412061, 72.9955925, 0.9999991, 0.0006421432, 0.0008872382, -0.0007697723
 92993621, 0.07, 0.1, 359.91, 584.62, 33.6412061, 72.9955925, 0.9999991, 0.0006711344, 0.0008911763, -0.0007722276
 93094414, 0.08, 0.1, 359.91, 584.87, 33.6412061, 72.9955926, 0.999999, 0.0007458685, 0.0008804653, -0.0007790724
 93194374, 0.08, 0.09, 359.91, 585.12, 33.6412061, 72.9955926, 0.999999, 0.0007536042, 0.0008719753, -0.0007838376
 93294334, 0.08, 0.09, 359.9, 585.38, 33.6412061, 72.9955926, 0.999999, 0.0006992472, 0.0008575742, -0.0008106896
 93394294, 0.08, 0.09, 359.9, 585.62, 33.6412061, 72.9955926, 0.999999, 0.0007061389, 0.0008696617, -0.000843748
 93494254, 0.06, 0.1, 359.9, 585.88, 33.6412061, 72.9955926, 0.999999, 0.0005927813, 0.0008909851, -0.0008720584
 93594214, 0.05, 0.11, 359.89, 586.12, 33.6412061, 72.9955926, 0.999999, 0.0005097215, 0.0009973272, -0.0008969209
 93694174, 0.05, 0.11, 359.89, 586.37, 33.6412061, 72.9955926, 0.999999, 0.000500312, 0.0009734312, -0.0009164159
 93794134, 0.06, 0.11, 359.89, 586.61, 33.6412061, 72.9955926, 0.9999988, 0.0005981941, 0.001036776, -0.0009322573
 93894094, 0.07, 0.11, 359.89, 586.86, 33.6412061, 72.9955926, 0.9999989, 0.0006190907, 0.00100043, -0.0009438318
 93994054, 0.08, 0.12, 359.89, 587.1, 33.6412061, 72.9955926, 0.9999987, 0.0007506036, 0.001066851, -0.000959399
 94094014, 0.08, 0.11, 359.88, 587.34, 33.6412061, 72.9955926, 0.9999987, 0.0007590455, 0.001012377, -0.0009758047
 94193974, 0.08, 0.1, 359.88, 587.6, 33.6412061, 72.9955926, 0.9999988, 0.0007166395, 0.0009255114, -0.0009911297
 94293934, 0.08, 0.09, 359.88, 587.84, 33.641206, 72.9955926, 0.9999989, 0.0007027877, 0.0008302594, -0.001005134
 94393894, 0.08, 0.08, 359.88, 588.09, 33.641206, 72.9955926, 0.9999989, 0.0006993246, 0.0007566944, -0.001009195
 94493854, 0.08, 0.07, 359.88, 588.33, 33.6412059, 72.9955926, 0.999999, 0.0007297209, 0.0006543025, -0.001015312
 94593814, 0.09, 0.06, 359.88, 588.57, 33.6412059, 72.9955926, 0.9999989, 0.0008539255, 0.0005594629, -0.001022482
 94693774, 0.11, 0.05, 359.88, 588.82, 33.6412059, 72.9955926, 0.9999989, 0.0009672031, 0.0004677981, -0.001029837
 94793734, 0.12, 0.04, 359.88, 589.07, 33.6412059, 72.9955926, 0.9999988, 0.001075521, 0.0003828565, -0.001040453
 94893694, 0.12, 0.03, 359.87, 589.32, 33.6412059, 72.9955926, 0.9999988, 0.001085797, 0.0003055706, -0.00105054
 94993654, 0.12, 0.02, 359.87, 589.56, 33.6412059, 72.9955926, 0.9999989, 0.00106066, 0.0002337911, -0.001059204
 95093614, 0.09, 0.02, 359.87, 589.81, 33.6412059, 72.9955926, 0.999999, 0.0008411789, 0.0001755866, -0.001060406
 95194407, 0.08, 0.02, 359.87, 590.06, 33.6412059, 72.9955926, 0.9999991, 0.0007384839, 0.0002340039, -0.001072375
 95294367, 0.07, 0.03, 359.87, 590.3, 33.6412059, 72.9955926, 0.9999992, 0.0006616475, 0.0002757069, -0.00108651
 95394327, 0.06, 0.04, 359.87, 590.56, 33.6412059, 72.9955926, 0.9999992, 0.0005916022, 0.0003487201, -0.001101039
 95494287, 0.06, 0.04, 359.87, 590.8, 33.6412059, 72.9955926, 0.9999991, 0.0005902676, 0.0004176624, -0.001115211
 95594247, 0.07, 0.05, 359.87, 591.05, 33.6412059, 72.9955926, 0.999999, 0.0006725412, 0.0004807512, -0.001129562
 95694207, 0.08, 0.06, 359.86, 591.29, 33.6412059, 72.9955926, 0.9999989, 0.0007484462, 0.0005390177, -0.001144918
 95794167, 0.09, 0.06, 359.86, 591.54, 33.6412059, 72.9955926, 0.9999988, 0.0008197891, 0.0005944348, -0.001157978
 95894127, 0.1, 0.07, 359.86, 591.79, 33.6412059, 72.9955926, 0.9999987, 0.0008866916, 0.0006454764, -0.001183677
 95994087, 0.09, 0.07, 359.85, 592.04, 33.6412059, 72.9955926, 0.9999986, 0.0008480406, 0.0006945796, -0.001225929
 96094047, 0.09, 0.08, 359.85, 592.29, 33.6412059, 72.9955926, 0.9999986, 0.0008203466, 0.0007418075, -0.00126796
 96194007, 0.09, 0.09, 359.84, 592.54, 33.6412059, 72.9955926, 0.9999985, 0.0008423334, 0.000786548, -0.001310901
 96293967, 0.09, 0.08, 359.84, 592.78, 33.6412059, 72.9955925, 0.9999984, 0.0008656104, 0.0007835138, -0.001343842
 96393927, 0.1, 0.09, 359.84, 593.03, 33.6412059, 72.9955925, 0.9999983, 0.0009286863, 0.0008340147, -0.001371726
 96493887, 0.11, 0.08, 359.84, 593.28, 33.6412059, 72.9955925, 0.9999983, 0.001021819, 0.0007556394, -0.00137711
 96593847, 0.13, 0.08, 359.84, 593.52, 33.6412059, 72.9955925, 0.9999981, 0.001170829, 0.0007248563, -0.001358476
 96693807, 0.14, 0.07, 359.84, 593.78, 33.6412059, 72.9955925, 0.999998, 0.001309549, 0.0006719559, -0.001337011
 96793767, 0.14, 0.07, 359.84, 594.03, 33.6412059, 72.9955925, 0.9999981, 0.001283386, 0.0006231946, -0.001312363
 96893727, 0.13, 0.06, 359.85, 594.27, 33.6412059, 72.9955925, 0.9999983, 0.001167141, 0.0006019106, -0.001270551
 96993687, 0.12, 0.07, 359.85, 594.52, 33.6412059, 72.9955925, 0.9999984, 0.001130272, 0.0006296481, -0.001233129
 97093647, 0.12, 0.07, 359.86, 594.77, 33.6412059, 72.9955925, 0.9999985, 0.001083625, 0.0006210241, -0.001201814
 97193607, 0.12, 0.07, 359.86, 595.01, 33.6412059, 72.9955925, 0.9999985, 0.001069838, 0.0006238751, -0.00117445
 97294400, 0.11, 0.07, 359.86, 595.27, 33.6412059, 72.9955925, 0.9999986, 0.001016156, 0.0006342185, -0.001157873
 97394360, 0.11, 0.06, 359.86, 595.51, 33.6412059, 72.9955925, 0.9999986, 0.0009900229, 0.0006087273, -0.001146853
 97494320, 0.1, 0.07, 359.86, 595.77, 33.6412059, 72.9955925, 0.9999987, 0.0009604213, 0.0006503335, -0.00114467
 97594280, 0.1, 0.07, 359.86, 596.01, 33.6412059, 72.9955925, 0.9999987, 0.0009502007, 0.0006885245, -0.001142488
 97694240, 0.1, 0.08, 359.86, 596.26, 33.6412059, 72.9955925, 0.9999987, 0.0009057421, 0.0006997793, -0.001149014
 97794200, 0.1, 0.08, 359.86, 596.51, 33.6412059, 72.9955925, 0.9999986, 0.0009252824, 0.0007348004, -0.001159545
 97894160, 0.1, 0.08, 359.86, 596.77, 33.6412059, 72.9955925, 0.9999986, 0.000898649, 0.0007226685, -0.001171917
 97994120, 0.1, 0.08, 359.86, 597.02, 33.6412059, 72.9955925, 0.9999986, 0.0009072577, 0.0007395931, -0.001186359
 98094080, 0.1, 0.08, 359.86, 597.26, 33.6412059, 72.9955925, 0.9999986, 0.0009013895, 0.000750431, -0.001201312
 98194040, 0.1, 0.08, 359.86, 597.51, 33.6412059, 72.9955925, 0.9999986, 0.0009055464, 0.0007519075, -0.00121466
 98294000, 0.1, 0.08, 359.85, 597.76, 33.6412059, 72.9955925, 0.9999985, 0.0009162091, 0.0007640316, -0.001227452
 98393960, 0.1, 0.08, 359.85, 598.01, 33.6412059, 72.9955925, 0.9999985, 0.0009398547, 0.0007440323, -0.001232478
 98493920, 0.1, 0.08, 359.85, 598.26, 33.6412059, 72.9955925, 0.9999985, 0.0009355029, 0.000747314, -0.001234517
 98593880, 0.1, 0.08, 359.86, 598.51, 33.6412059, 72.9955925, 0.9999985, 0.0009273662, 0.0007569374, -0.00121921
 98693840, 0.1, 0.08, 359.86, 598.75, 33.6412059, 72.9955925, 0.9999986, 0.0009093259, 0.0007450424, -0.001188602
 98793800, 0.1, 0.08, 359.86, 599.01, 33.6412059, 72.9955925, 0.9999986, 0.0009102524, 0.0007626632, -0.001153935
 98893760, 0.1, 0.08, 359.86, 599.26, 33.6412059, 72.9955925, 0.9999986, 0.0009229145, 0.0007420905, -0.00113608
 98993720, 0.1, 0.08, 359.86, 599.51, 33.6412059, 72.9955925, 0.9999986, 0.0009341054, 0.0007364144, -0.001147814
 99093680, 0.11, 0.08, 359.86, 599.77, 33.6412059, 72.9955925, 0.9999986, 0.0009688152, 0.0007309681, -0.001177179
 99193640, 0.11, 0.08, 359.86, 600.02, 33.6412059, 72.9955925, 0.9999985, 0.0009774169, 0.0007306563, -0.001205199
 99294433, 0.1, 0.08, 359.85, 600.26, 33.6412059, 72.9955925, 0.9999986, 0.0009371831, 0.0007075078, -0.001234376
 99394393, 0.1, 0.08, 359.85, 600.51, 33.6412059, 72.9955925, 0.9999985, 0.0009410732, 0.0007018622, -0.001255017
 99494353, 0.1, 0.08, 359.85, 600.76, 33.641206, 72.9955925, 0.9999985, 0.0009564058, 0.0007269247, -0.001262007
 99594313, 0.11, 0.08, 359.85, 601.01, 33.641206, 72.9955925, 0.9999985, 0.000962809, 0.000778068, -0.001253015
 99694273, 0.11, 0.1, 359.86, 601.26, 33.6412061, 72.9955925, 0.9999983, 0.001005813, 0.0009035157, -0.00121353
 99794233, 0.11, 0.11, 359.86, 601.51, 33.6412061, 72.9955925, 0.9999983, 0.00102032, 0.001027618, -0.001173481
 99894193, 0.11, 0.12, 359.86, 601.75, 33.6412061, 72.9955925, 0.9999983, 0.00099443, 0.001092527, -0.001147925
 99994153, 0.11, 0.13, 359.86, 602.01, 33.6412061, 72.9955925, 0.9999982, 0.0009896542, 0.001138971, -0.001143325
 100094113, 0.11, 0.13, 359.86, 602.26, 33.6412061, 72.9955925, 0.9999981, 0.001024502, 0.001205687, -0.001156784
 100194073, 0.11, 0.13, 359.86, 602.51, 33.6412061, 72.9955925, 0.999998, 0.001025394, 0.001212845, -0.001174182
 100294033, 0.11, 0.14, 359.86, 602.77, 33.6412061, 72.9955925, 0.999998, 0.0009895267, 0.001222138, -0.001194764
 100393993, 0.11, 0.14, 359.86, 603.02, 33.6412061, 72.9955925, 0.999998, 0.0009965651, 0.001230062, -0.001216204
 100493953, 0.11, 0.14, 359.85, 603.26, 33.6412061, 72.9955925, 0.999998, 0.0009771063, 0.001230481, -0.001241759
 100593913, 0.1, 0.13, 359.85, 603.51, 33.6412061, 72.9955925, 0.999998, 0.0009358581, 0.001191427, -0.001262646
 100693873, 0.1, 0.13, 359.85, 603.76, 33.6412061, 72.9955925, 0.9999981, 0.0009107811, 0.001169851, -0.001283926
 100793833, 0.1, 0.13, 359.85, 604.01, 33.6412061, 72.9955925, 0.999998, 0.0009298361, 0.001183857, -0.001301391
 100893793, 0.1, 0.13, 359.84, 604.26, 33.6412061, 72.9955925, 0.999998, 0.0009253107, 0.001169171, -0.001313091
 100993753, 0.1, 0.13, 359.84, 604.51, 33.6412061, 72.9955925, 0.999998, 0.0009374166, 0.001162163, -0.001321471
 101093713, 0.1, 0.13, 359.84, 604.76, 33.6412061, 72.9955925, 0.999998, 0.000932848, 0.001151757, -0.001327405
 101193673, 0.1, 0.12, 359.84, 605.01, 33.6412061, 72.9955925, 0.9999981, 0.0009073508, 0.001103915, -0.001331107
 101293633, 0.1, 0.12, 359.84, 605.26, 33.6412061, 72.9955925, 0.9999981, 0.0009254024, 0.001103117, -0.001333695
 101394426, 0.1, 0.12, 359.84, 605.52, 33.6412061, 72.9955925, 0.9999981, 0.0009224218, 0.001083108, -0.001341313
 101494386, 0.1, 0.11, 359.84, 605.77, 33.6412061, 72.9955925, 0.9999981, 0.0009202892, 0.001037216, -0.001347402
 101594346, 0.1, 0.11, 359.84, 606.01, 33.6412061, 72.9955925, 0.9999982, 0.0009303151, 0.00101486, -0.001350624
 101694306, 0.1, 0.11, 359.84, 606.26, 33.6412061, 72.9955925, 0.9999982, 0.0009483501, 0.000985448, -0.001355104
 101794266, 0.1, 0.1, 359.84, 606.51, 33.6412061, 72.9955925, 0.9999982, 0.0009594006, 0.0009443327, -0.001359864
 101894226, 0.1, 0.1, 359.84, 606.76, 33.6412061, 72.9955925, 0.9999982, 0.0009304241, 0.000926992, -0.001370675
 101994186, 0.1, 0.1, 359.84, 607, 33.6412061, 72.9955925, 0.9999982, 0.0009344794, 0.0009270639, -0.001384481
 102094146, 0.1, 0.1, 359.83, 607.25, 33.6412061, 72.9955925, 0.9999982, 0.0009514042, 0.0008980692, -0.001402715
 102194106, 0.1, 0.1, 359.83, 607.5, 33.6412061, 72.9955925, 0.9999982, 0.0009542409, 0.000891834, -0.001418703
 102294066, 0.11, 0.09, 359.83, 607.76, 33.6412061, 72.9955925, 0.9999982, 0.0009670612, 0.0008466574, -0.001442643
 102394026, 0.11, 0.09, 359.83, 608.01, 33.6412061, 72.9955925, 0.999998, 0.0009956674, 0.000853191, -0.001472645
 102493986, 0.11, 0.09, 359.82, 608.26, 33.6412061, 72.9955925, 0.999998, 0.0009933631, 0.0008514926, -0.001500462
 102593946, 0.11, 0.1, 359.82, 608.5, 33.6412061, 72.9955925, 0.9999979, 0.0009912566, 0.0009028068, -0.001524291
 102693906, 0.11, 0.1, 359.82, 608.75, 33.6412061, 72.9955925, 0.9999979, 0.0009986168, 0.0009418502, -0.001545218
 102793866, 0.11, 0.1, 359.82, 609.01, 33.6412061, 72.9955925, 0.9999979, 0.0009857852, 0.0009166178, -0.001564288
 102893826, 0.1, 0.09, 359.81, 609.26, 33.641206, 72.9955925, 0.999998, 0.00090461, 0.0008524365, -0.001582483
 102993786, 0.1, 0.09, 359.81, 609.51, 33.641206, 72.9955925, 0.999998, 0.0008748141, 0.000811707, -0.001597674
 103093746, 0.1, 0.07, 359.81, 609.76, 33.6412059, 72.9955925, 0.999998, 0.0008933909, 0.000679415, -0.001604865
 103193706, 0.1, 0.06, 359.81, 610, 33.6412059, 72.9955925, 0.9999981, 0.0009267287, 0.000591877, -0.001608096
 103293666, 0.1, 0.05, 359.81, 610.25, 33.6412059, 72.9955925, 0.9999982, 0.0008955529, 0.0005171879, -0.001608863
 103393626, 0.1, 0.05, 359.81, 610.5, 33.6412059, 72.9955925, 0.9999982, 0.0008873919, 0.0004533877, -0.001601796
 103494419, 0.1, 0.04, 359.81, 610.75, 33.6412059, 72.9955925, 0.9999983, 0.0008865703, 0.000393271, -0.001585928
 103594379, 0.1, 0.04, 359.82, 611, 33.6412059, 72.9955925, 0.9999983, 0.0009134022, 0.0004117584, -0.001568568
 103694339, 0.1, 0.04, 359.82, 611.25, 33.6412059, 72.9955925, 0.9999983, 0.0008986174, 0.0003846821, -0.001563516
 103794299, 0.1, 0.04, 359.81, 611.5, 33.6412059, 72.9955925, 0.9999983, 0.0009033498, 0.0003530478, -0.001589756
 103894259, 0.1, 0.04, 359.81, 611.75, 33.6412059, 72.9955925, 0.9999982, 0.0009439285, 0.0003887158, -0.001622655
 103994219, 0.1, 0.04, 359.81, 612, 33.6412059, 72.9955925, 0.9999982, 0.0009404975, 0.0003771815, -0.001655833
 104094179, 0.1, 0.04, 359.8, 612.25, 33.6412059, 72.9955925, 0.999998, 0.0009569022, 0.0003831803, -0.001681456
 104194139, 0.11, 0.04, 359.8, 612.5, 33.6412059, 72.9955925, 0.999998, 0.0009664547, 0.0004158607, -0.001701587
 104294099, 0.1, 0.04, 359.8, 612.75, 33.6412059, 72.9955925, 0.999998, 0.0009539657, 0.0004322561, -0.001711959
 104394059, 0.11, 0.05, 359.8, 612.99, 33.6412059, 72.9955925, 0.9999979, 0.0009728076, 0.0004949623, -0.00170561
 104494019, 0.1, 0.06, 359.8, 613.24, 33.6412059, 72.9955925, 0.999998, 0.0009578313, 0.0005389821, -0.001678915
 104593979, 0.11, 0.06, 359.81, 613.49, 33.6412059, 72.9955925, 0.999998, 0.000974863, 0.0005511242, -0.00164091
 104693939, 0.11, 0.06, 359.81, 613.74, 33.6412059, 72.9955925, 0.9999981, 0.0009773428, 0.0006068089, -0.001583937
 104793899, 0.11, 0.06, 359.82, 613.98, 33.6412059, 72.9955925, 0.9999982, 0.0009722119, 0.0006090708, -0.001530757
 104893859, 0.11, 0.07, 359.82, 614.24, 33.6412059, 72.9955925, 0.9999982, 0.0009651326, 0.0006552826, -0.001485291
 104993819, 0.11, 0.07, 359.83, 614.49, 33.6412059, 72.9955925, 0.9999982, 0.0009781419, 0.0006862368, -0.001453964
 105093779, 0.1, 0.08, 359.83, 614.73, 33.6412059, 72.9955925, 0.9999983, 0.0009442205, 0.0007154002, -0.001441009
 105193739, 0.1, 0.08, 359.83, 614.98, 33.6412059, 72.9955925, 0.9999983, 0.0009463929, 0.0007193865, -0.001433928
 105293699, 0.1, 0.08, 359.83, 615.24, 33.6412059, 72.9955925, 0.9999982, 0.0009527525, 0.0007667782, -0.001451855
 105393659, 0.11, 0.09, 359.83, 615.48, 33.6412059, 72.9955925, 0.9999981, 0.000985729, 0.0008044617, -0.001476509
 105493619, 0.1, 0.08, 359.83, 615.73, 33.6412059, 72.9955925, 0.9999982, 0.0009517216, 0.0007752084, -0.001479005
 105594412, 0.1, 0.09, 359.83, 615.98, 33.6412059, 72.9955925, 0.9999982, 0.0009393741, 0.000785724, -0.001462529
 105694372, 0.1, 0.09, 359.83, 616.23, 33.6412059, 72.9955925, 0.9999982, 0.0009294482, 0.0007973819, -0.001444489
 105794332, 0.1, 0.09, 359.83, 616.47, 33.6412059, 72.9955925, 0.9999982, 0.0009315765, 0.0008140489, -0.001431157
 105894292, 0.1, 0.09, 359.83, 616.72, 33.6412059, 72.9955925, 0.9999982, 0.0009141533, 0.0008220942, -0.00142362
 105994252, 0.1, 0.09, 359.83, 616.98, 33.6412059, 72.9955925, 0.9999982, 0.0009491417, 0.0008525948, -0.001417688
 106094212, 0.11, 0.1, 359.83, 617.22, 33.6412059, 72.9955926, 0.9999982, 0.000981787, 0.0008810824, -0.001411476
 106194172, 0.1, 0.09, 359.83, 617.47, 33.6412059, 72.9955926, 0.9999982, 0.0009572232, 0.0008657745, -0.001407139
 106294132, 0.09, 0.08, 359.83, 617.72, 33.6412059, 72.9955926, 0.9999983, 0.0008693791, 0.0007689193, -0.001406758
 106394092, 0.09, 0.08, 359.83, 617.97, 33.6412059, 72.9955926, 0.9999984, 0.0007980042, 0.0007230524, -0.001410462
 106494052, 0.08, 0.07, 359.83, 618.23, 33.6412059, 72.9955926, 0.9999985, 0.0007610057, 0.0006612819, -0.001411464
 106594012, 0.08, 0.06, 359.83, 618.48, 33.6412059, 72.9955926, 0.9999986, 0.0007078638, 0.0006014086, -0.001413035
 106693972, 0.08, 0.07, 359.83, 618.72, 33.6412059, 72.9955926, 0.9999986, 0.0007019707, 0.0006517775, -0.001410893
 106793932, 0.08, 0.08, 359.83, 618.97, 33.6412059, 72.9955926, 0.9999985, 0.0007402504, 0.0007115185, -0.001410521
 106893892, 0.08, 0.08, 359.83, 619.22, 33.6412059, 72.9955926, 0.9999985, 0.0007266738, 0.0007164769, -0.001407036
 106993852, 0.08, 0.07, 359.83, 619.47, 33.6412059, 72.9955926, 0.9999985, 0.0007090677, 0.0006941002, -0.001404504
 107093812, 0.08, 0.07, 359.83, 619.72, 33.6412059, 72.9955926, 0.9999985, 0.0007107259, 0.0006886201, -0.001403138
 107193772, 0.08, 0.08, 359.83, 619.98, 33.6412059, 72.9955926, 0.9999985, 0.0007249553, 0.0007142486, -0.001402748
 107293732, 0.08, 0.08, 359.83, 620.23, 33.6412059, 72.9955926, 0.9999985, 0.0007194484, 0.0007237833, -0.001402734
 107393692, 0.08, 0.08, 359.83, 620.48, 33.6412059, 72.9955926, 0.9999985, 0.0007416164, 0.0007346096, -0.001410513
 107493652, 0.08, 0.08, 359.83, 620.73, 33.6412059, 72.9955926, 0.9999985, 0.0007330923, 0.0007499633, -0.001419177
 107593612, 0.08, 0.08, 359.83, 620.97, 33.6412059, 72.9955926, 0.9999984, 0.0007817885, 0.0007705091, -0.001428997
 107694405, 0.08, 0.08, 359.83, 621.22, 33.6412059, 72.9955926, 0.9999984, 0.0007635673, 0.0007800268, -0.001431026
 107794365, 0.08, 0.09, 359.83, 621.48, 33.6412059, 72.9955926, 0.9999983, 0.0007304812, 0.0008610251, -0.001425
 107894325, 0.08, 0.09, 359.83, 621.73, 33.6412059, 72.9955926, 0.9999983, 0.0007404864, 0.000848909, -0.001419843
 107994285, 0.08, 0.09, 359.83, 621.98, 33.6412059, 72.9955926, 0.9999984, 0.0007755341, 0.0008095891, -0.001405123
 108094245, 0.09, 0.08, 359.83, 622.23, 33.6412059, 72.9955926, 0.9999984, 0.0008024488, 0.0007475539, -0.001403624
 108194205, 0.09, 0.08, 359.83, 622.48, 33.6412059, 72.9955926, 0.9999985, 0.0008017877, 0.0007190558, -0.001411342
 108294165, 0.09, 0.08, 359.83, 622.73, 33.6412059, 72.9955926, 0.9999984, 0.0008269394, 0.0007312734, -0.001403608
 108394125, 0.09, 0.08, 359.83, 622.99, 33.6412059, 72.9955926, 0.9999985, 0.0008323406, 0.0007070167, -0.001401188
 108494085, 0.09, 0.08, 359.83, 623.24, 33.6412059, 72.9955926, 0.9999984, 0.0008604568, 0.0007145653, -0.001413698
 108594045, 0.09, 0.08, 359.83, 623.49, 33.6412059, 72.9955926, 0.9999984, 0.0008326819, 0.000714839, -0.001428646
 108694005, 0.09, 0.08, 359.83, 623.74, 33.6412059, 72.9955926, 0.9999983, 0.0008562406, 0.0007185627, -0.0014258
 108793965, 0.1, 0.08, 359.84, 623.99, 33.6412059, 72.9955926, 0.9999984, 0.000883594, 0.0007203885, -0.00139013
 108893925, 0.1, 0.08, 359.84, 624.25, 33.6412059, 72.9955926, 0.9999984, 0.0009029564, 0.0007528334, -0.001341127
 108993885, 0.1, 0.08, 359.85, 624.49, 33.6412059, 72.9955926, 0.9999985, 0.0009474513, 0.0007456527, -0.001290252
 109093845, 0.11, 0.08, 359.85, 624.74, 33.6412059, 72.9955926, 0.9999985, 0.0009641495, 0.0007012073, -0.001254033
 109193805, 0.11, 0.07, 359.85, 624.99, 33.6412059, 72.9955926, 0.9999985, 0.001008757, 0.0006804668, -0.001247182
 109293765, 0.11, 0.07, 359.85, 625.24, 33.6412059, 72.9955926, 0.9999985, 0.0009687899, 0.000675824, -0.001241579
 109393725, 0.1, 0.07, 359.85, 625.49, 33.6412059, 72.9955926, 0.9999986, 0.0009248237, 0.0006830823, -0.001245952
 109493685, 0.08, 0.08, 359.85, 625.74, 33.6412059, 72.9955926, 0.9999986, 0.00078583, 0.000701372, -0.001279667
 109593645, 0.09, 0.08, 359.84, 625.99, 33.6412059, 72.9955926, 0.9999985, 0.0007983348, 0.0007372807, -0.00134302
 109693605, 0.09, 0.09, 359.83, 626.25, 33.641206, 72.9955926, 0.9999983, 0.000816586, 0.0008002957, -0.001415685
 109794398, 0.09, 0.09, 359.83, 626.49, 33.641206, 72.9955926, 0.9999982, 0.0008469907, 0.0008688702, -0.001470974
 109894358, 0.09, 0.1, 359.82, 626.74, 33.6412061, 72.9955926, 0.9999981, 0.0008253782, 0.0008996613, -0.001521451
 109994318, 0.09, 0.1, 359.82, 626.99, 33.6412061, 72.9955926, 0.999998, 0.0008043831, 0.0009280993, -0.00156847
 110094278, 0.09, 0.12, 359.81, 627.25, 33.6412061, 72.9955926, 0.9999978, 0.0008020636, 0.0011053, -0.001609814
 110194238, 0.09, 0.14, 359.81, 627.49, 33.6412061, 72.9955926, 0.9999975, 0.0008447432, 0.001247501, -0.001638201
 110294198, 0.09, 0.15, 359.81, 627.74, 33.6412061, 72.9955926, 0.9999974, 0.0008719584, 0.00131819, -0.001643012
 110394158, 0.09, 0.15, 359.81, 627.98, 33.6412061, 72.9955926, 0.9999974, 0.0008720721, 0.001336643, -0.001628138
 110494118, 0.09, 0.15, 359.81, 628.22, 33.6412061, 72.9955926, 0.9999974, 0.0008644866, 0.001372695, -0.001597381
 110594078, 0.1, 0.15, 359.82, 628.45, 33.6412061, 72.9955926, 0.9999974, 0.0009455518, 0.001345111, -0.001550243
 110694038, 0.09, 0.15, 359.82, 628.67, 33.6412061, 72.9955926, 0.9999976, 0.0008626714, 0.001374907, -0.001498812
 110793998, 0.1, 0.16, 359.83, 628.9, 33.6412061, 72.9955926, 0.9999974, 0.0008866284, 0.001471568, -0.001444127
 110893958, 0.1, 0.16, 359.84, 629.11, 33.6412061, 72.9955925, 0.9999976, 0.0009383741, 0.001455085, -0.001385422
 110993918, 0.11, 0.15, 359.84, 629.33, 33.6412061, 72.9955925, 0.9999977, 0.0009865913, 0.001368049, -0.001332529
 111093878, 0.12, 0.15, 359.85, 629.52, 33.6412061, 72.9955925, 0.9999977, 0.001056138, 0.001321586, -0.001277436
 111193838, 0.13, 0.14, 359.85, 629.72, 33.6412061, 72.9955925, 0.9999977, 0.00116071, 0.001283236, -0.001230831
 111293798, 0.12, 0.14, 359.86, 629.91, 33.6412061, 72.9955925, 0.9999979, 0.001116245, 0.001238172, -0.001199788
 111393758, 0.12, 0.13, 359.86, 630.09, 33.6412061, 72.9955925, 0.999998, 0.001082633, 0.00121336, -0.001187856
 111493718, 0.12, 0.13, 359.86, 630.27, 33.6412061, 72.9955925, 0.999998, 0.001092671, 0.001189487, -0.001189768
 111593678, 0.13, 0.12, 359.86, 630.44, 33.6412061, 72.9955925, 0.9999979, 0.001199904, 0.001122523, -0.001218513
 111693638, 0.13, 0.12, 359.85, 630.61, 33.6412061, 72.9955925, 0.9999979, 0.001194568, 0.001080016, -0.001256797
 111794431, 0.13, 0.11, 359.85, 630.77, 33.6412061, 72.9955925, 0.9999979, 0.001205278, 0.001015345, -0.001307843
 111894391, 0.14, 0.1, 359.84, 630.92, 33.6412061, 72.9955925, 0.9999979, 0.001236764, 0.000900103, -0.001363871
 111994351, 0.13, 0.1, 359.83, 631.07, 33.6412061, 72.9955925, 0.9999979, 0.001209616, 0.0008828703, -0.001425529
 112094311, 0.13, 0.1, 359.82, 631.22, 33.6412061, 72.9955925, 0.9999978, 0.001154034, 0.0008988987, -0.001485584
 112194271, 0.12, 0.1, 359.82, 631.36, 33.6412061, 72.9955925, 0.9999978, 0.001097574, 0.0008932102, -0.001542276
 112294231, 0.1, 0.1, 359.81, 631.49, 33.6412061, 72.9955925, 0.9999979, 0.000916095, 0.0009432501, -0.001586888
 112394191, 0.09, 0.1, 359.81, 631.62, 33.6412061, 72.9955925, 0.9999979, 0.000847846, 0.0009412988, -0.001617065
 112494151, 0.09, 0.1, 359.81, 631.74, 33.6412061, 72.9955925, 0.9999979, 0.000813472, 0.0009363467, -0.001641531
 112594111, 0.09, 0.1, 359.81, 631.86, 33.6412061, 72.9955925, 0.9999978, 0.0008535714, 0.0009415373, -0.001653642
 112694071, 0.1, 0.1, 359.81, 631.97, 33.641206, 72.9955925, 0.9999979, 0.0008987084, 0.0008815072, -0.001651019
 112794031, 0.1, 0.09, 359.81, 632.08, 33.641206, 72.9955925, 0.9999979, 0.0008917657, 0.0008617242, -0.001631629
 112893991, 0.11, 0.07, 359.81, 632.19, 33.6412059, 72.9955925, 0.999998, 0.0009696716, 0.0006965261, -0.001604514
 112993951, 0.12, 0.05, 359.81, 632.28, 33.6412059, 72.9955925, 0.999998, 0.001073799, 0.0005200709, -0.001573615
 113093911, 0.11, 0.03, 359.82, 632.37, 33.6412059, 72.9955925, 0.9999983, 0.00103976, 0.0003107133, -0.001534032
 113193871, 0.12, 0.03, 359.82, 632.46, 33.6412059, 72.9955925, 0.9999983, 0.001061529, 0.0002934229, -0.001486718
 113293831, 0.12, 0.03, 359.83, 632.53, 33.6412059, 72.9955925, 0.9999984, 0.001053697, 0.0002763318, -0.001442236
 113393791, 0.12, 0.03, 359.83, 632.6, 33.6412059, 72.9955925, 0.9999984, 0.001056343, 0.0002938869, -0.001409495
 113493751, 0.11, 0.03, 359.84, 632.68, 33.6412059, 72.9955925, 0.9999985, 0.0009671099, 0.0003018627, -0.001395493
 113593711, 0.1, 0.03, 359.84, 632.74, 33.6412059, 72.9955925, 0.9999986, 0.0009093873, 0.0003146786, -0.001387582
 113693671, 0.09, 0.03, 359.84, 632.79, 33.6412059, 72.9955925, 0.9999986, 0.0008649295, 0.0003441459, -0.001385305
 113793631, 0.1, 0.04, 359.84, 632.85, 33.6412059, 72.9955925, 0.9999986, 0.0008832756, 0.0003951798, -0.001385927
 113894424, 0.09, 0.04, 359.84, 632.89, 33.6412059, 72.9955925, 0.9999986, 0.0008670536, 0.0004291331, -0.001384166
 113994384, 0.1, 0.05, 359.84, 632.92, 33.6412059, 72.9955925, 0.9999986, 0.0008777442, 0.0004763434, -0.00137893
 114094344, 0.09, 0.06, 359.84, 632.95, 33.6412059, 72.9955925, 0.9999986, 0.0008605229, 0.0005245548, -0.001374272
 114194304, 0.1, 0.06, 359.84, 632.99, 33.6412059, 72.9955925, 0.9999985, 0.0008877533, 0.000599139, -0.00137321
 114294264, -0.12, -0.55, 359.84, 632.99, 33.6412059, 72.9955925, 0.9999868, -0.001087353, -0.004826228, -0.001376661
 114394224, -0.78, -2.36, 359.85, 633.01, 33.6412059, 72.9955925, 0.999762, -0.006868163, -0.02066027, -0.001403508
 114494184, -1.32, -3.85, 359.87, 633.02, 33.6412059, 72.9955925, 0.999365, -0.01161676, -0.03365534, -0.001441969
 114594144, -1.66, -4.77, 359.9, 633.03, 33.6412059, 72.9955925, 0.9990262, -0.01456645, -0.04162057, -0.001461695
 114694104, -1.87, -5.37, 359.91, 633.05, 33.641206, 72.9955925, 0.9987654, -0.01639643, -0.04686916, -0.001470963
 114794064, -2.02, -5.84, 359.84, 633.06, 33.6412061, 72.9955925, 0.9985429, -0.01772056, -0.05091985, -0.00226878
 114894024, -2.09, -6.23, 359.33, 633.06, 33.6412066, 72.9955923, 0.9983285, -0.01860615, -0.05429546, -0.006785178
 114993984, -2.04, -6.62, 357.95, 633.07, 33.6412068, 72.9955922, 0.9979951, -0.01881386, -0.05741727, -0.01884166
 115093944, -1.81, -6.98, 355.55, 633.08, 33.6412076, 72.9955919, 0.997232, -0.01817263, -0.06022777, -0.03963143
 115193904, -1.45, -7.3, 352.4, 633.08, 33.6412079, 72.9955917, 0.9956427, -0.01686811, -0.06273536, -0.06689799
 115293864, -0.99, -7.58, 348.79, 633.09, 33.6412088, 72.9955913, 0.9929522, -0.01507014, -0.06497881, -0.09796215
 115393824, -0.46, -7.8, 344.96, 633.09, 33.6412094, 72.9955911, 0.9890683, -0.01292341, -0.06690255, -0.1307703
 115493784, 0.08, -7.94, 341.18, 633.09, 33.6412104, 72.9955906, 0.9841827, -0.01064009, -0.06848747, -0.1630361
 115593744, 0.6, -8.03, 337.67, 633.09, 33.6412112, 72.9955902, 0.9787343, -0.008365347, -0.06976985, -0.1927208
 115693704, 1.07, -8.07, 334.66, 633.1, 33.6412125, 72.9955896, 0.9733317, -0.006338138, -0.07074933, -0.218128
 115793664, 1.45, -8.09, 332.28, 633.1, 33.6412134, 72.9955892, 0.9686146, -0.004625543, -0.07153854, -0.2380054
 115893624, 1.7, -8.11, 330.64, 633.1, 33.6412149, 72.9955886, 0.9651064, -0.003536098, -0.07222524, -0.2516758
 115994417, 1.86, -8.13, 329.75, 633.1, 33.641216, 72.9955882, 0.963113, -0.002831122, -0.07270674, -0.2590735
 116094377, 1.9, -8.15, 329.6, 633.1, 33.6412177, 72.9955875, 0.9627557, -0.002620508, -0.07299894, -0.2603184
 116194337, 1.86, -8.24, 330.1, 633.1, 33.641219, 72.995587, 0.9638442, -0.002897196, -0.07363024, -0.2560752
 116294297, 1.72, -8.36, 331.18, 633.1, 33.6412208, 72.9955863, 0.9661404, -0.003588644, -0.07439808, -0.2470319
 116394257, 1.52, -8.5, 332.74, 633.1, 33.6412222, 72.9955857, 0.9693218, -0.004562903, -0.07518494, -0.2339693
 116494217, 1.25, -8.65, 334.67, 633.1, 33.6412242, 72.9955849, 0.9730158, -0.005848051, -0.07603341, -0.2177727
 116594177, 0.95, -8.81, 336.84, 633.1, 33.6412258, 72.9955843, 0.9768583, -0.007292734, -0.07696129, -0.1994284
 116694137, 0.62, -8.98, 339.13, 633.1, 33.6412279, 72.9955834, 0.9805164, -0.00879631, -0.07804818, -0.1800523
 116794097, 0.31, -9.18, 341.39, 633.1, 33.6412296, 72.9955827, 0.9837142, -0.01024986, -0.07941264, -0.1609194
 116894057, 0.01, -9.36, 343.5, 633.1, 33.6412318, 72.9955819, 0.9863505, -0.01160125, -0.0808062, -0.1429984
 116994017, -0.24, -9.54, 345.33, 633.09, 33.6412337, 72.9955811, 0.9883602, -0.01273827, -0.08226338, -0.1273365
 117093977, -0.44, -9.74, 346.82, 633.09, 33.6412361, 72.9955801, 0.98976, -0.01359094, -0.08390356, -0.1146758
 117193937, -0.57, -9.93, 347.89, 633.09, 33.6412382, 72.9955793, 0.9906318, -0.01409706, -0.08559071, -0.1054712
 117293897, -0.63, -10.14, 348.52, 633.09, 33.6412407, 72.9955784, 0.9910354, -0.01434304, -0.08739033, -0.1000303
 117393857, -0.62, -10.4, 348.73, 633.09, 33.6412429, 72.9955775, 0.9910092, -0.01432208, -0.08968228, -0.0982483
 117493817, -0.54, -10.69, 348.53, 633.09, 33.6412456, 72.9955765, 0.9906192, -0.01402615, -0.09222609, -0.09985554
 117593777, -0.39, -10.98, 347.99, 633.09, 33.6412479, 72.9955756, 0.9899105, -0.01343965, -0.09486552, -0.1043887
 117693737, -0.19, -11.28, 347.18, 633.08, 33.6412508, 72.9955745, 0.9889182, -0.01265898, -0.09755022, -0.1111957
 117793697, 0.05, -11.58, 346.18, 633.08, 33.6412533, 72.9955735, 0.9876757, -0.01163834, -0.1002726, -0.1196109
 117893657, 0.34, -11.89, 345.07, 633.08, 33.6412562, 72.9955725, 0.9862298, -0.01050803, -0.1031383, -0.1288521
 117993617, 0.64, -12.21, 343.95, 633.08, 33.6412589, 72.9955715, 0.9846586, -0.009352055, -0.1061602, -0.1381663
 118094410, 0.93, -12.5, 342.89, 633.08, 33.6412621, 72.9955703, 0.9830969, -0.008141869, -0.1088906, -0.1469593
 118194370, 1.21, -12.77, 341.98, 633.07, 33.6412649, 72.9955692, 0.981669, -0.006980675, -0.1115245, -0.1544007
 118294330, 1.46, -13.11, 341.27, 633.07, 33.6412683, 72.9955681, 0.9803883, -0.005997981, -0.1147258, -0.1601277
 118394290, 1.68, -13.44, 340.81, 633.07, 33.6412713, 72.995567, 0.9794136, -0.005122468, -0.1178471, -0.1638131
 118494250, 1.84, -13.77, 340.6, 633.07, 33.6412749, 72.9955658, 0.9787996, -0.004451082, -0.1208903, -0.1652789
 118594210, 1.94, -14.1, 340.67, 633.06, 33.641278, 72.9955647, 0.9785706, -0.003965191, -0.1238328, -0.1644668
 118694170, 2.01, -14.44, 341, 633.06, 33.6412817, 72.9955636, 0.9786823, -0.003508548, -0.1269034, -0.1614443
 118794130, 2.05, -14.8, 341.57, 633.06, 33.6412851, 72.9955624, 0.9790853, -0.00304164, -0.1300219, -0.1564518
 118894090, 2.07, -15.1, 342.34, 633.06, 33.6412891, 72.9955612, 0.9797854, -0.00243136, -0.1326343, -0.1497425
 118994050, 1.93, -12.98, 343.35, 633.05, 33.6412926, 72.9955601, 0.9832631, 0.0002017181, -0.1142776, -0.1418954
 119094010, 1.79, -10.11, 344.48, 633.05, 33.6412967, 72.9955589, 0.9870492, 0.003562344, -0.08947029, -0.1331021
 119193970, 1.75, -8.13, 345.61, 633.05, 33.6413003, 72.9955577, 0.9896498, 0.00628896, -0.07231277, -0.1237926
 119293930, 1.79, -6.8, 346.73, 633.03, 33.6413045, 72.9955566, 0.9915369, 0.008631741, -0.06078213, -0.1143923
 119393890, 1.87, -5.81, 347.79, 633.03, 33.6413083, 72.9955554, 0.9930117, 0.01087479, -0.05212877, -0.1053194
 119493850, 2, -4.92, 348.79, 633.03, 33.641312, 72.9955545, 0.9942217, 0.01316646, -0.04448572, -0.09680329
 119593810, 2.14, -4.07, 349.69, 633.02, 33.6413158, 72.9955534, 0.9952179, 0.01545329, -0.03708324, -0.08903581
 119693770, 2.33, -3.27, 350.5, 633.02, 33.6413194, 72.9955526, 0.9960042, 0.01791114, -0.03016775, -0.08212662
 119793730, 2.53, -2.52, 351.2, 633.02, 33.6413231, 72.9955516, 0.9966111, 0.02036399, -0.02362193, -0.07611629
 119893690, 2.75, -1.81, 351.81, 633.01, 33.6413265, 72.9955509, 0.9970663, 0.02280378, -0.0174952, -0.07094221
 119993650, 2.98, -1.16, 352.34, 633.01, 33.6413301, 72.99555, 0.9973979, 0.02528831, -0.01183984, -0.06646612
 120093610, 3.23, -0.58, 352.81, 633.01, 33.6413332, 72.9955495, 0.9976329, 0.02782399, -0.006880989, -0.06250563
 120194403, 3.49, -0.01, 353.26, 633, 33.6413366, 72.9955487, 0.9978105, 0.03039613, -0.001928992, -0.0587074
 120294363, 3.76, 0.45, 353.71, 633, 33.6413394, 72.9955484, 0.9979441, 0.0330004, 0.002147681, -0.0549009
 120394323, 4.07, 0.84, 354.21, 633, 33.6413427, 72.9955478, 0.9980547, 0.03586351, 0.005605321, -0.05068784
 120494283, 4.41, 1.2, 354.8, 632.99, 33.6413453, 72.9955478, 0.9981561, 0.03897095, 0.008715576, -0.04571339
 120594243, 4.81, 1.52, 355.51, 632.99, 33.6413483, 72.9955473, 0.9982457, 0.04244628, 0.01161477, -0.03960996
 120694203, 5.25, 1.78, 356.4, 632.99, 33.6413507, 72.9955474, 0.9983124, 0.04633905, 0.0141536, -0.03201243
 120794163, 5.81, 2.03, 357.51, 632.99, 33.6413536, 72.9955471, 0.9982997, 0.05112185, 0.01662489, -0.02253967
 120894123, 6.48, 2.41, 358.9, 632.99, 33.6413557, 72.9955474, 0.998121, 0.056718, 0.02053627, -0.01076564
 120994083, 7.29, 2.99, 0.63, 632.99, 33.6413583, 72.9955473, 0.9976302, 0.06341534, 0.02641088, 0.003871632
 121094043, 8.28, 3.51, 2.75, 632.99, 33.6413603, 72.9955478, 0.996685, 0.07143992, 0.03228809, 0.02174547
 121194003, 9.54, 3.96, 5.34, 632.99, 33.6413627, 72.9955479, 0.9949872, 0.08146623, 0.03834261, 0.04351581
 121293963, 11.14, 4.43, 8.53, 632.97, 33.6413643, 72.9955488, 0.9920521, 0.09392734, 0.04558875, 0.07022779
 121393923, 13.13, 4.97, 12.46, 632.97, 33.6413664, 72.9955491, 0.9871721, 0.1089096, 0.05531031, 0.1028139
 121493883, 15.47, 5.68, 17.33, 632.97, 33.6413679, 72.9955504, 0.9793806, 0.1255423, 0.06887349, 0.1425104
 121593843, 17.85, 6.58, 23.22, 632.97, 33.6413698, 72.9955511, 0.9678576, 0.1403693, 0.08677468, 0.1897847
 121693803, 19.62, 7.49, 30.07, 632.96, 33.6413705, 72.9955529, 0.9524858, 0.147538, 0.1063163, 0.2443362
 121793763, 20.13, 7.95, 37.59, 632.96, 33.6413721, 72.995554, 0.9337558, 0.1431006, 0.1208168, 0.3050013
 121893723, 19.25, 7.64, 45.45, 632.96, 33.6413722, 72.9955565, 0.9116476, 0.1284879, 0.1250672, 0.369794
 121993683, 17.46, 6.61, 53.5, 632.96, 33.6413733, 72.9955579, 0.8850803, 0.1097181, 0.1191488, 0.4363465
 122093643, 15.51, 5.06, 61.66, 632.95, 33.6413725, 72.9955605, 0.85304, 0.09339406, 0.106701, 0.5022103
 122193603, 15.26, 1.37, 69.38, 632.95, 33.641373, 72.9955623, 0.8157983, 0.1024298, 0.08536073, 0.5627565
 122294396, 14.37, -2.74, 77.1, 632.95, 33.6413718, 72.9955645, 0.7738057, 0.1126533, 0.05934651, 0.6204934
 122394356, 12.13, -5.97, 84.91, 632.95, 33.6413717, 72.9955665, 0.7289548, 0.1128273, 0.03302938, 0.6743916
 122494316, 9.69, -8.04, 92.78, 632.95, 33.6413702, 72.9955686, 0.6812868, 0.1087229, 0.01284379, 0.7237835
 122594276, 7.39, -9.29, 100.44, 632.95, 33.6413697, 72.9955706, 0.6323232, 0.1033055, -0.002325361, 0.7677825
 122694236, 5.21, -10.04, 107.74, 632.95, 33.6413681, 72.995573, 0.5835142, 0.09739655, -0.01497796, 0.8061023
