Time,ATT_DesRoll,ATT_Roll,ATT_DesPitch,ATT_Pitch,ATT_DesYaw,ATT_Yaw,ATT_ErrRP,ATT_ErrYaw,ATT_AEKF
 70194411, 0, 0.06, 0, 0.05, 0.64, 0.64, 0, 0, 3
 70294371, 0, 0.06, 0, 0.05, 0.64, 0.64, 0, 0, 3
 70394331, 0, 0.06, 0, 0.05, 0.64, 0.64, 0, 0, 3
 70494291, 0, 0.06, 0, 0.05, 0.64, 0.64, 0, 0, 3
 70594251, 0, 0.06, 0, 0.05, 0.64, 0.64, 0, 0, 3
 70694211, 0, 0.07, 0, 0.05, 0.64, 0.64, 0, 0, 3
 70794171, 0, 0.07, 0, 0.05, 0.64, 0.64, 0, 0, 3
 70894131, 0, 0.07, 0, 0.05, 0.64, 0.64, 0, 0, 3
 70994091, 0, 0.07, 0, 0.05, 0.64, 0.64, 0, 0, 3
 71094051, 0, 0.07, 0, 0.05, 0.65, 0.65, 0, 0, 3
 71194011, 0, 0.07, 0, 0.06, 0.65, 0.65, 0, 0, 3
 71293971, 0, 0.07, 0, 0.06, 0.65, 0.65, 0, 0, 3
 71393931, 0, 0.07, 0, 0.06, 0.65, 0.65, 0, 0, 3
 71493891, 0, 0.07, 0, 0.06, 0.65, 0.65, 0, 0, 3
 71593851, 0, 0.07, 0, 0.06, 0.65, 0.65, 0, 0, 3
 71693811, 0, 0.07, 0, 0.06, 0.65, 0.65, 0, 0, 3
 71793771, 0, 0.08, 0, 0.06, 0.65, 0.65, 0, 0, 3
 71893731, 0, 0.08, 0, 0.07, 0.65, 0.65, 0, 0, 3
 71993691, 0, 0.08, 0, 0.07, 0.65, 0.65, 0, 0, 3
 72093651, 0, 0.08, 0, 0.07, 0.65, 0.65, 0, 0, 3
 72193611, 0, 0.08, 0, 0.07, 0.65, 0.65, 0, 0, 3
 72294404, 0, 0.08, 0, 0.07, 0.65, 0.65, 0, 0, 3
 72394364, 0, 0.08, 0, 0.07, 0.65, 0.65, 0, 0, 3
 72494324, 0, 0.09, 0, 0.07, 0.65, 0.65, 0, 0, 3
 72594284, 0, 0.09, 0, 0.08, 0.65, 0.65, 0, 0, 3
 72694244, 0, 0.09, 0, 0.08, 0.65, 0.65, 0, 0, 3
 72794204, 0, 0.09, 0, 0.08, 0.66, 0.66, 0, 0, 3
 72894164, 0, 0.09, 0, 0.08, 0.66, 0.66, 0, 0, 3
 72994124, 0, 0.09, 0, 0.08, 0.66, 0.66, 0, 0, 3
 73094084, 0, 0.1, 0, 0.08, 0.66, 0.66, 0, 0, 3
 73194044, 0, 0.1, 0, 0.09, 0.66, 0.66, 0, 0, 3
 73294004, 0, 0.1, 0, 0.09, 0.66, 0.66, 0, 0, 3
 73393964, 0, 0.1, 0, 0.09, 0.66, 0.66, 0, 0, 3
 73493924, 0, 0.1, 0, 0.09, 0.66, 0.66, 0, 0, 3
 73593884, 0, 0.1, 0, 0.09, 0.66, 0.66, 0, 0, 3
 73693844, 0, 0.11, 0, 0.1, 0.66, 0.66, 0, 0, 3
 73793804, 0, 0.11, 0, 0.1, 0.66, 0.66, 0, 0, 3
 73893764, 0, 0.11, 0, 0.1, 0.66, 0.66, 0, 0, 3
 73993724, 0, 0.11, 0, 0.1, 0.66, 0.66, 0, 0, 3
 74093684, 0, 0.11, 0, 0.1, 0.67, 0.67, 0, 0, 3
 74193644, 0, 0.12, 0, 0.1, 0.67, 0.67, 0, 0, 3
 74293604, 0, 0.12, 0, 0.11, 0.67, 0.67, 0, 0, 3
 74394397, 0, 0.12, 0, 0.11, 0.67, 0.67, 0, 0, 3
 74494357, 0, 0.12, 0, 0.11, 0.67, 0.67, 0, 0, 3
 74594317, 0, 0.12, 0, 0.11, 0.67, 0.67, 0, 0, 3
 74694277, 0, 0.12, 0, 0.11, 0.67, 0.67, 0, 0, 3
 74794237, 0, 0.13, 0, 0.12, 0.67, 0.67, 0, 0, 3
 74894197, 0, 0.13, 0, 0.12, 0.67, 0.67, 0, 0, 3
 74994157, 0, 0.13, 0, 0.12, 0.67, 0.67, 0, 0, 3
 75094117, 0, 0.13, 0, 0.12, 0.68, 0.68, 0, 0, 3
 75194077, 0, 0.13, 0, 0.12, 0.68, 0.68, 0, 0, 3
 75294037, 0, 0.14, 0, 0.12, 0.68, 0.68, 0, 0, 3
 75393997, 0, 0.14, 0, 0.13, 0.68, 0.68, 0, 0, 3
 75493957, 0, 0.14, 0, 0.13, 0.68, 0.68, 0, 0, 3
 75593917, 0, 0.14, 0, 0.13, 0.68, 0.68, 0, 0, 3
 75693877, 0, 0.14, 0, 0.13, 0.68, 0.68, 0, 0, 3
 75793837, 0, 0.14, 0, 0.13, 0.68, 0.68, 0, 0, 3
 75893797, 0, 0.15, 0, 0.13, 0.68, 0.68, 0, 0, 3
 75993757, 0, 0.15, 0, 0.14, 0.69, 0.69, 0, 0, 3
 76093717, 0, 0.15, 0, 0.14, 0.69, 0.69, 0, 0, 3
 76193677, 0, 0.15, 0, 0.14, 0.69, 0.69, 0, 0, 3
 76293637, 0, 0.15, 0, 0.14, 0.69, 0.69, 0, 0, 3
 76394430, 0, 0.15, 0, 0.14, 0.69, 0.69, 0, 0, 3
 76494390, 0, 0.15, 0, 0.14, 0.69, 0.69, 0, 0, 3
 76594350, 0, 0.16, 0, 0.15, 0.69, 0.69, 0, 0, 3
 76694310, 0, 0.16, 0, 0.15, 0.69, 0.69, 0, 0, 3
 76794270, 0, 0.16, 0, 0.15, 0.69, 0.69, 0, 0, 3
 76894230, 0, 0.16, 0, 0.15, 0.7, 0.7, 0, 0, 3
 76994190, -0.04, 0.16, -0.04, 0.15, 0.7, 0.7, 0, 0, 3
 77094150, -0.11, 0.16, -0.11, 0.15, 0.7, 0.7, 0, 0, 3
 77194110, -0.15, 0.16, -0.15, 0.15, 0.7, 0.7, 0, 0, 3
 77294070, -0.16, 0.17, -0.16, 0.15, 0.7, 0.7, 0, 0, 3
 77394030, -0.17, 0.17, -0.17, 0.16, 0.7, 0.7, 0, 0, 3
 77493990, -0.18, 0.17, -0.18, 0.16, 0.7, 0.7, 0, 0, 3
 77593950, -0.18, 0.17, -0.18, 0.16, 0.7, 0.7, 0, 0, 3
 77693910, -0.18, 0.17, -0.18, 0.16, 0.7, 0.71, 0, 0, 3
 77793870, -0.19, 0.17, -0.19, 0.16, 0.7, 0.71, 0, 0, 3
 77893830, -0.21, 0.17, -0.21, 0.16, 0.7, 0.71, 0, 0, 3
 77993790, -0.23, 0.17, -0.23, 0.16, 0.7, 0.71, 0, 0, 3
 78093750, -0.25, 0.17, -0.24, 0.16, 0.7, 0.71, 0, 0, 3
 78193710, -0.26, 0.06, -0.26, 0.06, 0.7, 0.71, 0, 0, 3
 78293670, -0.25, -0.2, -0.25, -0.19, 0.7, 0.71, 0, 0, 3
 78393630, -0.16, -0.31, -0.16, -0.3, 0.7, 0.71, 0, 0, 3
 78494423, -0.04, -0.29, -0.05, -0.29, 0.7, 0.71, 0, 0, 3
 78594383, 0.08, -0.2, 0.07, -0.2, 0.7, 0.71, 0, 0, 3
 78694343, 0.2, -0.09, 0.19, -0.1, 0.7, 0.71, 0, 0, 3
 78794303, 0.29, 0, 0.27, 0, 0.7, 0.7, 0, 0, 3
 78894263, 0.35, 0.08, 0.34, 0.07, 0.7, 0.7, 0, 0, 3
 78994223, 0.39, 0.14, 0.38, 0.14, 0.7, 0.69, 0, 0, 3
 79094183, 0.42, 0.19, 0.41, 0.19, 0.7, 0.69, 0, 0, 3
 79194143, 0.44, 0.23, 0.43, 0.23, 0.7, 0.68, 0, 0, 3
 79294103, 0.46, 0.26, 0.45, 0.26, 0.7, 0.68, 0, 0, 3
 79394063, 0.47, 0.29, 0.46, 0.28, 0.7, 0.68, 0, 0, 3
 79494023, 0.47, 0.3, 0.47, 0.3, 0.7, 0.68, 0, 0, 3
 79593983, 0.47, 0.32, 0.47, 0.32, 0.19, 0.17, 0, 0, 3
 79693943, 0.47, 0.34, 0.48, 0.34, 0.19, 0.17, 0, 0, 3
 79793903, 0.46, 0.34, 0.48, 0.36, 0.19, 0.18, 0, 0, 3
 79893863, 0.45, 0.34, 0.47, 0.37, 0.19, 0.19, 0, 0, 3
 79993823, 0.43, 0.33, 0.46, 0.36, 0.19, 0.19, 0, 0, 3
 80093783, 0.42, 0.32, 0.44, 0.35, 0.19, 0.19, 0, 0, 3
 80193743, 0.4, 0.32, 0.42, 0.34, 0.19, 0.19, 0, 0, 3
 80293703, 0.39, 0.32, 0.41, 0.33, 0.19, 0.19, 0, 0, 3
 80393663, 0.38, 0.31, 0.39, 0.32, 0.19, 0.19, 0, 0, 3
 80493623, 0.38, 0.31, 0.38, 0.31, 0.19, 0.19, 0, 0, 3
 80594416, 0.37, 0.31, 0.37, 0.31, 0.19, 0.19, 0, 0, 3
 80694376, 0.36, 0.3, 0.36, 0.3, 0.19, 0.19, 0, 0, 3
 80794336, 0.34, 0.29, 0.34, 0.3, 0.19, 0.18, 0, 0, 3
 80894296, 0.34, 0.28, 0.33, 0.29, 0.19, 0.18, 0, 0, 3
 80994256, 0.32, 0.28, 0.31, 0.28, 0.19, 0.18, 0, 0, 3
 81094216, 0.32, 0.28, 0.3, 0.26, 0.19, 0.18, 0, 0, 3
 81194176, 0.31, 0.27, 0.29, 0.25, 0.19, 0.18, 0, 0, 3
 81294136, 0.3, 0.26, 0.28, 0.24, 0.19, 0.17, 0, 0, 3
 81394096, 0.29, 0.26, 0.27, 0.24, 0.19, 0.18, 0, 0, 3
 81494056, 0.28, 0.25, 0.26, 0.23, 0.19, 0.18, 0, 0, 3
 81594016, 0.27, 0.26, 0.26, 0.23, 0.19, 0.18, 0, 0, 3
 81693976, 0.26, 0.25, 0.25, 0.24, 0.19, 0.18, 0, 0, 3
 81793936, 0.25, 0.24, 0.23, 0.22, 0.19, 0.18, 0, 0, 3
 81893896, 0.24, 0.22, 0.22, 0.19, 0.19, 0.18, 0, 0, 3
 81993856, 0.23, 0.21, 0.21, 0.18, 0.19, 0.19, 0, 0, 3
 82093816, 0.22, 0.18, 0.21, 0.17, 0.19, 0.19, 0, 0, 3
 82193776, 0.2, 0.17, 0.19, 0.17, 0.19, 0.19, 0, 0, 3
 82293736, 0.2, 0.16, 0.19, 0.15, 0.19, 0.19, 0, 0, 3
 82393696, 0.19, 0.16, 0.18, 0.15, 0.19, 0.19, 0, 0, 3
 82493656, 0.18, 0.17, 0.17, 0.15, 0.19, 0.19, 0, 0, 3
 82593616, 0.16, 0.16, 0.15, 0.15, 0.19, 0.19, 0, 0, 3
 82694409, 0.15, 0.14, 0.13, 0.14, 0.19, 0.19, 0, 0, 3
 82794369, 0.14, 0.13, 0.11, 0.12, 0.19, 0.19, 0, 0, 3
 82894329, 0.14, 0.13, 0.11, 0.09, 0.19, 0.19, 0, 0, 3
 82994289, 0.13, 0.12, 0.1, 0.09, 0.19, 0.19, 0, 0, 3
 83094249, 0.12, 0.11, 0.1, 0.09, 0.19, 0.19, 0, 0, 3
 83194209, 0.12, 0.11, 0.08, 0.09, 0.19, 0.19, 0, 0, 3
 83294169, 0.12, 0.11, 0.08, 0.09, 0.19, 0.19, 0, 0, 3
 83394129, 0.11, 0.12, 0.07, 0.08, 0.19, 0.19, 0, 0, 3
 83494089, 0.11, 0.12, 0.07, 0.08, 0.19, 0.19, 0, 0, 3
 83594049, 0.11, 0.12, 0.07, 0.07, 0.19, 0.19, 0, 0, 3
 83694009, 0.11, 0.12, 0.07, 0.07, 0.19, 0.18, 0, 0, 3
 83793969, 0.11, 0.11, 0.08, 0.08, 0.19, 0.18, 0, 0, 3
 83893929, 0.11, 0.11, 0.08, 0.08, 0.19, 0.18, 0, 0, 3
 83993889, 0.11, 0.11, 0.09, 0.08, 0.19, 0.18, 0, 0, 3
 84093849, 0.11, 0.11, 0.1, 0.08, 0.19, 0.18, 0, 0, 3
 84193809, 0.12, 0.12, 0.12, 0.11, 0.19, 0.18, 0, 0, 3
 84293769, 0.13, 0.12, 0.13, 0.12, 0.19, 0.18, 0, 0, 3
 84393729, 0.13, 0.13, 0.14, 0.13, 0.19, 0.18, 0, 0, 3
 84493689, 0.14, 0.13, 0.14, 0.14, 0.19, 0.18, 0, 0, 3
 84593649, 0.14, 0.13, 0.15, 0.15, 0.19, 0.18, 0, 0, 3
 84693609, 0.15, 0.14, 0.15, 0.15, 0.19, 0.18, 0, 0, 3
 84794402, 0.15, 0.14, 0.15, 0.15, 0.19, 0.18, 0, 0, 3
 84894362, 0.16, 0.14, 0.15, 0.15, 0.19, 0.18, 0, 0, 3
 84994322, 0.16, 0.15, 0.16, 0.15, 0.19, 0.19, 0, 0, 3
 85094282, 0.16, 0.14, 0.16, 0.15, 0.19, 0.19, 0, 0, 3
 85194242, 0.17, 0.15, 0.16, 0.15, 0.19, 0.19, 0, 0, 3
 85294202, 0.17, 0.16, 0.16, 0.15, 0.19, 0.19, 0, 0, 3
 85394162, 0.17, 0.16, 0.16, 0.16, 0.19, 0.19, 0, 0, 3
 85494122, 0.17, 0.16, 0.16, 0.15, 0.19, 0.19, 0, 0, 3
 85594082, 0.17, 0.16, 0.16, 0.15, 0.19, 0.19, 0, 0, 3
 85694042, 0.17, 0.16, 0.16, 0.15, 0.19, 0.19, 0, 0, 3
 85794002, 0.17, 0.16, 0.16, 0.15, 0.19, 0.19, 0, 0, 3
 85893962, 0.17, 0.15, 0.16, 0.16, 0.19, 0.19, 0, 0, 3
 85993922, 0.18, 0.17, 0.16, 0.17, 0.19, 0.19, 0, 0, 3
 86093882, 0.18, 0.17, 0.15, 0.17, 0.19, 0.19, 0, 0, 3
 86193842, 0.18, 0.16, 0.15, 0.16, 0.19, 0.19, 0, 0, 3
 86293802, 0.18, 0.16, 0.15, 0.15, 0.19, 0.19, 0, 0, 3
 86393762, 0.18, 0.17, 0.15, 0.14, 0.19, 0.19, 0, 0, 3
 86493722, 0.19, 0.17, 0.16, 0.15, 0.19, 0.19, 0, 0, 3
 86593682, 0.19, 0.17, 0.16, 0.14, 0.19, 0.19, 0, 0, 3
 86693642, 0.19, 0.17, 0.17, 0.14, 0.19, 0.19, 0, 0, 3
 86794435, 0.19, 0.18, 0.17, 0.16, 0.19, 0.19, 0, 0, 3
 86894395, 0.2, 0.17, 0.17, 0.16, 0.19, 0.18, 0, 0, 3
 86994355, 0.2, 0.17, 0.18, 0.17, 0.19, 0.18, 0, 0, 3
 87094315, 0.21, 0.18, 0.18, 0.16, 0.19, 0.18, 0, 0, 3
 87194275, 0.21, 0.2, 0.18, 0.17, 0.19, 0.18, 0, 0, 3
 87294235, 0.22, 0.2, 0.18, 0.17, 0.19, 0.18, 0, 0, 3
 87394195, 0.22, 0.22, 0.18, 0.17, 0.19, 0.18, 0, 0, 3
 87494155, 0.21, 0.23, 0.18, 0.18, 0.19, 0.18, 0, 0, 3
 87594115, 0.21, 0.23, 0.19, 0.19, 0.19, 0.18, 0, 0, 3
 87694075, 0.21, 0.21, 0.19, 0.18, 0.19, 0.18, 0, 0, 3
 87794035, 0.21, 0.21, 0.2, 0.19, 0.19, 0.18, 0, 0, 3
 87893995, 0.22, 0.22, 0.21, 0.2, 0.19, 0.18, 0, 0, 3
 87993955, 0.23, 0.22, 0.21, 0.2, 0.19, 0.18, 0, 0, 3
 88093915, 0.23, 0.23, 0.22, 0.21, 0.19, 0.18, 0, 0, 3
 88193875, 0.23, 0.23, 0.22, 0.21, 0.19, 0.18, 0, 0, 3
 88293835, 0.24, 0.23, 0.23, 0.2, 0.19, 0.19, 0, 0, 3
 88393795, 0.25, 0.24, 0.23, 0.22, 0.19, 0.19, 0, 0, 3
 88493755, 0.25, 0.24, 0.24, 0.22, 0.19, 0.19, 0, 0, 3
 88593715, 0.26, 0.24, 0.25, 0.23, 0.19, 0.19, 0, 0, 3
 88693675, 0.26, 0.25, 0.26, 0.24, 0.19, 0.19, 0, 0, 3
 88793635, 0.26, 0.25, 0.26, 0.26, 0.19, 0.18, 0, 0, 3
 88894428, 0.25, 0.23, 0.26, 0.27, 0.19, 0.18, 0, 0, 3
 88994388, 0.25, 0.22, 0.25, 0.27, 0.19, 0.18, 0, 0, 3
 89094348, 0.25, 0.23, 0.25, 0.25, 0.19, 0.17, 0, 0, 3
 89194308, 0.25, 0.23, 0.24, 0.25, 0.19, 0.17, 0, 0, 3
 89294268, 0.24, 0.23, 0.24, 0.24, 0.19, 0.17, 0, 0, 3
 89394228, 0.23, 0.23, 0.23, 0.23, 0.19, 0.17, 0, 0, 3
 89494188, 0.23, 0.23, 0.22, 0.21, 0.19, 0.17, 0, 0, 3
 89594148, 0.23, 0.23, 0.22, 0.21, 0.19, 0.17, 0, 0, 3
 89694108, 0.23, 0.23, 0.21, 0.21, 0.19, 0.17, 0, 0, 3
 89794068, 0.23, 0.23, 0.21, 0.2, 0.19, 0.17, 0, 0, 3
 89894028, 0.24, 0.23, 0.21, 0.2, 0.19, 0.18, 0, 0, 3
 89993988, 0.24, 0.24, 0.2, 0.19, 0.19, 0.18, 0, 0, 3
 90093948, 0.24, 0.24, 0.2, 0.19, 0.19, 0.18, 0, 0, 3
 90193908, 0.24, 0.24, 0.2, 0.19, 0.19, 0.18, 0, 0, 3
 90293868, 0.24, 0.24, 0.2, 0.18, 0.19, 0.18, 0, 0, 3
 90393828, 0.24, 0.24, 0.2, 0.18, 0.19, 0.18, 0, 0, 3
 90493788, 0.24, 0.23, 0.2, 0.18, 0.19, 0.18, 0, 0, 3
 90593748, 0.23, 0.22, 0.19, 0.18, 0.19, 0.18, 0, 0, 3
 90693708, 0.23, 0.22, 0.19, 0.18, 0.19, 0.18, 0, 0, 3
 90793668, 0.23, 0.22, 0.19, 0.18, 0.19, 0.18, 0, 0, 3
 90893628, 0.23, 0.22, 0.19, 0.17, 0.19, 0.18, 0, 0, 3
 90994421, 0.23, 0.22, 0.19, 0.17, 0.19, 0.18, 0, 0, 3
 91094381, 0.23, 0.21, 0.19, 0.18, 0.19, 0.18, 0, 0, 3
 91194341, 0.22, 0.21, 0.19, 0.18, 0.19, 0.18, 0, 0, 3
 91294301, 0.22, 0.21, 0.19, 0.17, 0.19, 0.18, 0, 0, 3
 91394261, 0.21, 0.2, 0.18, 0.17, 0.19, 0.18, 0, 0, 3
 91494221, 0.21, 0.2, 0.19, 0.17, 0.19, 0.18, 0, 0, 3
 91594181, 0.21, 0.2, 0.18, 0.17, 0.19, 0.18, 0, 0, 3
 91694141, 0.21, 0.2, 0.18, 0.17, 0.19, 0.18, 0, 0, 3
 91794101, 0.2, 0.2, 0.18, 0.17, 0.19, 0.18, 0, 0, 3
 91894061, 0.19, 0.18, 0.18, 0.17, 0.19, 0.18, 0, 0, 3
 91994021, 0.17, 0.17, 0.18, 0.17, 0.19, 0.18, 0, 0, 3
 92093981, 0.17, 0.16, 0.18, 0.17, 0.19, 0.18, 0, 0, 3
 92193941, 0.16, 0.15, 0.18, 0.17, 0.19, 0.18, 0, 0, 3
 92293901, 0.15, 0.15, 0.18, 0.17, 0.19, 0.18, 0, 0, 3
 92393861, 0.15, 0.14, 0.18, 0.17, 0.19, 0.18, 0, 0, 3
 92493821, 0.15, 0.14, 0.18, 0.17, 0.19, 0.18, 0, 0, 3
 92593781, 0.15, 0.14, 0.18, 0.17, 0.19, 0.18, 0, 0, 3
 92693741, 0.15, 0.14, 0.18, 0.17, 0.19, 0.18, 0, 0, 3
 92793701, 0.15, 0.15, 0.18, 0.17, 0.19, 0.18, 0, 0, 3
 92893661, 0.16, 0.15, 0.18, 0.16, 0.19, 0.18, 0, 0, 3
 92993621, 0.16, 0.15, 0.18, 0.16, 0.19, 0.18, 0, 0, 3
 93094414, 0.16, 0.16, 0.18, 0.16, 0.19, 0.18, 0, 0, 3
 93194374, 0.16, 0.16, 0.18, 0.16, 0.19, 0.18, 0, 0, 3
 93294334, 0.15, 0.15, 0.17, 0.16, 0.19, 0.18, 0, 0, 3
 93394294, 0.15, 0.15, 0.17, 0.16, 0.19, 0.18, 0, 0, 3
 93494254, 0.15, 0.14, 0.17, 0.16, 0.19, 0.18, 0, 0, 3
 93594214, 0.15, 0.13, 0.17, 0.17, 0.19, 0.18, 0, 0, 3
 93694174, 0.15, 0.13, 0.17, 0.17, 0.19, 0.18, 0, 0, 3
 93794134, 0.15, 0.14, 0.17, 0.18, 0.19, 0.18, 0, 0, 3
 93894094, 0.16, 0.14, 0.17, 0.17, 0.19, 0.18, 0, 0, 3
 93994054, 0.16, 0.16, 0.17, 0.18, 0.19, 0.18, 0, 0, 3
 94094014, 0.16, 0.15, 0.16, 0.17, 0.19, 0.18, 0, 0, 3
 94193974, 0.16, 0.15, 0.16, 0.16, 0.19, 0.18, 0, 0, 3
 94293934, 0.16, 0.15, 0.15, 0.15, 0.19, 0.18, 0, 0, 3
 94393894, 0.17, 0.15, 0.14, 0.14, 0.19, 0.18, 0, 0, 3
 94493854, 0.17, 0.15, 0.13, 0.13, 0.19, 0.18, 0, 0, 3
 94593814, 0.18, 0.16, 0.12, 0.12, 0.19, 0.19, 0, 0, 3
 94693774, 0.17, 0.18, 0.11, 0.11, 0.19, 0.19, 0, 0, 3
 94793734, 0.17, 0.19, 0.11, 0.1, 0.19, 0.19, 0, 0, 3
 94893694, 0.16, 0.19, 0.1, 0.09, 0.19, 0.19, 0, 0, 3
 94993654, 0.16, 0.19, 0.1, 0.08, 0.19, 0.19, 0, 0, 3
 95093614, 0.15, 0.16, 0.1, 0.07, 0.19, 0.19, 0, 0, 3
 95194407, 0.15, 0.15, 0.1, 0.08, 0.19, 0.19, 0, 0, 3
 95294367, 0.15, 0.14, 0.11, 0.08, 0.19, 0.19, 0, 0, 3
 95394327, 0.16, 0.13, 0.12, 0.09, 0.19, 0.19, 0, 0, 3
 95494287, 0.17, 0.13, 0.12, 0.1, 0.19, 0.19, 0, 0, 3
 95594247, 0.17, 0.14, 0.13, 0.11, 0.19, 0.19, 0, 0, 3
 95694207, 0.18, 0.15, 0.13, 0.11, 0.19, 0.19, 0, 0, 3
 95794167, 0.18, 0.16, 0.13, 0.12, 0.19, 0.19, 0, 0, 3
 95894127, 0.18, 0.16, 0.13, 0.13, 0.19, 0.18, 0, 0, 3
 95994087, 0.18, 0.16, 0.13, 0.13, 0.19, 0.18, 0, 0, 3
 96094047, 0.18, 0.15, 0.13, 0.14, 0.19, 0.18, 0, 0, 3
 96194007, 0.18, 0.16, 0.13, 0.14, 0.19, 0.17, 0, 0, 3
 96293967, 0.18, 0.16, 0.13, 0.14, 0.19, 0.17, 0, 0, 3
 96393927, 0.19, 0.17, 0.13, 0.15, 0.19, 0.16, 0, 0, 3
 96493887, 0.2, 0.18, 0.13, 0.14, 0.19, 0.16, 0, 0, 3
 96593847, 0.2, 0.19, 0.13, 0.13, 0.19, 0.17, 0, 0, 3
 96693807, 0.19, 0.21, 0.13, 0.13, 0.19, 0.17, 0, 0, 3
 96793767, 0.19, 0.21, 0.12, 0.12, 0.19, 0.17, 0, 0, 3
 96893727, 0.18, 0.19, 0.13, 0.12, 0.19, 0.18, 0, 0, 3
 96993687, 0.18, 0.19, 0.13, 0.12, 0.19, 0.18, 0, 0, 3
 97093647, 0.18, 0.18, 0.13, 0.12, 0.19, 0.18, 0, 0, 3
 97193607, 0.18, 0.18, 0.13, 0.12, 0.19, 0.19, 0, 0, 3
 97294400, 0.18, 0.17, 0.13, 0.12, 0.19, 0.19, 0, 0, 3
 97394360, 0.17, 0.17, 0.13, 0.12, 0.19, 0.19, 0, 0, 3
 97494320, 0.17, 0.16, 0.14, 0.12, 0.19, 0.19, 0, 0, 3
 97594280, 0.17, 0.16, 0.14, 0.13, 0.19, 0.19, 0, 0, 3
 97694240, 0.17, 0.16, 0.14, 0.13, 0.19, 0.19, 0, 0, 3
 97794200, 0.17, 0.16, 0.14, 0.13, 0.19, 0.19, 0, 0, 3
 97894160, 0.17, 0.16, 0.14, 0.13, 0.19, 0.18, 0, 0, 3
 97994120, 0.17, 0.16, 0.14, 0.13, 0.19, 0.18, 0, 0, 3
 98094080, 0.17, 0.16, 0.14, 0.13, 0.19, 0.18, 0, 0, 3
 98194040, 0.17, 0.16, 0.14, 0.13, 0.19, 0.18, 0, 0, 3
 98294000, 0.17, 0.16, 0.14, 0.13, 0.19, 0.18, 0, 0, 3
 98393960, 0.17, 0.16, 0.14, 0.13, 0.19, 0.18, 0, 0, 3
 98493920, 0.17, 0.16, 0.14, 0.13, 0.19, 0.18, 0, 0, 3
 98593880, 0.17, 0.16, 0.14, 0.13, 0.19, 0.18, 0, 0, 3
 98693840, 0.17, 0.15, 0.14, 0.13, 0.19, 0.18, 0, 0, 3
 98793800, 0.17, 0.15, 0.14, 0.13, 0.19, 0.19, 0, 0, 3
 98893760, 0.17, 0.15, 0.14, 0.13, 0.19, 0.19, 0, 0, 3
 98993720, 0.17, 0.16, 0.14, 0.13, 0.19, 0.19, 0, 0, 3
 99093680, 0.17, 0.16, 0.13, 0.13, 0.19, 0.18, 0, 0, 3
 99193640, 0.17, 0.16, 0.13, 0.13, 0.19, 0.18, 0, 0, 3
 99294433, 0.17, 0.15, 0.13, 0.12, 0.19, 0.18, 0, 0, 3
 99394393, 0.17, 0.15, 0.13, 0.12, 0.19, 0.18, 0, 0, 3
 99494353, 0.17, 0.16, 0.13, 0.12, 0.19, 0.17, 0, 0, 3
 99594313, 0.17, 0.16, 0.14, 0.13, 0.19, 0.18, 0, 0, 3
 99694273, 0.17, 0.16, 0.15, 0.14, 0.19, 0.18, 0, 0, 3
 99794233, 0.17, 0.16, 0.16, 0.16, 0.19, 0.19, 0, 0, 3
 99894193, 0.17, 0.16, 0.17, 0.16, 0.19, 0.19, 0, 0, 3
 99994153, 0.17, 0.16, 0.17, 0.17, 0.19, 0.19, 0, 0, 3
 100094113, 0.17, 0.16, 0.18, 0.17, 0.19, 0.19, 0, 0, 3
 100194073, 0.17, 0.16, 0.18, 0.17, 0.19, 0.19, 0, 0, 3
 100294033, 0.17, 0.15, 0.18, 0.17, 0.19, 0.18, 0, 0, 3
 100393993, 0.16, 0.16, 0.18, 0.17, 0.19, 0.18, 0, 0, 3
 100493953, 0.16, 0.15, 0.18, 0.17, 0.19, 0.18, 0, 0, 3
 100593913, 0.16, 0.15, 0.18, 0.17, 0.19, 0.18, 0, 0, 3
 100693873, 0.16, 0.15, 0.18, 0.17, 0.19, 0.18, 0, 0, 3
 100793833, 0.16, 0.15, 0.18, 0.17, 0.19, 0.18, 0, 0, 3
 100893793, 0.16, 0.15, 0.18, 0.17, 0.19, 0.18, 0, 0, 3
 100993753, 0.16, 0.15, 0.18, 0.17, 0.19, 0.18, 0, 0, 3
 101093713, 0.15, 0.15, 0.17, 0.16, 0.19, 0.18, 0, 0, 3
 101193673, 0.15, 0.14, 0.17, 0.16, 0.19, 0.18, 0, 0, 3
 101293633, 0.15, 0.15, 0.17, 0.16, 0.19, 0.18, 0, 0, 3
 101394426, 0.15, 0.15, 0.16, 0.16, 0.19, 0.18, 0, 0, 3
 101494386, 0.16, 0.14, 0.16, 0.15, 0.19, 0.19, 0, 0, 3
 101594346, 0.16, 0.15, 0.15, 0.15, 0.19, 0.19, 0, 0, 3
 101694306, 0.16, 0.15, 0.15, 0.14, 0.19, 0.19, 0, 0, 3
 101794266, 0.16, 0.15, 0.15, 0.14, 0.19, 0.19, 0, 0, 3
 101894226, 0.16, 0.15, 0.15, 0.14, 0.19, 0.19, 0, 0, 3
 101994186, 0.16, 0.15, 0.14, 0.14, 0.19, 0.19, 0, 0, 3
 102094146, 0.16, 0.15, 0.14, 0.13, 0.19, 0.19, 0, 0, 3
 102194106, 0.16, 0.15, 0.14, 0.13, 0.19, 0.19, 0, 0, 3
 102294066, 0.16, 0.15, 0.14, 0.13, 0.19, 0.19, 0, 0, 3
 102394026, 0.16, 0.15, 0.14, 0.13, 0.19, 0.18, 0, 0, 3
 102493986, 0.16, 0.15, 0.14, 0.13, 0.19, 0.18, 0, 0, 3
 102593946, 0.16, 0.15, 0.14, 0.13, 0.19, 0.18, 0, 0, 3
 102693906, 0.15, 0.15, 0.13, 0.14, 0.19, 0.18, 0, 0, 3
 102793866, 0.15, 0.15, 0.13, 0.13, 0.19, 0.18, 0, 0, 3
 102893826, 0.15, 0.14, 0.13, 0.12, 0.19, 0.18, 0, 0, 3
 102993786, 0.15, 0.14, 0.12, 0.12, 0.19, 0.18, 0, 0, 3
 103093746, 0.15, 0.14, 0.11, 0.11, 0.19, 0.18, 0, 0, 3
 103193706, 0.15, 0.14, 0.1, 0.1, 0.19, 0.18, 0, 0, 3
 103293666, 0.15, 0.14, 0.09, 0.09, 0.19, 0.18, 0, 0, 3
 103393626, 0.15, 0.14, 0.09, 0.08, 0.19, 0.18, 0, 0, 3
 103494419, 0.15, 0.14, 0.08, 0.07, 0.19, 0.18, 0, 0, 3
 103594379, 0.15, 0.14, 0.08, 0.08, 0.19, 0.18, 0, 0, 3
 103694339, 0.15, 0.14, 0.08, 0.07, 0.19, 0.18, 0, 0, 3
 103794299, 0.15, 0.14, 0.08, 0.07, 0.19, 0.18, 0, 0, 3
 103894259, 0.15, 0.14, 0.08, 0.07, 0.19, 0.18, 0, 0, 3
 103994219, 0.16, 0.14, 0.08, 0.07, 0.19, 0.17, 0, 0, 3
 104094179, 0.16, 0.14, 0.08, 0.07, 0.19, 0.17, 0, 0, 3
 104194139, 0.16, 0.14, 0.08, 0.08, 0.19, 0.17, 0, 0, 3
 104294099, 0.16, 0.14, 0.09, 0.08, 0.19, 0.17, 0, 0, 3
 104394059, 0.16, 0.14, 0.09, 0.09, 0.19, 0.17, 0, 0, 3
 104494019, 0.16, 0.14, 0.1, 0.09, 0.19, 0.17, 0, 0, 3
 104593979, 0.16, 0.14, 0.1, 0.09, 0.19, 0.17, 0, 0, 3
 104693939, 0.15, 0.14, 0.11, 0.1, 0.19, 0.18, 0, 0, 3
 104793899, 0.15, 0.14, 0.11, 0.1, 0.19, 0.18, 0, 0, 3
 104893859, 0.15, 0.14, 0.11, 0.1, 0.19, 0.18, 0, 0, 3
 104993819, 0.15, 0.14, 0.11, 0.1, 0.19, 0.19, 0, 0, 3
 105093779, 0.15, 0.14, 0.12, 0.11, 0.19, 0.19, 0, 0, 3
 105193739, 0.15, 0.14, 0.12, 0.11, 0.19, 0.19, 0, 0, 3
 105293699, 0.15, 0.14, 0.12, 0.11, 0.19, 0.18, 0, 0, 3
 105393659, 0.15, 0.14, 0.12, 0.12, 0.19, 0.18, 0, 0, 3
 105493619, 0.15, 0.14, 0.12, 0.11, 0.19, 0.18, 0, 0, 3
 105594412, 0.15, 0.14, 0.12, 0.11, 0.19, 0.18, 0, 0, 3
 105694372, 0.15, 0.14, 0.12, 0.11, 0.19, 0.18, 0, 0, 3
 105794332, 0.15, 0.14, 0.12, 0.12, 0.19, 0.18, 0, 0, 3
 105894292, 0.15, 0.13, 0.12, 0.12, 0.19, 0.18, 0, 0, 3
 105994252, 0.15, 0.14, 0.12, 0.12, 0.19, 0.18, 0, 0, 3
 106094212, 0.15, 0.14, 0.12, 0.12, 0.19, 0.18, 0, 0, 3
 106194172, 0.14, 0.14, 0.11, 0.12, 0.19, 0.18, 0, 0, 3
 106294132, 0.13, 0.13, 0.11, 0.11, 0.19, 0.18, 0, 0, 3
 106394092, 0.13, 0.12, 0.11, 0.11, 0.19, 0.18, 0, 0, 3
 106494052, 0.13, 0.12, 0.11, 0.1, 0.19, 0.18, 0, 0, 3
 106594012, 0.13, 0.11, 0.11, 0.09, 0.19, 0.18, 0, 0, 3
 106693972, 0.13, 0.11, 0.11, 0.1, 0.19, 0.18, 0, 0, 3
 106793932, 0.13, 0.12, 0.11, 0.11, 0.19, 0.18, 0, 0, 3
 106893892, 0.12, 0.11, 0.11, 0.11, 0.19, 0.18, 0, 0, 3
 106993852, 0.12, 0.11, 0.11, 0.1, 0.19, 0.18, 0, 0, 3
 107093812, 0.12, 0.11, 0.11, 0.1, 0.19, 0.18, 0, 0, 3
 107193772, 0.12, 0.11, 0.12, 0.11, 0.19, 0.18, 0, 0, 3
 107293732, 0.13, 0.11, 0.12, 0.11, 0.19, 0.18, 0, 0, 3
 107393692, 0.13, 0.12, 0.12, 0.11, 0.19, 0.18, 0, 0, 3
 107493652, 0.13, 0.11, 0.12, 0.11, 0.19, 0.18, 0, 0, 3
 107593612, 0.13, 0.12, 0.12, 0.11, 0.19, 0.18, 0, 0, 3
 107694405, 0.13, 0.12, 0.12, 0.11, 0.19, 0.18, 0, 0, 3
 107794365, 0.13, 0.11, 0.12, 0.12, 0.19, 0.18, 0, 0, 3
 107894325, 0.13, 0.12, 0.12, 0.12, 0.19, 0.18, 0, 0, 3
 107994285, 0.13, 0.12, 0.12, 0.12, 0.19, 0.18, 0, 0, 3
 108094245, 0.13, 0.12, 0.11, 0.11, 0.19, 0.18, 0, 0, 3
 108194205, 0.13, 0.12, 0.11, 0.1, 0.19, 0.18, 0, 0, 3
 108294165, 0.14, 0.12, 0.12, 0.11, 0.19, 0.18, 0, 0, 3
 108394125, 0.14, 0.13, 0.12, 0.1, 0.19, 0.18, 0, 0, 3
 108494085, 0.14, 0.13, 0.12, 0.1, 0.19, 0.18, 0, 0, 3
 108594045, 0.14, 0.13, 0.12, 0.1, 0.19, 0.18, 0, 0, 3
 108694005, 0.14, 0.13, 0.11, 0.1, 0.19, 0.18, 0, 0, 3
 108793965, 0.14, 0.13, 0.11, 0.1, 0.19, 0.18, 0, 0, 3
 108893925, 0.14, 0.13, 0.11, 0.11, 0.19, 0.19, 0, 0, 3
 108993885, 0.14, 0.14, 0.11, 0.11, 0.19, 0.19, 0, 0, 3
 109093845, 0.14, 0.14, 0.11, 0.1, 0.19, 0.2, 0, 0, 3
 109193805, 0.14, 0.14, 0.11, 0.1, 0.19, 0.2, 0, 0, 3
 109293765, 0.14, 0.14, 0.11, 0.1, 0.19, 0.2, 0, 0, 3
 109393725, 0.13, 0.13, 0.11, 0.1, 0.19, 0.2, 0, 0, 3
 109493685, 0.13, 0.12, 0.11, 0.1, 0.19, 0.19, 0, 0, 3
 109593645, 0.13, 0.12, 0.11, 0.1, 0.19, 0.19, 0, 0, 3
 109693605, 0.13, 0.12, 0.12, 0.11, 0.19, 0.18, 0, 0, 3
 109794398, 0.13, 0.13, 0.13, 0.12, 0.19, 0.17, 0, 0, 3
 109894358, 0.13, 0.12, 0.14, 0.12, 0.19, 0.17, 0, 0, 3
 109994318, 0.13, 0.12, 0.15, 0.12, 0.19, 0.16, 0, 0, 3
 110094278, 0.13, 0.12, 0.16, 0.14, 0.19, 0.15, 0, 0, 3
 110194238, 0.14, 0.12, 0.17, 0.16, 0.19, 0.15, 0, 0, 3
 110294198, 0.14, 0.13, 0.17, 0.16, 0.19, 0.15, 0, 0, 3
 110394158, 0.14, 0.13, 0.18, 0.17, 0.19, 0.15, 0, 0, 3
 110494118, 0.14, 0.13, 0.18, 0.17, 0.19, 0.15, 0, 0, 3
 110594078, 0.14, 0.13, 0.18, 0.17, 0.19, 0.16, 0, 0, 3
 110694038, 0.14, 0.12, 0.18, 0.17, 0.19, 0.17, 0, 0, 3
 110793998, 0.14, 0.13, 0.18, 0.18, 0.19, 0.17, 0, 0, 3
 110893958, 0.15, 0.13, 0.18, 0.18, 0.19, 0.18, 0, 0, 3
 110993918, 0.15, 0.14, 0.17, 0.17, 0.19, 0.19, 0, 0, 3
 111093878, 0.16, 0.15, 0.16, 0.16, 0.19, 0.19, 0, 0, 3
 111193838, 0.16, 0.16, 0.16, 0.16, 0.19, 0.2, 0, 0, 3
 111293798, 0.16, 0.15, 0.16, 0.15, 0.19, 0.2, 0, 0, 3
 111393758, 0.16, 0.15, 0.15, 0.15, 0.19, 0.21, 0, 0, 3
 111493718, 0.16, 0.15, 0.15, 0.15, 0.19, 0.21, 0, 0, 3
 111593678, 0.16, 0.16, 0.14, 0.14, 0.19, 0.2, 0, 0, 3
 111693638, 0.16, 0.16, 0.13, 0.14, 0.19, 0.2, 0, 0, 3
 111794431, 0.16, 0.16, 0.13, 0.13, 0.19, 0.2, 0, 0, 3
 111894391, 0.15, 0.17, 0.13, 0.12, 0.19, 0.19, 0, 0, 3
 111994351, 0.15, 0.16, 0.12, 0.11, 0.19, 0.18, 0, 0, 3
 112094311, 0.15, 0.16, 0.12, 0.12, 0.19, 0.18, 0, 0, 3
 112194271, 0.14, 0.15, 0.12, 0.12, 0.19, 0.17, 0, 0, 3
 112294231, 0.14, 0.13, 0.12, 0.12, 0.19, 0.17, 0, 0, 3
 112394191, 0.14, 0.12, 0.12, 0.12, 0.19, 0.16, 0, 0, 3
 112494151, 0.15, 0.12, 0.12, 0.12, 0.19, 0.16, 0, 0, 3
 112594111, 0.15, 0.13, 0.12, 0.12, 0.19, 0.16, 0, 0, 3
 112694071, 0.15, 0.13, 0.11, 0.11, 0.19, 0.16, 0, 0, 3
 112794031, 0.15, 0.13, 0.1, 0.11, 0.19, 0.16, 0, 0, 3
 112893991, 0.15, 0.14, 0.09, 0.09, 0.19, 0.17, 0, 0, 3
 112993951, 0.15, 0.15, 0.08, 0.07, 0.19, 0.17, 0, 0, 3
 113093911, 0.15, 0.15, 0.07, 0.05, 0.19, 0.17, 0, 0, 3
 113193871, 0.15, 0.15, 0.07, 0.05, 0.19, 0.18, 0, 0, 3
 113293831, 0.14, 0.15, 0.07, 0.05, 0.19, 0.18, 0, 0, 3
 113393791, 0.14, 0.15, 0.07, 0.05, 0.19, 0.19, 0, 0, 3
 113493751, 0.13, 0.14, 0.07, 0.05, 0.19, 0.19, 0, 0, 3
 113593711, 0.13, 0.13, 0.07, 0.05, 0.19, 0.19, 0, 0, 3
 113693671, 0.14, 0.13, 0.07, 0.06, 0.19, 0.19, 0, 0, 3
 113793631, 0.14, 0.13, 0.08, 0.06, 0.19, 0.19, 0, 0, 3
 113894424, 0.14, 0.13, 0.08, 0.07, 0.19, 0.19, 0, 0, 3
 113994384, 0.14, 0.13, 0.08, 0.07, 0.19, 0.19, 0, 0, 3
 114094344, 0.14, 0.13, 0.09, 0.08, 0.19, 0.18, 0, 0, 3
 114194304, 0.14, 0.13, 0.09, 0.09, 0.19, 0.18, 0, 0, 3
 114294264, -0.16, -0.08, -0.74, -0.53, 0.19, 0.18, 0, 0, 3
 114394224, -0.82, -0.74, -2.54, -2.34, 0.21, 0.19, 0, 0, 3
 114494184, -1.29, -1.29, -3.84, -3.83, 0.23, 0.22, 0, 0, 3
 114594144, -1.58, -1.62, -4.65, -4.73, 0.25, 0.24, 0, 0, 3
 114694104, -1.73, -1.83, -5.23, -5.31, 359.76, 0.25, 0, 0, 3
 114794064, -1.58, -1.96, -5.77, -5.75, 356.76, 0.17, 0, 0, 3
 114894024, -1.08, -2.03, -6.3, -6.13, 351.24, 359.66, 0, 0, 3
 114993984, -0.54, -1.98, -6.72, -6.5, 346.1, 358.26, 0, 0, 3
 115093944, -0.21, -1.75, -7.03, -6.85, 343.35, 355.81, 0, 0, 3
 115193904, -0.03, -1.4, -7.28, -7.17, 341.98, 352.61, 0, 0, 3
 115293864, 0.07, -0.94, -7.48, -7.44, 341.3, 348.92, 0, 0.01, 3
 115393824, 0.13, -0.42, -7.65, -7.66, 340.98, 345.04, 0, 0.01, 3
 115493784, 0.18, 0.11, -7.78, -7.8, 340.85, 341.17, 0, 0.02, 3
 115593744, 0.21, 0.63, -7.9, -7.89, 340.81, 337.61, 0, 0.02, 3
 115693704, 0.23, 1.09, -7.99, -7.93, 340.82, 334.52, 0, 0.02, 3
 115793664, 0.25, 1.46, -8.07, -7.95, 340.86, 332.11, 0, 0.02, 3
 115893624, 0.26, 1.71, -8.15, -7.97, 340.91, 330.43, 0, 0.02, 3
 115994417, 0.26, 1.87, -8.2, -7.99, 340.97, 329.53, 0, 0.02, 3
 116094377, 0.26, 1.91, -8.24, -8.02, 341.03, 329.35, 0, 0.01, 3
 116194337, 0.26, 1.86, -8.33, -8.11, 341.1, 329.86, 0, 0.01, 3
 116294297, 0.25, 1.73, -8.42, -8.24, 341.18, 330.94, 0, 0.01, 3
 116394257, 0.24, 1.53, -8.53, -8.38, 341.25, 332.5, 0, 0.01, 3
 116494217, 0.24, 1.27, -8.64, -8.54, 341.33, 334.43, 0, 0.01, 3
 116594177, 0.24, 0.96, -8.76, -8.7, 341.41, 336.62, 0, 0.01, 3
 116694137, 0.25, 0.64, -8.91, -8.88, 341.5, 338.91, 0, 0.02, 3
 116794097, 0.26, 0.33, -9.09, -9.08, 341.59, 341.17, 0, 0.02, 3
 116894057, 0.29, 0.03, -9.26, -9.27, 341.68, 343.27, 0, 0.02, 3
 116994017, 0.33, -0.22, -9.45, -9.45, 341.77, 345.12, 0, 0.02, 3
 117093977, 0.37, -0.42, -9.65, -9.65, 341.87, 346.59, 0, 0.02, 3
 117193937, 0.42, -0.55, -9.85, -9.85, 341.97, 347.67, 0, 0.02, 3
 117293897, 0.48, -0.62, -10.08, -10.05, 342.08, 348.3, 0, 0.02, 3
 117393857, 0.52, -0.61, -10.34, -10.32, 342.19, 348.5, 0, 0.01, 3
 117493817, 0.57, -0.53, -10.61, -10.61, 342.31, 348.29, 0, 0.01, 3
 117593777, 0.62, -0.38, -10.89, -10.9, 342.43, 347.74, 0, 0.01, 3
 117693737, 0.67, -0.18, -11.18, -11.21, 342.57, 346.91, 0, 0.01, 3
 117793697, 0.71, 0.06, -11.48, -11.5, 342.71, 345.89, 0, 0, 3
 117893657, 0.75, 0.35, -11.79, -11.81, 342.86, 344.76, 0, 0, 3
 117993617, 0.78, 0.64, -12.13, -12.13, 343.01, 343.63, 0, 0, 3
 118094410, 0.82, 0.94, -12.4, -12.42, 343.18, 342.55, 0, 0, 3
 118194370, 0.84, 1.22, -12.72, -12.69, 343.37, 341.63, 0, 0, 3
 118294330, 0.88, 1.47, -13.07, -13.03, 343.56, 340.91, 0, 0, 3
 118394290, 0.91, 1.68, -13.42, -13.36, 343.77, 340.43, 0, 0, 3
 118494250, 0.95, 1.84, -13.76, -13.69, 343.99, 340.22, 0, 0, 3
 118594210, 1, 1.94, -14.11, -14.02, 344.23, 340.28, 0, 0, 3
 118694170, 1.07, 2.01, -14.46, -14.37, 344.48, 340.6, 0, 0, 3
 118794130, 1.15, 2.05, -14.82, -14.72, 344.76, 341.17, 0, 0, 3
 118894090, 1.27, 2.07, -14.98, -15.03, 345.06, 341.93, 0, 0, 3
 118994050, 1.38, 1.92, -12.49, -12.91, 345.42, 342.94, 0, 0, 3
 119094010, 1.49, 1.78, -9.84, -10.05, 345.81, 344.05, 0, 0, 3
 119193970, 1.61, 1.74, -8.12, -8.07, 346.22, 345.18, 0, 0, 3
 119293930, 1.75, 1.78, -6.92, -6.78, 346.65, 346.29, 0, 0, 3
 119393890, 1.89, 1.86, -5.96, -5.82, 347.1, 347.35, 0, 0, 3
 119493850, 2.05, 1.99, -5.05, -4.97, 347.59, 348.33, 0.01, 0, 3
 119593810, 2.22, 2.13, -4.19, -4.15, 348.11, 349.23, 0.01, 0, 3
 119693770, 2.4, 2.31, -3.37, -3.37, 348.67, 350.03, 0.01, 0, 3
 119793730, 2.58, 2.51, -2.61, -2.62, 349.28, 350.72, 0.01, 0, 3
 119893690, 2.78, 2.72, -1.9, -1.93, 349.94, 351.32, 0.01, 0, 3
 119993650, 2.99, 2.95, -1.26, -1.29, 350.65, 351.84, 0.01, 0, 3
 120093610, 3.22, 3.2, -0.7, -0.72, 351.43, 352.3, 0, 0, 3
 120194403, 3.46, 3.45, -0.15, -0.16, 352.29, 352.74, 0, 0, 3
 120294363, 3.73, 3.72, 0.28, 0.3, 353.25, 353.19, 0, 0, 3
 120394323, 4.04, 4.03, 0.63, 0.69, 354.31, 353.69, 0, 0, 3
 120494283, 4.39, 4.37, 0.94, 1.04, 355.5, 354.28, 0, 0, 3
 120594243, 4.8, 4.75, 1.2, 1.36, 356.85, 355, 0, 0, 3
 120694203, 5.28, 5.2, 1.41, 1.63, 358.4, 355.9, 0, 0, 3
 120794163, 5.87, 5.75, 1.56, 1.88, 0.21, 357.02, 0, 0, 3
 120894123, 6.58, 6.4, 1.87, 2.26, 2.35, 358.41, 0, 0, 3
 120994083, 7.45, 7.2, 2.28, 2.84, 4.93, 0.15, 0, 0, 3
 121094043, 8.53, 8.18, 2.55, 3.36, 8.05, 2.29, 0, 0, 3
 121194003, 9.89, 9.42, 2.66, 3.82, 11.91, 4.89, 0, 0, 3
 121293963, 11.61, 11.01, 2.61, 4.29, 16.71, 8.12, 0, 0, 3
 121393923, 13.73, 12.98, 2.43, 4.84, 22.56, 12.07, 0, 0, 3
 121493883, 16.19, 15.29, 2.37, 5.56, 28.76, 16.96, 0, 0, 3
 121593843, 18.6, 17.64, 2.64, 6.47, 35.14, 22.87, 0, 0, 3
 121693803, 20.29, 19.36, 3.23, 7.39, 41.73, 29.74, 0.01, 0.01, 3
 121793763, 20.59, 19.82, 3.82, 7.86, 48.37, 37.29, 0.01, 0.01, 3
 121893723, 19.46, 18.89, 4.06, 7.55, 54.87, 45.19, 0.01, 0.02, 3
 121993683, 17.46, 17.06, 3.86, 6.51, 61.14, 53.27, 0.01, 0.03, 3
 122093643, 15.52, 15.14, 3, 4.93, 67.16, 61.48, 0.02, 0.04, 3
 122193603, 15.23, 14.91, -0.18, 1.21, 72.51, 69.25, 0.02, 0.05, 3
 122294396, 14.1, 14.09, -3.4, -2.91, 77.87, 76.99, 0.02, 0.04, 3
 122394356, 12.04, 11.92, -5.85, -6.15, 83.48, 84.82, 0.02, 0.04, 3
 122494316, 10.03, 9.51, -7.43, -8.18, 89.32, 92.71, 0.02, 0.04, 3
 122594276, 8.15, 7.26, -8.53, -9.38, 95.28, 100.41, 0.02, 0.04, 3
 122694236, 6.42, 5.11, -9.27, -10.12, 100.54, 107.75, 0.03, 0.04, 3
 122794196, 5.09, 3.11, -9.66, -10.52, 103.66, 114.51, 0.03, 0.04, 3
 122894156, 4.06, 1.32, -9.9, -10.65, 105.48, 120.39, 0.02, 0.04, 3
 122994116, 3.23, -0.16, -10.09, -10.62, 106.65, 125.11, 0.02, 0.04, 3
 123094076, 2.56, -1.33, -10.26, -10.5, 107.48, 128.65, 0.02, 0.04, 3
 123194036, 2.01, -2.19, -10.4, -10.38, 108.15, 130.96, 0.02, 0.03, 3
 123293996, 1.56, -2.76, -10.56, -10.32, 108.75, 132.12, 0.02, 0.03, 3
 123393956, 1.2, -3.07, -10.73, -10.36, 109.31, 132.22, 0.02, 0.02, 3
 123493916, 0.91, -3.15, -10.92, -10.49, 109.86, 131.4, 0.01, 0.02, 3
 123593876, 0.7, -3.03, -11.15, -10.75, 110.42, 129.78, 0.01, 0.02, 3
 123693836, 0.56, -2.7, -11.41, -11.09, 110.98, 127.53, 0.01, 0.01, 3
 123793796, 0.49, -2.19, -11.7, -11.49, 111.56, 124.78, 0.01, 0.02, 3
 123893756, 0.46, -1.52, -12, -11.91, 112.16, 121.69, 0.01, 0.02, 3
 123993716, 0.47, -0.74, -12.32, -12.3, 112.78, 118.43, 0.01, 0.02, 3
 124093676, 0.52, 0.13, -12.65, -12.66, 113.43, 115.16, 0.01, 0.02, 3
 124193636, 0.6, 1.03, -12.99, -12.98, 114.1, 112.12, 0.01, 0.02, 3
 124294429, 0.72, 1.93, -13.35, -13.25, 114.8, 109.5, 0.01, 0.02, 3
 124394389, 0.87, 2.74, -13.6, -13.38, 115.53, 107.51, 0.01, 0.02, 3
 124494349, 1.07, 3.46, -13.95, -13.57, 116.28, 106.24, 0, 0.02, 3
 124594309, 1.31, 4.05, -14.3, -13.79, 117.07, 105.75, 0, 0.01, 3
 124694269, 1.59, 4.53, -14.66, -14.04, 117.9, 106.01, 0, 0.01, 3
 124794229, 1.91, 4.89, -15.01, -14.34, 118.75, 106.99, 0, 0.01, 3
 124894189, 2.27, 5.14, -15.39, -14.7, 119.65, 108.6, 0, 0.01, 3
 124994149, 2.67, 5.28, -15.77, -15.11, 120.59, 110.77, 0, 0.01, 3
 125094109, 3.11, 5.35, -16.2, -15.6, 121.57, 113.35, 0, 0.01, 3
 125194069, 3.61, 5.36, -16.61, -16.13, 122.6, 116.3, 0, 0.01, 3
 125294029, 4.16, 5.35, -17.01, -16.67, 123.67, 119.48, 0, 0.01, 3
 125393989, 4.74, 5.31, -16.64, -16.72, 124.83, 122.79, 0, 0.01, 3
 125493949, 5.29, 5.26, -14.21, -14.58, 126.15, 126.25, 0, 0.02, 3
 125593909, 5.82, 5.4, -12.3, -12.59, 127.5, 129.45, 0, 0.02, 3
 125693869, 6.31, 5.64, -11.19, -11.46, 128.85, 132.27, 0.01, 0.03, 3
 125793829, 6.76, 5.95, -10.46, -10.82, 130.22, 134.69, 0.01, 0.03, 3
 125893789, 7.19, 6.31, -9.85, -10.33, 131.61, 136.73, 0.01, 0.03, 3
 125993749, 7.58, 6.71, -9.3, -9.88, 133.03, 138.38, 0.01, 0.03, 3
 126093709, 7.94, 7.14, -8.8, -9.42, 134.48, 139.68, 0.01, 0.03, 3
 126193669, 8.25, 7.56, -8.37, -8.98, 135.94, 140.66, 0.01, 0.03, 3
 126293629, 8.52, 7.97, -8.02, -8.55, 137.43, 141.38, 0.01, 0.02, 3
 126394422, 8.73, 8.35, -7.73, -8.15, 138.93, 141.92, 0.01, 0.02, 3
 126494382, 8.88, 8.66, -7.47, -7.74, 140.46, 142.35, 0.01, 0.02, 3
 126594342, 9.01, 8.94, -7.35, -7.44, 141.99, 142.74, 0.01, 0.02, 3
 126694302, 9.09, 9.16, -7.29, -7.21, 143.54, 143.18, 0, 0.02, 3
 126794262, 9.14, 9.33, -7.28, -7.04, 145.09, 143.72, 0, 0.01, 3
 126894222, 9.15, 9.44, -7.31, -6.93, 146.67, 144.44, 0, 0.01, 3
 126994182, 9.14, 9.5, -7.38, -6.9, 148.25, 145.36, 0, 0.01, 3
 127094142, 9.1, 9.52, -7.5, -6.93, 149.83, 146.52, 0, 0.01, 3
 127194102, 9.05, 9.5, -7.68, -7.08, 151.43, 147.89, 0, 0.01, 3
 127294062, 8.98, 9.44, -7.87, -7.29, 153.03, 149.52, 0, 0.01, 3
 127394022, 8.89, 9.34, -8.09, -7.54, 154.63, 151.36, 0, 0.01, 3
 127493982, 8.8, 9.2, -8.33, -7.87, 156.24, 153.39, 0, 0.01, 3
 127593942, 8.69, 9.02, -8.58, -8.22, 157.85, 155.57, 0, 0.01, 3
 127693902, 8.58, 8.83, -8.87, -8.62, 159.46, 157.83, 0, 0.01, 3
 127793862, 8.48, 8.63, -9.21, -9.07, 161.06, 160.14, 0, 0.01, 3
 127893822, 8.38, 8.42, -9.55, -9.53, 162.66, 162.44, 0, 0.01, 3
 127993782, 8.28, 8.2, -9.91, -9.98, 164.25, 164.7, 0, 0.01, 3
 128093742, 8.18, 7.98, -10.28, -10.43, 165.83, 166.88, 0, 0.01, 3
 128193702, 8.08, 7.78, -10.68, -10.89, 167.41, 168.94, 0, 0.01, 3
 128293662, 8, 7.61, -11.1, -11.35, 168.97, 170.87, 0, 0.01, 3
 128393622, 7.92, 7.46, -11.54, -11.82, 170.51, 172.64, 0, 0.01, 3
 128494415, 7.83, 7.34, -11.96, -12.26, 172.05, 174.28, 0, 0.01, 3
 128594375, 7.74, 7.24, -12.38, -12.66, 173.57, 175.77, 0, 0.01, 3
 128694335, 7.68, 7.2, -12.91, -13.15, 175.07, 177.11, 0, 0.01, 3
 128794295, 7.61, 7.17, -13.45, -13.66, 176.55, 178.34, 0, 0.01, 3
 128894255, 7.55, 7.18, -14, -14.17, 178, 179.48, 0, 0.01, 3
 128994215, 7.49, 7.2, -14.55, -14.68, 179.44, 180.56, 0, 0.01, 3
 129094175, 7.42, 7.23, -15.1, -15.18, 180.86, 181.6, 0, 0.01, 3
 129194135, 7.36, 7.27, -15.66, -15.69, 182.26, 182.62, 0, 0.01, 3
 129294095, 7.31, 7.3, -16.26, -16.25, 183.63, 183.66, 0, 0.01, 3
 129394055, 7.25, 7.32, -16.82, -16.8, 184.98, 184.72, 0, 0.01, 3
 129494015, 7.21, 7.33, -17.38, -17.34, 186.3, 185.84, 0, 0.01, 3
 129593975, 6.53, 6.85, -17.94, -17.88, 187.47, 187, 0, 0.01, 3
 129693935, 5.1, 5.32, -18.7, -18.65, 188.34, 188.2, 0, 0.01, 3
 129793895, 4.11, 4, -19.38, -19.4, 188.95, 189.39, 0, 0, 3
 129893855, 3.56, 3.12, -19.95, -20.02, 189.41, 190.54, 0, 0, 3
 129993815, 3.23, 2.54, -20.45, -20.54, 189.8, 191.58, 0, 0, 3
 130093775, 3, 2.14, -20.91, -21.01, 190.17, 192.45, 0, 0, 3
 130193735, 2.85, 1.86, -21.34, -21.46, 190.55, 193.14, 0, 0, 3
 130293695, 2.75, 1.71, -21.77, -21.86, 190.94, 193.63, 0, 0, 3
 130393655, 2.71, 1.7, -22.18, -22.25, 191.35, 193.95, 0, 0, 3
 130493615, 2.74, 1.82, -22.61, -22.66, 191.79, 194.1, 0, 0, 3
 130594408, 2.82, 2.07, -22.91, -23, 192.25, 194.13, 0, 0, 3
 130694368, 2.96, 2.41, -23.26, -23.31, 192.75, 194.06, 0, 0, 3
 130794328, 3.16, 2.86, -23.65, -23.68, 193.28, 193.96, 0, 0, 3
 130894288, 3.44, 3.4, -24.03, -24.03, 193.85, 193.86, 0, 0, 3
 130994248, 3.78, 4.01, -24.39, -24.35, 194.47, 193.81, 0, 0, 3
 131094208, 4.19, 4.68, -24.75, -24.65, 195.13, 193.86, 0, 0, 3
 131194168, 4.67, 5.36, -24.17, -24.33, 195.89, 194.1, 0, 0, 3
 131294128, 5.15, 5.88, -21.25, -21.55, 196.84, 194.75, 0, 0, 3
 131394088, 5.62, 6.35, -18.87, -18.86, 197.85, 195.57, 0, 0, 3
 131494048, 6.09, 6.81, -17.32, -17.04, 198.89, 196.45, 0.01, 0, 3
 131594008, 6.58, 7.29, -16.17, -15.79, 199.99, 197.44, 0.01, 0, 3
 131693968, 7.11, 7.78, -15.12, -14.72, 201.15, 198.59, 0.01, 0, 3
 131793928, 7.65, 8.25, -14.06, -13.67, 202.39, 199.9, 0.01, 0.01, 3
 131893888, 8.22, 8.74, -13.06, -12.68, 203.69, 201.36, 0.01, 0.01, 3
 131993848, 8.81, 9.25, -12.12, -11.75, 205.07, 202.95, 0.01, 0.01, 3
 132093808, 9.39, 9.76, -11.21, -10.87, 206.53, 204.65, 0.01, 0.01, 3
 132193768, 9.97, 10.27, -10.36, -10.04, 208.06, 206.45, 0.01, 0.01, 3
 132293728, 10.53, 10.76, -9.56, -9.28, 209.66, 208.32, 0.01, 0.01, 3
 132393688, 11.07, 11.24, -8.81, -8.57, 211.34, 210.25, 0.01, 0.01, 3
 132493648, 11.57, 11.71, -8.11, -7.9, 213.08, 212.23, 0.01, 0.01, 3
 132593608, 12.04, 12.14, -7.48, -7.31, 214.88, 214.23, 0.01, 0.01, 3
 132694401, 12.41, 12.5, -6.8, -6.68, 216.76, 216.29, 0.01, 0.01, 3
 132794361, 12.74, 12.82, -6.23, -6.13, 218.68, 218.34, 0.01, 0.01, 3
 132894321, 13.01, 13.08, -5.73, -5.64, 220.64, 220.39, 0.01, 0.01, 3
 132994281, 13.2, 13.26, -5.25, -5.18, 222.63, 222.45, 0.01, 0.01, 3
 133094241, 13.31, 13.37, -4.79, -4.74, 224.65, 224.5, 0.01, 0.01, 3
 133194201, 13.33, 13.38, -4.34, -4.3, 226.69, 226.57, 0.01, 0.01, 3
 133294161, 13.28, 13.31, -3.91, -3.88, 228.74, 228.64, 0.01, 0.01, 3
 133394121, 13.15, 13.18, -3.49, -3.47, 230.78, 230.69, 0.01, 0.01, 3
 133494081, 12.95, 12.99, -3.09, -3.08, 232.81, 232.76, 0.01, 0.01, 3
 133594041, 12.65, 12.68, -2.67, -2.68, 234.81, 234.82, 0.01, 0.01, 3
 133694001, 12.28, 12.31, -2.26, -2.28, 236.77, 236.87, 0.01, 0.01, 3
 133793961, 11.85, 11.87, -1.84, -1.88, 238.7, 238.92, 0.01, 0.01, 3
 133893921, 11.37, 11.37, -1.71, -1.65, 240.54, 240.89, 0.01, 0.01, 3
 133993881, 10.93, 10.91, -3.34, -3.1, 242.17, 242.5, 0.01, 0.01, 3
 134093841, 10.51, 10.47, -4.92, -4.83, 243.79, 244.05, 0.01, 0.01, 3
 134193801, 10.12, 10.07, -6.02, -6.08, 245.45, 245.69, 0.01, 0.01, 3
 134293761, 9.74, 9.68, -6.87, -6.99, 247.12, 247.38, 0.01, 0.01, 3
 134393721, 9.37, 9.3, -7.66, -7.77, 248.78, 249.09, 0.01, 0.01, 3
 134493681, 9, 8.92, -8.45, -8.56, 250.43, 250.79, 0.01, 0.01, 3
 134593641, 8.64, 8.56, -9.26, -9.35, 252.07, 252.46, 0.01, 0.01, 3
 134694434, 8.31, 8.21, -10.11, -10.2, 253.69, 254.12, 0.01, 0.01, 3
 134794394, 7.95, 7.84, -10.85, -10.94, 255.3, 255.77, 0.01, 0.01, 3
 134894354, 7.66, 7.52, -11.66, -11.74, 256.88, 257.38, 0.01, 0.01, 3
 134994314, 7.39, 7.25, -12.49, -12.57, 258.44, 258.97, 0.01, 0.01, 3
 135094274, 7.14, 7, -13.31, -13.39, 259.97, 260.53, 0.01, 0.01, 3
 135194234, 6.92, 6.76, -14.13, -14.21, 261.47, 262.06, 0.01, 0.01, 3
 135294194, 6.71, 6.54, -14.94, -15.02, 262.95, 263.57, 0.01, 0.01, 3
 135394154, 6.54, 6.34, -15.75, -15.83, 264.39, 265.04, 0.01, 0.01, 3
 135494114, 6.4, 6.19, -16.58, -16.65, 265.8, 266.47, 0.01, 0.01, 3
 135594074, 6.29, 6.06, -17.39, -17.47, 267.18, 267.87, 0.01, 0.01, 3
 135694034, 6.18, 5.95, -18.1, -18.2, 268.53, 269.25, 0.01, 0.01, 3
 135793994, 6.1, 5.86, -18.73, -18.83, 269.84, 270.59, 0.01, 0.01, 3
 135893954, 6.03, 5.78, -19.28, -19.39, 271.12, 271.91, 0.01, 0.01, 3
 135993914, 5.98, 5.71, -19.78, -19.88, 272.36, 273.18, 0.01, 0.01, 3
 136093874, 5.95, 5.65, -20.29, -20.38, 273.56, 274.39, 0, 0.01, 3
 136193834, 5.92, 5.62, -20.76, -20.85, 274.72, 275.56, 0, 0.01, 3
 136293794, 5.9, 5.6, -21.21, -21.29, 275.85, 276.69, 0, 0.01, 3
 136393754, 5.83, 5.56, -21.58, -21.68, 276.92, 277.76, 0, 0.01, 3
 136493714, 4.79, 4.62, -21.89, -21.97, 277.85, 278.8, 0, 0.01, 3
 136593674, 3.76, 3.4, -22.33, -22.38, 278.54, 279.76, 0, 0, 3
 136693634, 3.23, 2.61, -22.74, -22.79, 279.04, 280.63, 0, 0, 3
 136794427, 3.03, 2.22, -23.13, -23.21, 279.44, 281.38, 0, 0, 3
 136894387, 3, 2.09, -23.4, -23.48, 279.83, 281.98, 0, 0, 3
 136994347, 3.08, 2.14, -23.82, -23.89, 280.23, 282.42, 0, 0, 3
 137094307, 3.23, 2.34, -24.24, -24.31, 280.65, 282.71, 0, 0, 3
 137194267, 3.48, 2.69, -24.63, -24.71, 281.12, 282.88, 0, 0, 3
 137294227, 3.8, 3.19, -24.99, -25.07, 281.64, 282.95, 0, 0, 3
 137394187, 4.22, 3.83, -25.34, -25.4, 282.22, 282.98, 0, 0, 3
 137494147, 4.73, 4.61, -25.28, -25.46, 282.88, 283.01, 0, 0, 3
 137594107, 5.28, 5.38, -22.64, -23.09, 283.75, 283.32, 0, 0, 3
 137694067, 5.82, 6.12, -20.06, -20.23, 284.74, 283.78, 0, 0.01, 3
 137794027, 6.37, 6.84, -18.37, -18.22, 285.78, 284.26, 0, 0.01, 3
 137893987, 6.95, 7.54, -17.17, -16.84, 286.9, 284.83, 0.01, 0.01, 3
 137993947, 7.54, 8.25, -16.1, -15.68, 288.1, 285.57, 0.01, 0.01, 3
 138093907, 8.16, 8.92, -15.07, -14.59, 289.41, 286.51, 0.01, 0.01, 3
 138193867, 8.8, 9.56, -14.07, -13.54, 290.8, 287.66, 0.01, 0.01, 3
 138293827, 9.45, 10.18, -13.11, -12.53, 292.29, 289.04, 0.01, 0.01, 3
 138393787, 10.1, 10.77, -12.18, -11.57, 293.87, 290.64, 0.01, 0.01, 3
 138493747, 10.72, 11.32, -11.31, -10.7, 295.53, 292.44, 0.01, 0.01, 3
 138593707, 11.31, 11.84, -10.5, -9.9, 297.27, 294.41, 0.01, 0.01, 3
 138693667, 11.84, 12.29, -9.74, -9.18, 299.07, 296.55, 0.01, 0.01, 3
 138793627, 12.31, 12.67, -9.04, -8.53, 300.92, 298.81, 0.01, 0.01, 3
 138894420, 12.71, 12.99, -8.36, -7.96, 302.82, 301.18, 0.01, 0, 3
 138994380, 13.01, 13.2, -7.68, -7.38, 304.75, 303.6, 0.01, 0, 3
 139094340, 13.26, 13.37, -7.12, -6.94, 306.68, 306.03, 0.01, 0, 3
 139194300, 13.4, 13.46, -6.6, -6.53, 308.62, 308.45, 0.01, 0, 3
 139294260, 13.44, 13.45, -6.08, -6.13, 310.54, 310.83, 0.01, 0, 3
 139394220, 13.37, 13.34, -5.58, -5.73, 312.43, 313.15, 0.01, 0, 3
 139494180, 13.2, 13.14, -5.08, -5.33, 314.29, 315.38, 0.01, 0, 3
 139594140, 12.94, 12.87, -4.59, -4.91, 316.1, 317.51, 0.01, 0, 3
 139694100, 12.6, 12.52, -4.13, -4.5, 317.86, 319.49, 0.01, 0, 3
 139794060, 12.17, 12.08, -3.67, -4.05, 319.55, 321.37, 0.01, 0, 3
 139894020, 11.74, 11.59, -5.19, -5.17, 320.97, 322.77, 0.01, 0, 3
 139993980, 11.33, 11.12, -7.49, -7.51, 322.28, 323.83, 0.01, 0, 3
 140093940, 10.91, 10.68, -9.16, -9.37, 323.64, 324.93, 0.01, 0, 3
 140193900, 10.51, 10.29, -10.44, -10.69, 325.02, 326.08, 0.01, 0, 3
 140293860, 10.12, 9.91, -11.61, -11.83, 326.39, 327.23, 0.01, 0, 3
 140393820, 9.72, 9.56, -12.77, -12.94, 327.75, 328.37, 0.01, 0, 3
 140493780, 9.32, 9.2, -13.95, -14.07, 329.08, 329.49, 0.01, 0, 3
 140593740, 8.92, 8.84, -15.15, -15.21, 330.39, 330.62, 0.01, 0, 3
 140693700, 8.53, 8.49, -16.25, -16.3, 331.69, 331.77, 0.01, 0, 3
 140793660, 8.16, 8.14, -17.22, -17.27, 332.97, 332.96, 0.01, 0, 3
 140893620, 7.8, 7.79, -18.12, -18.15, 334.22, 334.19, 0.01, 0, 3
 140994413, 7.43, 7.43, -18.87, -18.93, 335.45, 335.46, 0.01, 0, 3
 141094373, 7.08, 7.05, -19.57, -19.61, 336.65, 336.74, 0.01, 0, 3
 141194333, 6.76, 6.67, -20.3, -20.33, 337.81, 338.01, 0.01, 0, 3
 141294293, 6.46, 6.32, -20.97, -21.02, 338.92, 339.28, 0.01, 0, 3
 141394253, 6.18, 5.97, -21.57, -21.65, 340, 340.52, 0.01, 0, 3
 141494213, 5.92, 5.63, -22.12, -22.2, 341.04, 341.74, 0.01, 0, 3
 141594173, 5.69, 5.33, -22.64, -22.72, 342.03, 342.9, 0.01, 0, 3
 141694133, 5.48, 5.06, -23.12, -23.2, 342.98, 343.99, 0.01, 0, 3
 141794093, 5.3, 4.83, -23.62, -23.71, 343.88, 345.02, 0.01, 0, 3
 141894053, 5.13, 4.63, -24.04, -24.14, 344.74, 345.98, 0, 0, 3
 141994013, 4.98, 4.45, -24.44, -24.55, 345.57, 346.85, 0, 0, 3
 142093973, 4.84, 4.3, -24.83, -24.93, 346.35, 347.63, 0, 0, 3
 142193933, 4.71, 4.18, -25.16, -25.26, 347.1, 348.35, 0, 0, 3
 142293893, 4.59, 4.09, -25.54, -25.62, 347.82, 348.98, 0, 0, 3
 142393853, 4.48, 4.02, -25.92, -25.97, 348.49, 349.54, 0, 0, 3
 142493813, 4.39, 3.98, -26.28, -26.33, 349.14, 350.04, 0, 0, 3
 142593773, 4.3, 3.97, -26.63, -26.67, 349.75, 350.5, 0, 0, 3
 142693733, 4.22, 3.95, -26.98, -27, 350.33, 350.92, 0, 0, 3
 142793693, 4.13, 3.94, -27.32, -27.33, 350.89, 351.32, 0, 0, 3
 142893653, 4.04, 3.92, -27.66, -27.66, 351.43, 351.71, 0, 0, 3
 142993613, 3.96, 3.9, -28.04, -28.01, 351.93, 352.08, 0, 0, 3
 143094406, 3.87, 3.85, -28.27, -28.28, 352.42, 352.47, 0, 0, 3
 143194366, 3.79, 3.8, -28.59, -28.58, 352.88, 352.86, 0, 0, 3
 143294326, 3.73, 3.75, -28.97, -28.95, 353.32, 353.24, 0, 0, 3
 143394286, 3.66, 3.7, -29.33, -29.31, 353.73, 353.64, 0, 0, 3
 143494246, 3.36, 3.48, -29.46, -29.49, 354.15, 354.06, 0, 0, 3
 143594206, 2.08, 2.31, -29.7, -29.69, 354.57, 354.48, 0, 0, 3
 143694166, 1.02, 1.06, -29.85, -29.85, 354.8, 354.91, 0, 0, 3
 143794126, 0.37, 0.16, -29.92, -29.94, 354.85, 355.31, 0, 0, 3
 143894086, -0.02, -0.46, -29.95, -29.98, 354.81, 355.65, 0, 0, 3
 143994046, -0.29, -0.9, -29.97, -29.98, 354.73, 355.9, 0, 0, 3
 144094006, -0.48, -1.22, -29.98, -29.97, 354.64, 356.05, 0, 0, 3
 144193966, -0.62, -1.41, -29.98, -29.97, 354.55, 356.07, 0, 0, 3
 144293926, -0.68, -1.46, -29.98, -29.97, 354.47, 355.98, 0, 0, 3
 144393886, -0.67, -1.4, -29.99, -29.98, 354.4, 355.78, 0, 0, 3
 144493846, -0.57, -1.2, -29.99, -29.98, 354.34, 355.5, 0, 0, 3
 144593806, -0.4, -0.87, -29.99, -29.99, 354.31, 355.16, 0, 0, 3
 144693766, -0.14, -0.42, -29.99, -29.99, 354.3, 354.78, 0, 0.01, 3
 144793726, 0.21, 0.13, -29.92, -29.94, 354.33, 354.4, 0, 0.01, 3
 144893686, 0.68, 0.79, -29.82, -29.84, 354.4, 354.05, 0, 0.01, 3
 144993646, 1.25, 1.56, -29.7, -29.71, 354.52, 353.76, 0, 0.01, 3
 145093606, 1.95, 2.44, -29.63, -29.6, 354.7, 353.56, 0, 0.01, 3
 145194399, 2.79, 3.43, -29.38, -29.33, 354.95, 353.47, 0, 0.01, 3
 145294359, 3.79, 4.53, -28.34, -28.43, 355.31, 353.56, 0, 0.01, 3
 145394319, 4.93, 5.7, -26.76, -26.78, 355.81, 353.88, 0, 0.01, 3
 145494279, 6.19, 7, -25.55, -25.4, 356.45, 354.35, 0, 0.01, 3
 145594239, 7.57, 8.42, -24.64, -24.35, 357.22, 354.94, 0, 0.01, 3
 145694199, 9.11, 9.99, -23.85, -23.47, 358.15, 355.7, 0.01, 0.01, 3
 145794159, 10.78, 11.71, -23.1, -22.62, 359.26, 356.65, 0.01, 0.01, 3
 145894119, 12.57, 13.51, -22.37, -21.78, 0.57, 357.81, 0.01, 0.01, 3
 145994079, 14.44, 15.41, -21.66, -20.98, 2.09, 359.2, 0.01, 0.01, 3
 146094039, 16.34, 17.33, -20.97, -20.16, 3.86, 0.83, 0.01, 0.01, 3
 146193999, 18.21, 19.23, -20.33, -19.37, 5.85, 2.72, 0.01, 0.01, 3
 146293959, 20.01, 21.06, -19.75, -18.65, 8.07, 4.88, 0.01, 0.01, 3
 146393919, 21.66, 22.72, -19.22, -18.01, 10.51, 7.28, 0.01, 0.01, 3
 146493879, 23.11, 24.11, -18.3, -17.11, 13.23, 10.09, 0.01, 0.01, 3
 146593839, 24.29, 25.2, -17.12, -15.96, 16.18, 13.29, 0.01, 0, 3
 146693799, 25.17, 25.97, -16.05, -14.92, 19.23, 16.67, 0.01, 0, 3
 146793759, 25.74, 26.45, -15.32, -14.22, 22.27, 20.07, 0.01, 0, 3
 146893719, 26, 26.61, -15.08, -14.06, 25.2, 23.36, 0.01, 0, 3
 146993679, 25.95, 26.48, -15.33, -14.43, 27.96, 26.49, 0.01, 0.01, 3
 147093639, 25.63, 26.06, -15.99, -15.3, 30.55, 29.47, 0.01, 0.01, 3
 147194432, 25.1, 25.39, -16.91, -16.46, 32.97, 32.39, 0.01, 0.01, 3
 147294392, 24.31, 24.42, -18.1, -17.92, 35.21, 35.16, 0.02, 0.01, 3
 147394352, 23.4, 23.27, -18.8, -19.08, 37.43, 38.05, 0.02, 0.01, 3
 147494312, 22.36, 21.9, -18.49, -19.27, 39.7, 41.25, 0.02, 0.01, 3
 147594272, 21.24, 20.46, -17.72, -18.83, 41.91, 44.47, 0.02, 0.01, 3
 147694232, 20.06, 19.03, -16.82, -18.13, 43.97, 47.45, 0.02, 0.01, 3
 147794192, 18.86, 17.67, -15.89, -17.29, 45.86, 50.08, 0.02, 0.01, 3
 147894152, 17.64, 16.37, -14.95, -16.37, 47.6, 52.32, 0.02, 0.02, 3
 147994112, 16.41, 15.16, -14.1, -15.4, 49.17, 54.14, 0.02, 0.02, 3
 148094072, 15.25, 13.94, -15.89, -16.56, 50.26, 55.02, 0.02, 0.02, 3
 148194032, 14.12, 12.8, -18.25, -18.84, 51.21, 55.35, 0.02, 0.01, 3
 148293992, 13, 11.78, -19.7, -20.35, 52.24, 55.69, 0.02, 0.01, 3
 148393952, 11.87, 10.85, -20.53, -21.12, 53.31, 56.05, 0.02, 0.01, 3
 148493912, 10.76, 9.99, -21.17, -21.6, 54.34, 56.36, 0.03, 0.01, 3
 148593872, 9.7, 9.18, -21.8, -22.06, 55.33, 56.62, 0.03, 0.01, 3
 148693832, 8.68, 8.41, -22.45, -22.57, 56.27, 56.86, 0.03, 0.01, 3
 148793792, 7.71, 7.69, -23.09, -23.1, 57.17, 57.14, 0.03, 0.01, 3
 148893752, 6.79, 6.98, -23.71, -23.67, 58.02, 57.47, 0.02, 0, 3
 148993712, 5.94, 6.29, -24.31, -24.24, 58.82, 57.9, 0.02, 0, 3
 149093672, 5.15, 5.59, -24.9, -24.81, 59.58, 58.42, 0.02, 0, 3
 149193632, 4.43, 4.93, -25.47, -25.39, 60.3, 59.06, 0.02, 0, 3
 149294425, 3.79, 4.27, -26.04, -25.99, 60.97, 59.79, 0.02, 0, 3
 149394385, 3.2, 3.61, -26.49, -26.44, 61.61, 60.62, 0.02, 0, 3
 149494345, 2.7, 2.99, -27.06, -27.02, 62.19, 61.49, 0.02, 0, 3
 149594305, 2.28, 2.4, -27.63, -27.62, 62.74, 62.39, 0.02, 0, 3
 149694265, 1.92, 1.87, -28.18, -28.18, 63.24, 63.29, 0.01, 0, 3
 149794225, 1.62, 1.38, -28.7, -28.72, 63.71, 64.17, 0.01, 0, 3
 149894185, 1.38, 0.95, -29.22, -29.25, 64.14, 64.98, 0.01, 0, 3
 149994145, 0.75, 0.27, -29.57, -29.61, 64.56, 65.71, 0.01, 0, 3
 150094105, -0.21, -0.8, -29.77, -29.8, 64.92, 66.34, 0.01, 0, 3
 150194065, -0.84, -1.66, -29.87, -29.88, 65.12, 66.85, 0.01, 0, 3
 150294025, -1.16, -2.16, -29.91, -29.9, 65.21, 67.21, 0.01, 0, 3
 150393985, -1.3, -2.41, -29.94, -29.9, 65.25, 67.42, 0.01, 0, 3
 150493945, -1.34, -2.47, -29.95, -29.9, 65.27, 67.47, 0.01, 0, 3
 150593905, -1.3, -2.37, -29.96, -29.91, 65.29, 67.36, 0.01, 0, 3
 150693865, -1.21, -2.14, -29.97, -29.93, 65.31, 67.11, 0.01, 0, 3
 150793825, -1.05, -1.8, -29.98, -29.95, 65.34, 66.77, 0.01, 0, 3
 150893785, -0.83, -1.36, -29.98, -29.97, 65.39, 66.37, 0, 0, 3
 150993745, -0.57, -0.84, -29.99, -29.98, 65.45, 65.93, 0, 0, 3
 151093705, -0.25, -0.26, -29.99, -30, 65.54, 65.5, 0, 0, 3
 151193665, 0.11, 0.35, -29.99, -30, 65.66, 65.12, 0, 0, 3
 151293625, 0.55, 1.01, -29.98, -29.99, 65.8, 64.82, 0, 0, 3
 151394418, 1.04, 1.7, -29.97, -29.95, 65.98, 64.61, 0, 0, 3
 151494378, 1.6, 2.39, -29.94, -29.9, 66.19, 64.53, 0, 0, 3
 151594338, 2.23, 3.13, -29.9, -29.85, 66.45, 64.58, 0, 0, 3
 151694298, 2.93, 3.9, -29.84, -29.78, 66.75, 64.78, 0, 0, 3
 151794258, 3.71, 4.67, -29.75, -29.68, 67.1, 65.11, 0, 0, 3
 151894218, 4.56, 5.43, -28.66, -28.75, 67.56, 65.66, 0, 0, 3
 151994178, 5.46, 6.19, -27.07, -27.11, 68.13, 66.41, 0, 0, 3
 152094138, 6.4, 7.02, -25.9, -25.8, 68.77, 67.23, 0.01, 0, 3
 152194098, 7.39, 7.92, -25.09, -24.92, 69.49, 68.08, 0.01, 0.01, 3
 152294058, 8.42, 8.88, -24.34, -24.14, 70.3, 69.01, 0.01, 0.01, 3
 152394018, 9.47, 9.88, -23.59, -23.39, 71.21, 70.02, 0.01, 0.01, 3
 152493978, 10.54, 10.92, -22.84, -22.64, 72.23, 71.11, 0.01, 0.01, 3
 152593938, 11.61, 11.99, -22.08, -21.87, 73.37, 72.29, 0.01, 0.01, 3
 152693898, 12.68, 13.05, -21.37, -21.14, 74.61, 73.54, 0.01, 0.01, 3
 152793858, 13.72, 14.1, -20.71, -20.45, 75.97, 74.86, 0.01, 0.01, 3
 152893818, 14.72, 15.12, -20.06, -19.77, 77.45, 76.27, 0.01, 0.01, 3
 152993778, 15.66, 16.08, -19.43, -19.1, 79.03, 77.79, 0.01, 0.01, 3
 153093738, 16.52, 16.96, -18.83, -18.46, 80.72, 79.39, 0.01, 0.01, 3
 153193698, 17.29, 17.76, -18.27, -17.85, 82.51, 81.1, 0.01, 0.01, 3
 153293658, 17.95, 18.44, -17.74, -17.28, 84.38, 82.92, 0.01, 0.01, 3
 153393618, 18.5, 18.99, -17.26, -16.77, 86.31, 84.83, 0.01, 0.01, 3
 153494411, 18.9, 19.38, -16.71, -16.23, 88.32, 86.88, 0, 0.02, 3
 153594371, 19.17, 19.62, -16.22, -15.74, 90.37, 89.01, 0, 0.02, 3
 153694331, 19.33, 19.73, -15.8, -15.36, 92.42, 91.19, 0, 0.02, 3
 153794291, 19.35, 19.7, -15.37, -15, 94.48, 93.43, 0, 0.02, 3
 153894251, 19.25, 19.52, -14.92, -14.64, 96.54, 95.73, 0, 0.02, 3
 153994211, 19.01, 19.21, -14.47, -14.29, 98.57, 98.06, 0, 0.02, 3
 154094171, 18.66, 18.76, -14, -13.93, 100.56, 100.38, 0.01, 0.02, 3
 154194131, 18.21, 18.22, -13.52, -13.56, 102.51, 102.67, 0.01, 0.02, 3
 154294091, 17.67, 17.6, -13.05, -13.2, 104.38, 104.91, 0.01, 0.02, 3
 154394051, 17.03, 16.88, -12.51, -12.76, 106.2, 107.08, 0.01, 0.02, 3
 154494011, 16.32, 16.1, -11.95, -12.29, 107.95, 109.16, 0.01, 0.02, 3
 154593971, 15.54, 15.27, -11.37, -11.78, 109.62, 111.12, 0.01, 0.02, 3
 154693931, 14.7, 14.39, -10.74, -11.19, 111.21, 112.97, 0.01, 0.02, 3
 154793891, 13.84, 13.51, -10.13, -10.57, 112.71, 114.65, 0.01, 0.02, 3
 154893851, 12.96, 12.62, -9.95, -10.19, 114.08, 116.11, 0.01, 0.02, 3
 154993811, 12.17, 11.78, -12.72, -12.55, 115.05, 116.83, 0.01, 0.02, 3
 155093771, 11.42, 11.03, -15.34, -15.36, 116.02, 117.4, 0.01, 0.02, 3
 155193731, 10.71, 10.35, -17.02, -17.22, 117.07, 118.15, 0.01, 0.02, 3
 155293691, 10.02, 9.72, -18.15, -18.41, 118.15, 119, 0.02, 0.01, 3
 155393651, 9.37, 9.12, -19.11, -19.32, 119.22, 119.88, 0.02, 0.01, 3
 155493611, 8.74, 8.54, -20.05, -20.2, 120.26, 120.76, 0.02, 0.01, 3
 155594404, 8.11, 7.96, -20.83, -20.97, 121.29, 121.66, 0.02, 0.01, 3
 155694364, 7.55, 7.42, -21.71, -21.77, 122.28, 122.55, 0.02, 0.01, 3
 155794324, 7.05, 6.94, -22.61, -22.65, 123.22, 123.44, 0.02, 0, 3
 155894284, 6.57, 6.47, -23.45, -23.48, 124.14, 124.33, 0.02, 0, 3
 155994244, 6.12, 6.02, -24.23, -24.26, 125.02, 125.24, 0.02, 0, 3
 156094204, 5.71, 5.59, -24.96, -25, 125.88, 126.14, 0.02, 0, 3
 156194164, 5.33, 5.17, -25.64, -25.69, 126.7, 127.04, 0.02, 0, 3
 156294124, 4.99, 4.78, -26.29, -26.33, 127.48, 127.91, 0.01, 0, 3
 156394084, 4.69, 4.43, -26.91, -26.96, 128.23, 128.77, 0.01, 0, 3
 156494044, 4.43, 4.11, -27.46, -27.52, 128.95, 129.59, 0.01, 0, 3
 156594004, 4.2, 3.82, -27.99, -28.05, 129.63, 130.37, 0.01, 0, 3
 156693964, 4, 3.58, -28.48, -28.54, 130.27, 131.11, 0.01, 0, 3
 156793924, 3.83, 3.38, -28.91, -28.97, 130.88, 131.78, 0.01, 0, 3
 156893884, 3.7, 3.22, -29.33, -29.39, 131.47, 132.4, 0.01, 0, 3
 156993844, 3.57, 3.09, -29.57, -29.65, 132.03, 132.96, 0.01, 0, 3
 157093804, 3.46, 2.99, -29.69, -29.77, 132.56, 133.46, 0, 0, 3
 157193764, 3.37, 2.94, -29.76, -29.83, 133.07, 133.91, 0, 0, 3
 157293724, 3.3, 2.91, -29.8, -29.85, 133.55, 134.31, 0, 0, 3
 157393684, 3.23, 2.89, -29.82, -29.87, 134.01, 134.67, 0, 0, 3
 157493644, 3.18, 2.89, -29.83, -29.86, 134.44, 134.99, 0, 0, 3
 157593604, 3.14, 2.9, -29.84, -29.86, 134.85, 135.28, 0, 0, 3
 157694397, 3.09, 2.92, -29.85, -29.86, 135.25, 135.55, 0, 0, 3
 157794357, 3.06, 2.95, -29.85, -29.87, 135.63, 135.8, 0, 0, 3
 157894317, 2.87, 2.89, -29.87, -29.88, 135.99, 136.05, 0, 0, 3
 157994277, 2.02, 2.18, -29.92, -29.92, 136.38, 136.31, 0, 0, 3
 158094237, 1.34, 1.43, -29.96, -29.97, 136.63, 136.57, 0, 0, 3
 158194197, 0.96, 0.93, -29.97, -29.99, 136.77, 136.83, 0, 0, 3
 158294157, 0.75, 0.62, -29.98, -30, 136.85, 137.08, 0, 0, 3
 158394117, 0.64, 0.41, -29.99, -30, 136.9, 137.3, 0, 0, 3
 158494077, 0.58, 0.29, -29.99, -29.99, 136.94, 137.47, 0, 0, 3
 158594037, 0.56, 0.23, -29.98, -29.99, 136.99, 137.59, 0, 0, 3
 158693997, 0.58, 0.25, -29.93, -29.95, 137.04, 137.67, 0, 0, 3
 158793957, 0.64, 0.33, -29.84, -29.88, 137.09, 137.69, 0, 0, 3
 158893917, 0.74, 0.46, -29.71, -29.74, 137.16, 137.68, 0, 0, 3
 158993877, 0.86, 0.63, -29.63, -29.64, 137.24, 137.63, 0, 0, 3
 159093837, 1.01, 0.85, -29.55, -29.56, 137.33, 137.56, 0, 0, 3
 159193797, 1.18, 1.12, -29.47, -29.47, 137.43, 137.49, 0, 0, 3
 159293757, 1.37, 1.42, -29.37, -29.37, 137.56, 137.42, 0, 0, 3
 159393717, 1.59, 1.73, -29.29, -29.28, 137.7, 137.38, 0, 0, 3
 159493677, 1.84, 2.06, -29.2, -29.18, 137.87, 137.37, 0, 0, 3
 159593637, 2.12, 2.42, -29.12, -29.1, 138.05, 137.41, 0, 0, 3
 159694430, 2.44, 2.79, -29.08, -29.07, 138.26, 137.5, 0, 0, 3
 159794390, 2.78, 3.18, -28.88, -28.85, 138.51, 137.65, 0, 0, 3
 159894350, 3.17, 3.58, -28.83, -28.78, 138.77, 137.86, 0, 0, 3
 159994310, 3.6, 4.02, -28.81, -28.74, 139.06, 138.13, 0, 0, 3
 160094270, 4.08, 4.49, -28.78, -28.7, 139.39, 138.46, 0, 0, 3
 160194230, 4.59, 4.98, -28.74, -28.67, 139.75, 138.86, 0, 0, 3
 160294190, 5.15, 5.51, -28.69, -28.62, 140.16, 139.3, 0, 0, 3
 160394150, 5.75, 6.09, -28.64, -28.58, 140.6, 139.79, 0, 0, 3
 160494110, 6.39, 6.67, -27.59, -27.74, 141.16, 140.43, 0, 0.01, 3
 160594070, 7.03, 7.25, -26.04, -26.16, 141.81, 141.2, 0, 0.01, 3
 160694030, 7.66, 7.86, -24.88, -24.87, 142.52, 141.97, 0, 0.01, 3
 160793990, 8.3, 8.5, -24.04, -23.95, 143.27, 142.72, 0, 0.01, 3
 160893950, 8.95, 9.16, -23.29, -23.19, 144.07, 143.49, 0, 0.01, 3
 160993910, 9.6, 9.84, -22.58, -22.46, 144.95, 144.3, 0, 0.01, 3
 161093870, 10.26, 10.53, -21.91, -21.77, 145.89, 145.15, 0, 0.02, 3
 161193830, 10.89, 11.2, -21.24, -21.08, 146.91, 146.07, 0, 0.02, 3
 161293790, 11.51, 11.84, -20.58, -20.39, 148, 147.05, 0, 0.02, 3
 161393750, 12.1, 12.46, -19.94, -19.72, 149.16, 148.11, 0, 0.02, 3
 161493710, 12.67, 13.06, -19.32, -19.07, 150.39, 149.25, 0, 0.02, 3
 161593670, 13.2, 13.61, -18.71, -18.43, 151.69, 150.48, 0, 0.02, 3
 161693630, 13.69, 14.1, -18.12, -17.83, 153.06, 151.79, 0, 0.02, 3
 161794423, 14.13, 14.56, -17.55, -17.25, 154.49, 153.2, 0, 0.02, 3
 161894383, 14.49, 14.9, -16.91, -16.59, 155.99, 154.71, 0, 0.02, 3
 161994343, 14.83, 15.22, -16.41, -16.06, 157.53, 156.28, 0, 0.02, 3
 162094303, 15.11, 15.47, -15.92, -15.58, 159.11, 157.92, 0, 0.02, 3
 162194263, 15.32, 15.65, -15.43, -15.12, 160.74, 159.64, 0, 0.02, 3
 162294223, 15.46, 15.76, -14.93, -14.67, 162.4, 161.41, 0, 0.02, 3
 162394183, 15.52, 15.78, -14.44, -14.22, 164.08, 163.24, 0, 0.02, 3
 162494143, 15.52, 15.72, -13.95, -13.78, 165.78, 165.1, 0, 0.02, 3
 162594103, 15.46, 15.61, -13.5, -13.37, 167.48, 166.98, 0, 0.02, 3
 162694063, 15.31, 15.42, -13.01, -12.94, 169.18, 168.88, 0, 0.02, 3
 162794023, 15.09, 15.15, -12.51, -12.51, 170.87, 170.77, 0, 0.02, 3
 162893983, 14.8, 14.81, -12.01, -12.07, 172.55, 172.65, 0, 0.02, 3
 162993943, 14.44, 14.41, -11.48, -11.57, 174.2, 174.53, 0, 0.02, 3
 163093903, 14.03, 13.95, -10.98, -11.08, 175.82, 176.33, 0, 0.02, 3
 163193863, 13.56, 13.46, -10.49, -10.62, 177.39, 178.07, 0, 0.01, 3
 163293823, 13.05, 12.93, -9.98, -10.15, 178.93, 179.74, 0.01, 0.01, 3
 163393783, 12.5, 12.36, -9.45, -9.65, 180.41, 181.36, 0.01, 0.01, 3
 163493743, 11.92, 11.77, -8.9, -9.11, 181.85, 182.88, 0.01, 0.01, 3
 163593703, 11.3, 11.16, -8.37, -8.56, 183.23, 184.32, 0.01, 0.01, 3
 163693663, 10.73, 10.57, -9.9, -9.67, 184.35, 185.36, 0.01, 0.01, 3
 163793623, 10.22, 10.05, -12.39, -12.2, 185.37, 186.11, 0.01, 0.01, 3
 163894416, 9.72, 9.57, -14.13, -14.18, 186.45, 186.96, 0.01, 0, 3
 163994376, 9.26, 9.13, -15.37, -15.48, 187.55, 187.93, 0.01, 0, 3
 164094336, 8.86, 8.74, -16.51, -16.62, 188.65, 188.92, 0.02, 0, 3
 164194296, 8.48, 8.38, -17.65, -17.72, 189.73, 189.94, 0.02, 0, 3
 164294256, 8.12, 8.04, -18.79, -18.85, 190.8, 190.95, 0.02, 0, 3
 164394216, 7.78, 7.72, -19.87, -19.92, 191.85, 191.99, 0.02, 0, 3
 164494176, 7.47, 7.41, -20.85, -20.91, 192.9, 193.04, 0.02, 0, 3
 164594136, 7.18, 7.11, -21.74, -21.8, 193.92, 194.1, 0.02, 0, 3
 164694096, 6.93, 6.83, -22.61, -22.67, 194.92, 195.16, 0.01, 0, 3
 164794056, 6.7, 6.56, -23.39, -23.45, 195.91, 196.24, 0.01, 0, 3
 164894016, 6.48, 6.29, -24.11, -24.18, 196.87, 197.29, 0.01, 0, 3
 164993976, 6.3, 6.05, -24.79, -24.87, 197.8, 198.33, 0.01, 0, 3
 165093936, 6.12, 5.83, -25.4, -25.48, 198.71, 199.35, 0.01, 0, 3
 165193896, 5.98, 5.64, -26, -26.08, 199.59, 200.32, 0.01, 0, 3
 165293856, 5.86, 5.49, -26.62, -26.69, 200.43, 201.24, 0.01, 0, 3
 165393816, 5.76, 5.36, -27.21, -27.28, 201.24, 202.11, 0.01, 0, 3
 165493776, 5.68, 5.25, -27.76, -27.83, 202.03, 202.93, 0.01, 0, 3
 165593736, 5.6, 5.16, -28.28, -28.34, 202.79, 203.7, 0.01, 0, 3
 165693696, 5.54, 5.1, -28.76, -28.81, 203.52, 204.41, 0, 0, 3
 165793656, 5.48, 5.06, -29.14, -29.21, 204.23, 205.07, 0, 0, 3
 165893616, 5.41, 5.01, -29.35, -29.43, 204.92, 205.71, 0, 0, 3
 165994409, 5.33, 4.98, -29.45, -29.53, 205.6, 206.31, 0, 0, 3
 166094369, 5.27, 4.95, -29.51, -29.58, 206.24, 206.87, 0, 0, 3
 166194329, 5.23, 4.93, -29.55, -29.6, 206.87, 207.41, 0, 0, 3
 166294289, 5.19, 4.94, -29.57, -29.61, 207.46, 207.91, 0, 0, 3
 166394249, 5.16, 4.96, -29.58, -29.61, 208.04, 208.39, 0, 0, 3
 166494209, 5.11, 4.97, -29.59, -29.61, 208.6, 208.86, 0, 0, 3
 166594169, 5.05, 4.97, -29.6, -29.62, 209.14, 209.31, 0, 0, 3
 166694129, 4.99, 4.94, -29.61, -29.62, 209.66, 209.75, 0, 0, 3
 166794089, 4.92, 4.9, -29.62, -29.63, 210.16, 210.2, 0, 0, 3
 166894049, 4.84, 4.84, -29.64, -29.63, 210.64, 210.65, 0, 0, 3
 166994009, 4.75, 4.77, -29.65, -29.64, 211.11, 211.1, 0, 0, 3
 167093969, 4.65, 4.67, -29.66, -29.66, 211.57, 211.56, 0, 0, 3
 167193929, 4.52, 4.53, -29.68, -29.67, 212.01, 212.02, 0, 0, 3
 167293889, 4.39, 4.38, -29.7, -29.69, 212.43, 212.47, 0, 0, 3
