Time,SIM_Roll,SIM_Pitch,SIM_Yaw,SIM_Alt,SIM_Lat,SIM_Lng,SIM_Q1,SIM_Q2,SIM_Q3,SIM_Q4
 70194411, 0, 0, 0, 558.09, 33.6412058, 72.9955928, 1, 0, 0, 0
 70294371, 0, 0, 0, 558.09, 33.6412058, 72.9955928, 1, 0, 0, 0
 70394331, 0, 0, 0, 558.09, 33.6412058, 72.9955928, 1, 0, 0, 0
 70494291, 0, 0, 0, 558.09, 33.6412058, 72.9955928, 1, 0, 0, 0
 70594251, 0, 0, 0, 558.09, 33.6412058, 72.9955928, 1, 0, 0, 0
 70694211, 0, 0, 0, 558.09, 33.6412058, 72.9955928, 1, 0, 0, 0
 70794171, 0, 0, 0, 558.09, 33.6412058, 72.9955928, 1, 0, 0, 0
 70894131, 0, 0, 0, 558.09, 33.6412058, 72.9955928, 1, 0, 0, 0
 70994091, 0, 0, 0, 558.09, 33.6412058, 72.9955928, 1, 0, 0, 0
 71094051, 0, 0, 0, 558.09, 33.6412058, 72.9955928, 1, 0, 0, 0
 71194011, 0, 0, 0, 558.09, 33.6412058, 72.9955928, 1, 0, 0, 0
 71293971, 0, 0, 0, 558.09, 33.6412058, 72.9955928, 1, 0, 0, 0
 71393931, 0, 0, 0, 558.09, 33.6412058, 72.9955928, 1, 0, 0, 0
 71493891, 0, 0, 0, 558.09, 33.6412058, 72.9955928, 1, 0, 0, 0
 71593851, 0, 0, 0, 558.09, 33.6412058, 72.9955928, 1, 0, 0, 0
 71693811, 0, 0, 0, 558.09, 33.6412058, 72.9955928, 1, 0, 0, 0
 71793771, 0, 0, 0, 558.09, 33.6412058, 72.9955928, 1, 0, 0, 0
 71893731, 0, 0, 0, 558.09, 33.6412058, 72.9955928, 1, 0, 0, 0
 71993691, 0, 0, 0, 558.09, 33.6412058, 72.9955928, 1, 0, 0, 0
 72093651, 0, 0, 0, 558.09, 33.6412058, 72.9955928, 1, 0, 0, 0
 72193611, 0, 0, 0, 558.09, 33.6412058, 72.9955928, 1, 0, 0, 0
 72294404, 0, 0, 0, 558.09, 33.6412058, 72.9955928, 1, 0, 0, 0
 72394364, 0, 0, 0, 558.09, 33.6412058, 72.9955928, 1, 0, 0, 0
 72494324, 0, 0, 0, 558.09, 33.6412058, 72.9955928, 1, 0, 0, 0
 72594284, 0, 0, 0, 558.09, 33.6412058, 72.9955928, 1, 0, 0, 0
 72694244, 0, 0, 0, 558.09, 33.6412058, 72.9955928, 1, 0, 0, 0
 72794204, 0, 0, 0, 558.09, 33.6412058, 72.9955928, 1, 0, 0, 0
 72894164, 0, 0, 0, 558.09, 33.6412058, 72.9955928, 1, 0, 0, 0
 72994124, 0, 0, 0, 558.09, 33.6412058, 72.9955928, 1, 0, 0, 0
 73094084, 0, 0, 0, 558.09, 33.6412058, 72.9955928, 1, 0, 0, 0
 73194044, 0, 0, 0, 558.09, 33.6412058, 72.9955928, 1, 0, 0, 0
 73294004, 0, 0, 0, 558.09, 33.6412058, 72.9955928, 1, 0, 0, 0
 73393964, 0, 0, 0, 558.09, 33.6412058, 72.9955928, 1, 0, 0, 0
 73493924, 0, 0, 0, 558.09, 33.6412058, 72.9955928, 1, 0, 0, 0
 73593884, 0, 0, 0, 558.09, 33.6412058, 72.9955928, 1, 0, 0, 0
 73693844, 0, 0, 0, 558.09, 33.6412058, 72.9955928, 1, 0, 0, 0
 73793804, 0, 0, 0, 558.09, 33.6412058, 72.9955928, 1, 0, 0, 0
 73893764, 0, 0, 0, 558.09, 33.6412058, 72.9955928, 1, 0, 0, 0
 73993724, 0, 0, 0, 558.09, 33.6412058, 72.9955928, 1, 0, 0, 0
 74093684, 0, 0, 0, 558.09, 33.6412058, 72.9955928, 1, 0, 0, 0
 74193644, 0, 0, 0, 558.09, 33.6412058, 72.9955928, 1, 0, 0, 0
 74293604, 0, 0, 0, 558.09, 33.6412058, 72.9955928, 1, 0, 0, 0
 74394397, 0, 0, 0, 558.09, 33.6412058, 72.9955928, 1, 0, 0, 0
 74494357, 0, 0, 0, 558.09, 33.6412058, 72.9955928, 1, 0, 0, 0
 74594317, 0, 0, 0, 558.09, 33.6412058, 72.9955928, 1, 0, 0, 0
 74694277, 0, 0, 0, 558.09, 33.6412058, 72.9955928, 1, 0, 0, 0
 74794237, 0, 0, 0, 558.09, 33.6412058, 72.9955928, 1, 0, 0, 0
 74894197, 0, 0, 0, 558.09, 33.6412058, 72.9955928, 1, 0, 0, 0
 74994157, 0, 0, 0, 558.09, 33.6412058, 72.9955928, 1, 0, 0, 0
 75094117, 0, 0, 0, 558.09, 33.6412058, 72.9955928, 1, 0, 0, 0
 75194077, 0, 0, 0, 558.09, 33.6412058, 72.9955928, 1, 0, 0, 0
 75294037, 0, 0, 0, 558.09, 33.6412058, 72.9955928, 1, 0, 0, 0
 75393997, 0, 0, 0, 558.09, 33.6412058, 72.9955928, 1, 0, 0, 0
 75493957, 0, 0, 0, 558.09, 33.6412058, 72.9955928, 1, 0, 0, 0
 75593917, 0, 0, 0, 558.09, 33.6412058, 72.9955928, 1, 0, 0, 0
 75693877, 0, 0, 0, 558.09, 33.6412058, 72.9955928, 1, 0, 0, 0
 75793837, 0, 0, 0, 558.09, 33.6412058, 72.9955928, 1, 0, 0, 0
 75893797, 0, 0, 0, 558.09, 33.6412058, 72.9955928, 1, 0, 0, 0
 75993757, 0, 0, 0, 558.09, 33.6412058, 72.9955928, 1, 0, 0, 0
 76093717, 0, 0, 0, 558.09, 33.6412058, 72.9955928, 1, 0, 0, 0
 76193677, 0, 0, 0, 558.09, 33.6412058, 72.9955928, 1, 0, 0, 0
 76293637, 0, 0, 0, 558.09, 33.6412058, 72.9955928, 1, 0, 0, 0
 76394430, 0, 0, 0, 558.09, 33.6412058, 72.9955928, 1, 0, 0, 0
 76494390, 0, 0, 0, 558.09, 33.6412058, 72.9955928, 1, 0, 0, 0
 76594350, 0, 0, 0, 558.09, 33.6412058, 72.9955928, 1, 0, 0, 0
 76694310, 0, 0, 0, 558.09, 33.6412058, 72.9955928, 1, 0, 0, 0
 76794270, 0, 0, 0, 558.09, 33.6412058, 72.9955928, 1, 0, 0, 0
 76894230, 0, 0, 0, 558.09, 33.6412058, 72.9955928, 1, 0, 0, 0
 76994190, 0, 0, 0, 558.09, 33.6412058, 72.9955928, 1, 0, 0, 1.662005E-11
 77094150, 0, 0, 360, 558.09, 33.6412058, 72.9955928, 1, 0, 0, -9.859152E-10
 77194110, 0, 0, 360, 558.09, 33.6412058, 72.9955928, 1, 0, 0, -8.40659E-09
 77294070, 0, 0, 360, 558.09, 33.6412058, 72.9955928, 1, 0, 0, -1.826567E-08
 77394030, 0, 0, 360, 558.09, 33.6412058, 72.9955928, 1, 0, 0, -3.836367E-08
 77493990, 0, 0, 360, 558.09, 33.6412058, 72.9955928, 1, 0, 0, -8.572671E-08
 77593950, 0, 0, 360, 558.09, 33.6412058, 72.9955928, 1, 0, 0, -1.378938E-07
 77693910, 0, 0, 359.99, 558.09, 33.6412058, 72.9955928, 1, 0, 0, -2.078675E-07
 77793870, 0, 0, 359.99, 558.1, 33.6412058, 72.9955928, 1, 0, 0, -2.953749E-07
 77893830, 0, 0, 359.99, 558.11, 33.6412058, 72.9955928, 1, 0, 0, -3.62167E-07
 77993790, 0, 0, 359.99, 558.14, 33.6412058, 72.9955928, 1, 0, 0, -4.585728E-07
 78093750, 0, 0, 359.99, 558.18, 33.6412058, 72.9955928, 1, 0, 0, -5.523995E-07
 78193710, -0.11, -0.1, 359.99, 558.24, 33.6412058, 72.9955928, 0.999999, -0.000983499, -0.0009448272, -1.795361E-06
 78293670, -0.37, -0.36, 0, 558.34, 33.6412058, 72.9955928, 0.9999894, -0.003303699, -0.003197573, -8.170698E-06
 78393630, -0.49, -0.47, 359.99, 558.5, 33.6412058, 72.9955928, 0.9999822, -0.00430049, -0.004140242, -2.332003E-05
 78494423, -0.47, -0.46, 359.99, 558.68, 33.6412058, 72.9955928, 0.9999833, -0.004144248, -0.004035116, -4.480868E-05
 78594383, -0.38, -0.37, 359.99, 558.87, 33.6412058, 72.9955928, 0.9999889, -0.003360152, -0.003285087, -7.579153E-05
 78694343, -0.27, -0.26, 359.98, 559.06, 33.6412058, 72.9955928, 0.9999943, -0.002398097, -0.00235014, -0.0001156707
 78794303, -0.17, -0.17, 359.98, 559.26, 33.6412059, 72.9955928, 0.9999977, -0.00151618, -0.001520166, -0.0001606805
 78894263, -0.09, -0.09, 359.97, 559.47, 33.6412059, 72.9955928, 0.9999992, -0.0008437265, -0.0008327141, -0.000210037
 78994223, -0.03, -0.02, 359.96, 559.69, 33.6412059, 72.9955927, 0.9999999, -0.0003054206, -0.0002327723, -0.0002626055
 79094183, 0.01, 0.02, 359.96, 559.92, 33.6412061, 72.9955927, 0.9999999, 0.000155102, 0.0002379602, -0.0003146981
 79194143, 0.06, 0.06, 359.95, 560.16, 33.6412061, 72.9955926, 0.9999996, 0.0005367956, 0.0005976774, -0.0003595106
 79294103, 0.09, 0.1, 359.95, 560.41, 33.6412061, 72.9955926, 0.9999992, 0.0008280453, 0.0008790843, -0.000399183
 79394063, 0.11, 0.12, 359.95, 560.66, 33.6412062, 72.9955926, 0.9999988, 0.001036619, 0.001061822, -0.0004341328
 79494023, 0.13, 0.14, 359.94, 560.92, 33.6412062, 72.9955925, 0.9999984, 0.001195191, 0.001247373, -0.000461172
 79593983, 0.15, 0.16, 359.94, 561.18, 33.6412062, 72.9955925, 0.999998, 0.001361329, 0.001431649, -0.0004771998
 79693943, 0.16, 0.18, 359.94, 561.45, 33.6412062, 72.9955925, 0.9999976, 0.001457336, 0.001604528, -0.0004832007
 79793903, 0.17, 0.2, 359.94, 561.71, 33.6412062, 72.9955925, 0.9999972, 0.001494075, 0.001778004, -0.0004784438
 79893863, 0.16, 0.2, 359.94, 561.98, 33.6412063, 72.9955923, 0.9999972, 0.001435269, 0.00180738, -0.0004633868
 79993823, 0.15, 0.2, 359.94, 562.24, 33.6412063, 72.9955923, 0.9999974, 0.001370429, 0.001769005, -0.0004509931
 80093783, 0.14, 0.19, 359.94, 562.49, 33.6412063, 72.9955923, 0.9999977, 0.001290997, 0.001668406, -0.0004431036
 80193743, 0.14, 0.18, 359.94, 562.74, 33.6412063, 72.9955923, 0.9999979, 0.00127881, 0.001571393, -0.0004415639
 80293703, 0.14, 0.17, 359.94, 562.99, 33.6412063, 72.9955923, 0.999998, 0.001260586, 0.001502051, -0.0004488272
 80393663, 0.14, 0.16, 359.94, 563.23, 33.6412063, 72.9955923, 0.9999981, 0.001237354, 0.00141665, -0.0004629412
 80493623, 0.13, 0.15, 359.94, 563.45, 33.6412063, 72.9955923, 0.9999983, 0.001197844, 0.001334468, -0.0004816668
 80594416, 0.13, 0.14, 359.94, 563.68, 33.6412063, 72.9955923, 0.9999983, 0.001208268, 0.001299663, -0.0005031964
 80694376, 0.13, 0.14, 359.93, 563.89, 33.6412063, 72.9955923, 0.9999984, 0.001145981, 0.001268136, -0.0005301544
 80794336, 0.12, 0.14, 359.93, 564.1, 33.6412063, 72.9955923, 0.9999985, 0.001077756, 0.001270991, -0.0005574959
 80894296, 0.12, 0.13, 359.93, 564.3, 33.6412063, 72.9955923, 0.9999986, 0.001051283, 0.001207104, -0.0005831934
 80994256, 0.11, 0.12, 359.93, 564.49, 33.6412063, 72.9955923, 0.9999987, 0.001029089, 0.001071734, -0.0006080393
 81094216, 0.11, 0.11, 359.92, 564.68, 33.6412063, 72.9955923, 0.9999988, 0.001012148, 0.0009690984, -0.000628145
 81194176, 0.11, 0.1, 359.92, 564.86, 33.6412063, 72.9955923, 0.9999989, 0.0009631021, 0.000886553, -0.0006415013
 81294136, 0.1, 0.09, 359.92, 565.03, 33.6412063, 72.9955923, 0.999999, 0.0009360241, 0.0008123684, -0.0006480943
 81394096, 0.1, 0.09, 359.92, 565.2, 33.6412062, 72.9955923, 0.999999, 0.0009341203, 0.0007855122, -0.0006502312
 81494056, 0.09, 0.08, 359.92, 565.36, 33.6412062, 72.9955923, 0.9999991, 0.0008636478, 0.000735241, -0.0006483499
 81594016, 0.1, 0.08, 359.92, 565.52, 33.6412062, 72.9955923, 0.999999, 0.0009009152, 0.0007532359, -0.0006410163
 81693976, 0.09, 0.08, 359.92, 565.67, 33.6412062, 72.9955923, 0.9999991, 0.0008505275, 0.0007837442, -0.0006309249
 81793936, 0.08, 0.07, 359.92, 565.81, 33.6412062, 72.9955925, 0.9999993, 0.0007027807, 0.000630021, -0.0006190851
 81893896, 0.06, 0.04, 359.93, 565.95, 33.6412061, 72.9955925, 0.9999996, 0.0005634633, 0.0003855986, -0.0006091713
 81993856, 0.05, 0.03, 359.93, 566.09, 33.6412061, 72.9955925, 0.9999996, 0.0004670881, 0.0003077597, -0.000601239
 82093816, 0.02, 0.02, 359.93, 566.22, 33.6412061, 72.9955925, 0.9999998, 0.0002542782, 0.0002452505, -0.0005975775
 82193776, 0.01, 0.01, 359.93, 566.35, 33.6412061, 72.9955926, 0.9999998, 0.0001322588, 0.0001675955, -0.0005998188
 82293736, 0, 0, 359.93, 566.47, 33.6412059, 72.9955926, 0.9999998, 1.857633E-05, 5.985766E-05, -0.0006044838
 82393696, 0, 0, 359.92, 566.58, 33.6412059, 72.9955926, 0.9999998, 5.576535E-05, 3.952628E-05, -0.0006166691
 82493656, 0, 0, 359.92, 566.69, 33.6412059, 72.9955926, 0.9999998, 6.45749E-05, -2.94767E-05, -0.000633792
 82593616, 0, 0, 359.92, 566.79, 33.6412059, 72.9955927, 0.9999998, -2.192877E-06, -1.489736E-05, -0.000653753
 82694409, -0.01, -0.01, 359.92, 566.89, 33.6412059, 72.9955927, 0.9999998, -0.0001543888, -0.0001404365, -0.0006764109
 82794369, -0.03, -0.03, 359.91, 566.99, 33.6412058, 72.9955927, 0.9999996, -0.0002670738, -0.000286248, -0.0007038703
 82894329, -0.03, -0.06, 359.91, 567.08, 33.6412058, 72.9955927, 0.9999995, -0.0003235491, -0.0005688008, -0.0007394976
 82994289, -0.04, -0.06, 359.91, 567.16, 33.6412058, 72.9955927, 0.9999995, -0.0004014007, -0.0005962666, -0.000772192
 83094249, -0.05, -0.06, 359.9, 567.24, 33.6412058, 72.9955928, 0.9999993, -0.0004879837, -0.0005839568, -0.0008055583
 83194209, -0.05, -0.07, 359.9, 567.31, 33.6412058, 72.9955928, 0.9999993, -0.0004920182, -0.0006131412, -0.0008382583
 83294169, -0.05, -0.07, 359.9, 567.38, 33.6412058, 72.9955928, 0.9999993, -0.0004758979, -0.0006470497, -0.000868045
 83394129, -0.05, -0.08, 359.89, 567.44, 33.6412058, 72.9955928, 0.9999992, -0.000477205, -0.0007079018, -0.0008968483
 83494089, -0.05, -0.08, 359.89, 567.49, 33.6412058, 72.9955928, 0.9999992, -0.0004965473, -0.0007524381, -0.0009274788
 83594049, -0.05, -0.09, 359.89, 567.54, 33.6412058, 72.9955928, 0.9999991, -0.0005025351, -0.0007961561, -0.0009557452
 83694009, -0.05, -0.09, 359.88, 567.59, 33.6412058, 72.9955928, 0.999999, -0.0004980033, -0.0008161272, -0.0009841346
 83793969, -0.06, -0.09, 359.88, 567.62, 33.6412058, 72.9955928, 0.999999, -0.0005724645, -0.0007877884, -0.001014242
 83893929, -0.06, -0.08, 359.88, 567.66, 33.6412058, 72.9955928, 0.999999, -0.0005894945, -0.0007583395, -0.001043273
 83993889, -0.07, -0.09, 359.87, 567.68, 33.6412058, 72.9955928, 0.9999989, -0.0006352396, -0.0008074113, -0.001072122
 84093849, -0.06, -0.08, 359.87, 567.7, 33.6412058, 72.9955928, 0.9999989, -0.0006005345, -0.0007646467, -0.001097663
 84193809, -0.06, -0.06, 359.87, 567.71, 33.6412058, 72.9955928, 0.999999, -0.0005391545, -0.0005604156, -0.001124946
 84293769, -0.06, -0.05, 359.86, 567.71, 33.6412058, 72.9955928, 0.9999991, -0.0005599972, -0.000468166, -0.001150673
 84393729, -0.06, -0.04, 359.86, 567.71, 33.6412058, 72.9955928, 0.9999991, -0.0005353375, -0.0003804426, -0.001174639
 84493689, -0.05, -0.04, 359.86, 567.71, 33.6412058, 72.9955928, 0.9999991, -0.0005008007, -0.0003666965, -0.00119634
 84593649, -0.05, -0.03, 359.85, 567.7, 33.6412058, 72.9955928, 0.999999, -0.0004848407, -0.0002988808, -0.001225917
 84693609, -0.05, -0.03, 359.85, 567.69, 33.6412058, 72.9955928, 0.999999, -0.0004741583, -0.0003130301, -0.001250785
 84794402, -0.05, -0.03, 359.85, 567.67, 33.6412058, 72.9955928, 0.999999, -0.0004455862, -0.0002779446, -0.001275777
 84894362, -0.05, -0.03, 359.85, 567.66, 33.6412058, 72.9955928, 0.999999, -0.0004487981, -0.0002695408, -0.00130073
 84994322, -0.04, -0.03, 359.84, 567.65, 33.6412058, 72.9955928, 0.999999, -0.0004281234, -0.0002713785, -0.001323135
 85094282, -0.05, -0.03, 359.84, 567.64, 33.6412058, 72.9955928, 0.9999989, -0.0004731655, -0.0003320711, -0.001345553
 85194242, -0.05, -0.03, 359.84, 567.63, 33.6412058, 72.9955928, 0.9999989, -0.0004429788, -0.0003280262, -0.001369596
 85294202, -0.04, -0.03, 359.84, 567.62, 33.6412058, 72.9955928, 0.9999989, -0.0003919058, -0.0003139948, -0.001394512
 85394162, -0.04, -0.03, 359.83, 567.63, 33.6412058, 72.9955928, 0.9999989, -0.000362652, -0.0003135743, -0.001419026
 85494122, -0.04, -0.03, 359.83, 567.64, 33.6412058, 72.9955928, 0.9999988, -0.0003597961, -0.000336919, -0.001438911
 85594082, -0.04, -0.04, 359.83, 567.67, 33.6412058, 72.9955928, 0.9999987, -0.0003966569, -0.0004122044, -0.001459619
 85694042, -0.04, -0.04, 359.83, 567.7, 33.6412058, 72.9955928, 0.9999987, -0.0004017058, -0.0004203813, -0.001482748
 85794002, -0.04, -0.04, 359.82, 567.75, 33.6412058, 72.9955928, 0.9999987, -0.0004178263, -0.0003724823, -0.001509581
 85893962, -0.05, -0.03, 359.82, 567.8, 33.6412058, 72.9955928, 0.9999986, -0.0004870142, -0.0003127892, -0.00153628
 85993922, -0.04, -0.03, 359.81, 567.87, 33.6412058, 72.9955928, 0.9999986, -0.0003657338, -0.0002768993, -0.001571633
 86093882, -0.04, -0.03, 359.81, 567.95, 33.6412058, 72.9955928, 0.9999986, -0.0003997541, -0.0002908204, -0.001601325
 86193842, -0.04, -0.03, 359.81, 568.04, 33.6412058, 72.9955928, 0.9999986, -0.0004210265, -0.0003171897, -0.001626799
 86293802, -0.04, -0.05, 359.81, 568.14, 33.6412058, 72.9955928, 0.9999985, -0.000424079, -0.0004713095, -0.001648772
 86393762, -0.04, -0.06, 359.8, 568.25, 33.6412058, 72.9955928, 0.9999984, -0.0004119713, -0.0005274552, -0.001672921
 86493722, -0.04, -0.05, 359.8, 568.38, 33.6412058, 72.9955928, 0.9999984, -0.0003650057, -0.0004746578, -0.001698467
 86593682, -0.04, -0.05, 359.8, 568.51, 33.6412058, 72.9955928, 0.9999983, -0.0003634814, -0.0004959785, -0.001723143
 86693642, -0.04, -0.05, 359.79, 568.65, 33.6412058, 72.9955928, 0.9999983, -0.0003592756, -0.0005019191, -0.001747926
 86794435, -0.03, -0.04, 359.79, 568.81, 33.6412058, 72.9955928, 0.9999983, -0.0003425354, -0.0003915932, -0.001770301
 86894395, -0.04, -0.03, 359.79, 568.97, 33.6412058, 72.9955927, 0.9999983, -0.0003626151, -0.0003096857, -0.001791977
 86994355, -0.04, -0.03, 359.79, 569.14, 33.6412058, 72.9955927, 0.9999982, -0.0003963521, -0.0002802443, -0.00181041
 87094315, -0.03, -0.03, 359.79, 569.33, 33.6412058, 72.9955927, 0.9999983, -0.0003032297, -0.0003086352, -0.001829627
 87194275, -0.01, -0.03, 359.78, 569.52, 33.6412058, 72.9955927, 0.9999982, -0.0001551428, -0.000302852, -0.001854067
 87294235, -0.01, -0.02, 359.78, 569.72, 33.6412058, 72.9955927, 0.9999982, -9.400639E-05, -0.0002182178, -0.001877732
 87394195, 0, -0.02, 359.78, 569.93, 33.6412059, 72.9955927, 0.9999982, 8.151973E-05, -0.0002399153, -0.001899233
 87494155, 0.01, -0.02, 359.78, 570.15, 33.6412059, 72.9955926, 0.9999982, 0.0001633463, -0.000189961, -0.001911327
 87594115, 0.01, -0.01, 359.77, 570.38, 33.6412059, 72.9955926, 0.9999982, 0.0001062699, -9.787268E-05, -0.001920259
 87694075, 0, -0.01, 359.77, 570.62, 33.6412059, 72.9955926, 0.9999982, 2.427823E-05, -0.0001059146, -0.00192716
 87794035, 0, 0, 359.77, 570.87, 33.6412059, 72.9955926, 0.9999981, 3.352063E-05, -2.684433E-05, -0.00193691
 87893995, 0, 0, 359.77, 571.12, 33.6412059, 72.9955926, 0.9999981, 6.283045E-05, 4.053996E-05, -0.001944818
 87993955, 0.01, 0, 359.77, 571.37, 33.6412059, 72.9955926, 0.9999981, 0.0001287801, 8.368182E-05, -0.001948131
 88093915, 0.02, 0.01, 359.77, 571.62, 33.6412061, 72.9955926, 0.9999981, 0.0001900477, 0.0001540658, -0.001941216
 88193875, 0.01, 0.01, 359.77, 571.87, 33.6412061, 72.9955925, 0.9999981, 0.0001646924, 0.0001338825, -0.001931961
 88293835, 0.01, 0.01, 359.77, 572.12, 33.6412061, 72.9955925, 0.9999982, 0.0001701677, 0.0001270354, -0.001925095
 88393795, 0.03, 0.03, 359.77, 572.37, 33.6412061, 72.9955925, 0.9999981, 0.0002769023, 0.0002792529, -0.001922354
 88493755, 0.03, 0.03, 359.77, 572.62, 33.6412061, 72.9955925, 0.999998, 0.0002908424, 0.0003177016, -0.001923247
 88593715, 0.03, 0.04, 359.77, 572.87, 33.6412061, 72.9955925, 0.999998, 0.0003265021, 0.0003809335, -0.00192426
 88693675, 0.04, 0.05, 359.77, 573.12, 33.6412061, 72.9955925, 0.9999979, 0.0004070727, 0.0005214695, -0.001939726
 88793635, 0.04, 0.07, 359.77, 573.36, 33.6412061, 72.9955925, 0.9999977, 0.0004286127, 0.0006463619, -0.001974556
 88894428, 0.02, 0.08, 359.76, 573.61, 33.6412061, 72.9955925, 0.9999977, 0.0002622792, 0.0007353758, -0.002019155
 88994388, 0.02, 0.08, 359.76, 573.85, 33.6412061, 72.9955925, 0.9999976, 0.0002006353, 0.0007306347, -0.002063208
 89094348, 0.02, 0.07, 359.75, 574.09, 33.6412061, 72.9955925, 0.9999976, 0.0002457283, 0.0006246932, -0.002108731
 89194308, 0.03, 0.06, 359.75, 574.33, 33.6412061, 72.9955925, 0.9999975, 0.0002821307, 0.0005689963, -0.0021414
 89294268, 0.03, 0.05, 359.75, 574.57, 33.6412062, 72.9955925, 0.9999974, 0.0003179619, 0.000518307, -0.002171799
 89394228, 0.03, 0.04, 359.74, 574.81, 33.6412062, 72.9955923, 0.9999974, 0.0002934638, 0.0004178856, -0.002196841
 89494188, 0.02, 0.03, 359.74, 575.05, 33.6412062, 72.9955923, 0.9999974, 0.0002589141, 0.000322397, -0.002218642
 89594148, 0.03, 0.03, 359.74, 575.29, 33.6412061, 72.9955923, 0.9999974, 0.0002973148, 0.0002884226, -0.002241472
 89694108, 0.03, 0.03, 359.74, 575.53, 33.6412061, 72.9955923, 0.9999973, 0.0003371606, 0.0002805085, -0.002250685
 89794068, 0.03, 0.02, 359.74, 575.77, 33.6412061, 72.9955923, 0.9999974, 0.0003305947, 0.0002223626, -0.002244189
 89894028, 0.04, 0.02, 359.74, 576.01, 33.6412061, 72.9955923, 0.9999974, 0.0003604862, 0.0001916882, -0.002224374
 89993988, 0.04, 0.01, 359.74, 576.25, 33.6412061, 72.9955923, 0.9999975, 0.000374572, 0.0001638542, -0.002205412
 90093948, 0.04, 0.01, 359.74, 576.49, 33.6412061, 72.9955923, 0.9999975, 0.000415545, 0.000138257, -0.002201374
 90193908, 0.04, 0.01, 359.74, 576.73, 33.6412061, 72.9955923, 0.9999974, 0.0004325754, 0.0001243268, -0.002209234
 90293868, 0.04, 0.01, 359.74, 576.97, 33.6412061, 72.9955923, 0.9999974, 0.0004194501, 0.0001125277, -0.002221399
 90393828, 0.04, 0.01, 359.74, 577.2, 33.6412061, 72.9955923, 0.9999974, 0.0004113061, 0.0001340975, -0.002246413
 90493788, 0.03, 0.01, 359.73, 577.44, 33.6412061, 72.9955923, 0.9999973, 0.0003477616, 0.0001073042, -0.002274826
 90593748, 0.03, 0.01, 359.73, 577.68, 33.6412061, 72.9955923, 0.9999973, 0.0003235769, 0.000102016, -0.002296127
 90693708, 0.03, 0.01, 359.73, 577.92, 33.6412061, 72.9955923, 0.9999973, 0.0003300684, 8.652475E-05, -0.002311654
 90793668, 0.03, 0.01, 359.73, 578.16, 33.6412061, 72.9955923, 0.9999972, 0.0003331744, 0.0001018221, -0.00232833
 90893628, 0.03, 0, 359.73, 578.4, 33.6412061, 72.9955923, 0.9999972, 0.0002892164, 5.645055E-05, -0.002344679
 90994421, 0.03, 0, 359.72, 578.64, 33.6412061, 72.9955923, 0.9999971, 0.0002842663, 7.335441E-05, -0.002361001
 91094381, 0.03, 0.01, 359.72, 578.88, 33.6412061, 72.9955923, 0.9999971, 0.0002712595, 0.0001175467, -0.002368199
 91194341, 0.03, 0.01, 359.72, 579.12, 33.6412061, 72.9955923, 0.9999971, 0.0002621614, 0.0001197894, -0.002378374
 91294301, 0.02, 0.01, 359.72, 579.36, 33.6412061, 72.9955923, 0.9999971, 0.0002485418, 0.0001034348, -0.00238514
 91394261, 0.02, 0.01, 359.72, 579.6, 33.6412061, 72.9955923, 0.9999971, 0.0001880073, 0.0001182052, -0.002387791
 91494221, 0.02, 0.01, 359.72, 579.83, 33.6412061, 72.9955923, 0.9999971, 0.0001944391, 9.915829E-05, -0.00238936
 91594181, 0.02, 0.01, 359.72, 580.07, 33.6412061, 72.9955925, 0.9999971, 0.0002076565, 9.050919E-05, -0.002390266
 91694141, 0.01, 0.01, 359.72, 580.31, 33.6412061, 72.9955925, 0.9999971, 0.0001739061, 9.474625E-05, -0.002392917
 91794101, 0.01, 0.01, 359.72, 580.55, 33.6412061, 72.9955925, 0.9999971, 0.0001464339, 0.0001096526, -0.002399751
 91894061, 0, 0.01, 359.72, 580.79, 33.6412061, 72.9955925, 0.9999971, 1.561997E-05, 0.0001322135, -0.002411858
 91994021, -0.01, 0.01, 359.72, 581.03, 33.6412061, 72.9955925, 0.999997, -8.71199E-05, 0.0001184845, -0.0024249
 92093981, -0.01, 0.01, 359.72, 581.26, 33.6412061, 72.9955925, 0.999997, -0.000138225, 0.0001151411, -0.002443243
 92193941, -0.02, 0.01, 359.71, 581.5, 33.6412061, 72.9955925, 0.9999969, -0.0002045857, 0.0001059608, -0.00246931
 92293901, -0.03, 0.01, 359.71, 581.74, 33.6412061, 72.9955925, 0.9999968, -0.0002784016, 0.000118985, -0.002497054
 92393861, -0.03, 0.01, 359.71, 581.98, 33.6412061, 72.9955925, 0.9999968, -0.0002903672, 0.0001326687, -0.002523422
 92493821, -0.03, 0.01, 359.7, 582.22, 33.6412061, 72.9955925, 0.9999967, -0.0003187002, 0.0001123763, -0.002545869
 92593781, -0.03, 0.01, 359.7, 582.46, 33.6412061, 72.9955925, 0.9999967, -0.0003423817, 0.0001058944, -0.002565546
 92693741, -0.03, 0.01, 359.7, 582.71, 33.6412061, 72.9955925, 0.9999966, -0.0003217287, 0.0001404635, -0.002579431
 92793701, -0.02, 0.02, 359.7, 582.95, 33.6412061, 72.9955926, 0.9999966, -0.0002437, 0.0001804813, -0.002590155
 92893661, -0.02, 0.01, 359.7, 583.2, 33.6412061, 72.9955926, 0.9999966, -0.0002447141, 0.0001125166, -0.00259954
 92993621, -0.02, 0.01, 359.7, 583.44, 33.6412061, 72.9955926, 0.9999966, -0.000218752, 0.0001172133, -0.002604831
 93094414, -0.01, 0.01, 359.7, 583.68, 33.6412061, 72.9955926, 0.9999965, -0.0001427706, 0.0001010987, -0.002613246
 93194374, -0.01, 0, 359.69, 583.92, 33.6412061, 72.9955926, 0.9999965, -0.000135506, 8.633354E-05, -0.002623183
 93294334, -0.02, 0, 359.69, 584.16, 33.6412061, 72.9955926, 0.9999964, -0.0001949099, 7.269414E-05, -0.002653946
 93394294, -0.02, 0, 359.69, 584.4, 33.6412061, 72.9955926, 0.9999964, -0.000195959, 8.410202E-05, -0.00268908
 93494254, -0.03, 0.01, 359.68, 584.64, 33.6412061, 72.9955926, 0.9999962, -0.0003073437, 0.0001068178, -0.002721582
 93594214, -0.04, 0.02, 359.68, 584.87, 33.6412061, 72.9955926, 0.9999961, -0.0003867905, 0.0002109423, -0.002750596
 93694174, -0.04, 0.02, 359.68, 585.11, 33.6412061, 72.9955926, 0.9999961, -0.0003959922, 0.0001900075, -0.002773521
 93794134, -0.03, 0.02, 359.68, 585.34, 33.6412061, 72.9955926, 0.999996, -0.0003009622, 0.0002535855, -0.002792185
 93894094, -0.03, 0.02, 359.67, 585.57, 33.6412061, 72.9955926, 0.999996, -0.0002810078, 0.0002207729, -0.002808104
 93994054, -0.01, 0.03, 359.67, 585.81, 33.6412061, 72.9955926, 0.9999959, -0.0001524985, 0.0002861987, -0.002825932
 94094014, -0.01, 0.02, 359.67, 586.04, 33.6412059, 72.9955926, 0.9999959, -0.0001474835, 0.0002300239, -0.002845968
 94193974, -0.02, 0.01, 359.67, 586.28, 33.6412059, 72.9955926, 0.9999959, -0.0001948283, 0.0001378686, -0.002864741
 94293934, -0.02, 0, 359.66, 586.51, 33.6412059, 72.9955926, 0.9999958, -0.0002093461, 4.075747E-05, -0.002881778
 94393894, -0.02, 0, 359.66, 586.74, 33.6412059, 72.9955926, 0.9999958, -0.0002152124, -3.808593E-05, -0.002890889
 94493854, -0.02, -0.01, 359.66, 586.98, 33.6412059, 72.9955926, 0.9999958, -0.0001875461, -0.0001407776, -0.002900832
 94593814, 0, -0.02, 359.66, 587.21, 33.6412059, 72.9955926, 0.9999957, -6.554458E-05, -0.0002369268, -0.002913118
 94693774, 0, -0.03, 359.66, 587.45, 33.6412059, 72.9955926, 0.9999956, 4.833629E-05, -0.0003266842, -0.002925335
 94793734, 0.01, -0.04, 359.66, 587.68, 33.6412059, 72.9955926, 0.9999956, 0.0001546341, -0.0004104744, -0.002937483
 94893694, 0.01, -0.05, 359.66, 587.92, 33.6412059, 72.9955926, 0.9999955, 0.0001608767, -0.0004884208, -0.002949595
 94993654, 0.01, -0.06, 359.66, 588.15, 33.6412059, 72.9955926, 0.9999954, 0.0001312576, -0.0005610761, -0.002960869
 95093614, -0.01, -0.07, 359.65, 588.39, 33.6412059, 72.9955926, 0.9999954, -9.260468E-05, -0.0006175643, -0.002967557
 95194407, -0.02, -0.06, 359.65, 588.63, 33.6412059, 72.9955926, 0.9999954, -0.000198303, -0.0005596873, -0.002979737
 95294367, -0.03, -0.05, 359.65, 588.86, 33.6412059, 72.9955926, 0.9999954, -0.000267054, -0.0005145892, -0.002992054
 95394327, -0.03, -0.05, 359.65, 589.1, 33.6412059, 72.9955926, 0.9999953, -0.0003310365, -0.000441311, -0.003005089
 95494287, -0.03, -0.04, 359.65, 589.33, 33.6412059, 72.9955926, 0.9999953, -0.0003306708, -0.0003731935, -0.003019482
 95594247, -0.02, -0.03, 359.65, 589.57, 33.6412059, 72.9955926, 0.9999953, -0.000246318, -0.0003099649, -0.003035868
 95694207, -0.01, -0.02, 359.65, 589.8, 33.6412059, 72.9955926, 0.9999953, -0.0001675935, -0.0002510462, -0.003052159
 95794167, -0.01, -0.02, 359.64, 590.04, 33.6412059, 72.9955926, 0.9999953, -9.412114E-05, -0.0001961451, -0.003068354
 95894127, 0, -0.01, 359.64, 590.28, 33.6412059, 72.9955926, 0.9999952, -2.658606E-05, -0.0001449904, -0.003095558
 95994087, 0, -0.01, 359.64, 590.51, 33.6412059, 72.9955926, 0.9999951, -6.427107E-05, -9.702052E-05, -0.003139912
 96094047, -0.01, 0, 359.63, 590.75, 33.6412059, 72.9955926, 0.9999949, -9.148136E-05, -5.236011E-05, -0.003184225
 96194007, 0, 0, 359.62, 590.99, 33.6412059, 72.9955925, 0.9999948, -7.090141E-05, -1.090566E-05, -0.003229418
 96293967, 0, 0, 359.62, 591.22, 33.6412059, 72.9955925, 0.9999946, -4.601016E-05, -9.565201E-06, -0.003265135
 96393927, 0, 0, 359.62, 591.46, 33.6412059, 72.9955925, 0.9999946, 1.962687E-05, 4.550047E-05, -0.003292446
 96493887, 0.01, 0, 359.62, 591.69, 33.6412059, 72.9955925, 0.9999946, 0.000115217, -3.154782E-05, -0.003297046
 96593847, 0.03, 0, 359.62, 591.93, 33.6412059, 72.9955925, 0.9999946, 0.000265745, -6.039355E-05, -0.00327966
 96693807, 0.04, -0.01, 359.62, 592.17, 33.6412059, 72.9955925, 0.9999946, 0.0004060782, -0.000115058, -0.00326124
 96793767, 0.04, -0.01, 359.62, 592.4, 33.6412059, 72.9955925, 0.9999947, 0.0003803174, -0.0001664144, -0.003238335
 96893727, 0.03, -0.02, 359.63, 592.64, 33.6412059, 72.9955925, 0.9999948, 0.0002647592, -0.0001840406, -0.003199768
 96993687, 0.02, -0.01, 359.63, 592.88, 33.6412059, 72.9955925, 0.999995, 0.0002269148, -0.0001558169, -0.003163648
 97093647, 0.02, -0.01, 359.64, 593.11, 33.6412059, 72.9955925, 0.9999951, 0.0001810393, -0.0001577554, -0.003133331
 97193607, 0.01, -0.01, 359.64, 593.35, 33.6412059, 72.9955925, 0.9999951, 0.0001634256, -0.0001479092, -0.003110057
 97294400, 0.01, -0.01, 359.64, 593.59, 33.6412059, 72.9955925, 0.9999952, 0.0001115625, -0.0001382982, -0.003093371
 97394360, 0.01, -0.01, 359.64, 593.83, 33.6412059, 72.9955925, 0.9999952, 8.970424E-05, -0.0001658258, -0.003082597
 97494320, 0, -0.01, 359.64, 594.07, 33.6412059, 72.9955925, 0.9999952, 6.153328E-05, -0.0001189215, -0.003079584
 97594280, 0, 0, 359.64, 594.3, 33.6412059, 72.9955925, 0.9999952, 4.858227E-05, -8.190449E-05, -0.003082788
 97694240, 0, 0, 359.64, 594.54, 33.6412059, 72.9955925, 0.9999952, 1.087698E-05, -7.177085E-05, -0.003090756
 97794200, 0, 0, 359.64, 594.78, 33.6412059, 72.9955925, 0.9999952, 3.056572E-05, -3.916484E-05, -0.003103762
 97894160, 0, 0, 359.64, 595.02, 33.6412059, 72.9955925, 0.9999951, 5.648133E-06, -5.343955E-05, -0.003118189
 97994120, 0, 0, 359.64, 595.25, 33.6412059, 72.9955925, 0.9999951, 1.658489E-05, -3.537968E-05, -0.003133244
 98094080, 0, 0, 359.63, 595.49, 33.6412059, 72.9955925, 0.9999951, 1.221825E-05, -2.707007E-05, -0.003149797
 98194040, 0, 0, 359.63, 595.73, 33.6412059, 72.9955925, 0.999995, 1.599447E-05, -2.500557E-05, -0.003166599
 98294000, 0, 0, 359.63, 595.97, 33.6412059, 72.9955925, 0.9999949, 2.878428E-05, -1.331269E-05, -0.003180482
 98393960, 0, 0, 359.63, 596.21, 33.6412059, 72.9955925, 0.9999949, 4.641935E-05, -3.323926E-05, -0.003189906
 98493920, 0, 0, 359.63, 596.45, 33.6412059, 72.9955925, 0.9999949, 4.009854E-05, -2.973536E-05, -0.003192767
 98593880, 0, 0, 359.63, 596.68, 33.6412059, 72.9955925, 0.9999949, 3.316188E-05, -2.103497E-05, -0.003178571
 98693840, 0, 0, 359.63, 596.92, 33.6412059, 72.9955925, 0.9999951, 1.507291E-05, -3.067252E-05, -0.003150187
 98793800, 0, 0, 359.64, 597.16, 33.6412059, 72.9955925, 0.9999951, 1.429199E-05, -1.465986E-05, -0.003118121
 98893760, 0, 0, 359.64, 597.4, 33.6412059, 72.9955925, 0.9999952, 2.547559E-05, -3.361887E-05, -0.003101291
 98993720, 0, 0, 359.64, 597.64, 33.6412059, 72.9955925, 0.9999952, 3.447447E-05, -3.853975E-05, -0.003114003
 99093680, 0, 0, 359.63, 597.88, 33.6412059, 72.9955925, 0.9999951, 6.624782E-05, -4.946033E-05, -0.003145183
 99193640, 0, 0, 359.63, 598.11, 33.6412059, 72.9955925, 0.9999949, 7.32852E-05, -5.812648E-05, -0.003176405
 99294433, 0, 0, 359.63, 598.35, 33.6412059, 72.9955925, 0.9999949, 3.376672E-05, -7.903342E-05, -0.003206004
 99394393, 0, 0, 359.62, 598.59, 33.6412061, 72.9955925, 0.9999948, 3.645667E-05, -8.588305E-05, -0.003229281
 99494353, 0, 0, 359.62, 598.83, 33.6412061, 72.9955925, 0.9999948, 5.142932E-05, -6.127008E-05, -0.003241419
 99594313, 0, 0, 359.62, 599.07, 33.6412061, 72.9955925, 0.9999948, 5.506194E-05, -1.386172E-05, -0.003234463
 99694273, 0.01, 0.01, 359.63, 599.31, 33.6412061, 72.9955925, 0.9999949, 0.0001000668, 0.0001128968, -0.00319626
 99794233, 0.01, 0.02, 359.63, 599.55, 33.6412061, 72.9955925, 0.9999949, 0.0001120574, 0.0002360661, -0.003159267
 99894193, 0.01, 0.03, 359.64, 599.78, 33.6412061, 72.9955925, 0.999995, 8.895848E-05, 0.0002985672, -0.003136821
 99994153, 0, 0.03, 359.64, 600.02, 33.6412061, 72.9955925, 0.999995, 8.498524E-05, 0.0003447084, -0.003136286
 100094113, 0.01, 0.04, 359.63, 600.26, 33.6412061, 72.9955925, 0.9999949, 0.0001163046, 0.0004104837, -0.00315127
 100194073, 0.01, 0.04, 359.63, 600.5, 33.6412061, 72.9955925, 0.9999949, 0.000106467, 0.0004097292, -0.003172069
 100294033, 0, 0.04, 359.63, 600.74, 33.6412061, 72.9955925, 0.9999948, 7.534172E-05, 0.000423904, -0.003194973
 100393993, 0, 0.04, 359.63, 600.97, 33.6412061, 72.9955925, 0.9999948, 7.848274E-05, 0.0004264438, -0.00321778
 100493953, 0, 0.04, 359.62, 601.21, 33.6412061, 72.9955925, 0.9999947, 6.287186E-05, 0.0004266001, -0.003240374
 100593913, 0, 0.04, 359.62, 601.45, 33.6412061, 72.9955925, 0.9999946, 2.520456E-05, 0.0003891835, -0.003261171
 100693873, 0, 0.04, 359.62, 601.69, 33.6412061, 72.9955925, 0.9999946, 6.256841E-07, 0.0003754432, -0.00328032
 100793833, 0, 0.04, 359.62, 601.93, 33.6412061, 72.9955925, 0.9999945, 1.537759E-05, 0.0003895538, -0.003297841
 100893793, 0, 0.04, 359.62, 602.16, 33.6412061, 72.9955925, 0.9999945, 1.175179E-05, 0.0003778129, -0.003309686
 100993753, 0, 0.04, 359.61, 602.4, 33.6412061, 72.9955925, 0.9999944, 2.674529E-05, 0.0003764395, -0.003317377
 101093713, 0, 0.04, 359.61, 602.64, 33.6412061, 72.9955925, 0.9999944, 2.376964E-05, 0.0003659433, -0.003323597
 101193673, 0, 0.03, 359.61, 602.88, 33.6412061, 72.9955925, 0.9999944, -3.465518E-06, 0.000317295, -0.003328413
 101293633, 0, 0.03, 359.61, 603.12, 33.6412061, 72.9955925, 0.9999944, 2.056157E-05, 0.0003200437, -0.003331511
 101394426, 0, 0.03, 359.61, 603.36, 33.6412061, 72.9955925, 0.9999943, 2.208788E-05, 0.0003004812, -0.003337836
 101494386, 0, 0.02, 359.61, 603.6, 33.6412061, 72.9955925, 0.9999943, 2.000861E-05, 0.0002596305, -0.003343402
 101594346, 0, 0.02, 359.61, 603.83, 33.6412061, 72.9955925, 0.9999944, 3.118218E-05, 0.0002400215, -0.003346806
 101694306, 0, 0.02, 359.61, 604.07, 33.6412061, 72.9955925, 0.9999943, 5.123043E-05, 0.0002097875, -0.003351447
 101794266, 0, 0.01, 359.61, 604.31, 33.6412061, 72.9955925, 0.9999943, 6.114993E-05, 0.0001686329, -0.003357815
 101894226, 0, 0.01, 359.61, 604.55, 33.6412061, 72.9955925, 0.9999943, 3.276295E-05, 0.0001515021, -0.003368569
 101994186, 0, 0.01, 359.61, 604.78, 33.6412061, 72.9955925, 0.9999943, 3.627533E-05, 0.000146943, -0.003384153
 102094146, 0, 0.01, 359.61, 605.02, 33.6412061, 72.9955925, 0.9999942, 5.472632E-05, 0.0001208097, -0.003401556
 102194106, 0, 0.01, 359.6, 605.26, 33.6412061, 72.9955925, 0.9999942, 6.075615E-05, 0.0001144384, -0.003420666
 102294066, 0, 0, 359.6, 605.5, 33.6412061, 72.9955925, 0.999994, 7.000777E-05, 7.382651E-05, -0.003445676
 102394026, 0.01, 0, 359.6, 605.74, 33.6412061, 72.9955925, 0.9999939, 9.263909E-05, 8.219164E-05, -0.00347473
 102493986, 0.01, 0, 359.59, 605.97, 33.6412061, 72.9955925, 0.9999939, 9.213383E-05, 7.990674E-05, -0.003504984
 102593946, 0.01, 0.01, 359.59, 606.21, 33.6412061, 72.9955925, 0.9999937, 9.204264E-05, 0.0001295126, -0.003528879
 102693906, 0.01, 0.01, 359.59, 606.45, 33.6412059, 72.9955925, 0.9999937, 9.84944E-05, 0.0001695131, -0.003551194
 102793866, 0, 0.01, 359.59, 606.69, 33.6412059, 72.9955925, 0.9999936, 8.502651E-05, 0.0001397223, -0.003570802
 102893826, 0, 0, 359.58, 606.93, 33.6412059, 72.9955925, 0.9999936, 7.29861E-06, 7.917773E-05, -0.003588207
 102993786, 0, 0, 359.58, 607.17, 33.6412059, 72.9955925, 0.9999935, -1.848216E-05, 3.359987E-05, -0.003602604
 103093746, 0, -0.01, 359.58, 607.4, 33.6412059, 72.9955925, 0.9999934, 1.544814E-06, -9.609513E-05, -0.003610949
 103193706, 0, -0.02, 359.58, 607.64, 33.6412059, 72.9955925, 0.9999934, 3.251543E-05, -0.0001818854, -0.00361411
 103293666, 0, -0.02, 359.58, 607.88, 33.6412059, 72.9955925, 0.9999934, 1.04213E-06, -0.0002550576, -0.003615211
 103393626, 0, -0.03, 359.58, 608.12, 33.6412059, 72.9955925, 0.9999934, -6.912512E-06, -0.0003221302, -0.003610181
 103494419, 0, -0.04, 359.58, 608.36, 33.6412059, 72.9955925, 0.9999935, -6.526301E-06, -0.0003812759, -0.003594039
 103594379, 0, -0.04, 359.58, 608.59, 33.6412059, 72.9955925, 0.9999935, 1.689288E-05, -0.0003604224, -0.003579854
 103694339, 0, -0.04, 359.59, 608.83, 33.6412059, 72.9955925, 0.9999936, 1.486189E-06, -0.0003854054, -0.003576708
 103794299, 0, -0.04, 359.58, 609.07, 33.6412059, 72.9955925, 0.9999934, 6.33541E-06, -0.0004136508, -0.003604415
 103894259, 0, -0.04, 359.58, 609.31, 33.6412059, 72.9955925, 0.9999933, 4.100379E-05, -0.0003780935, -0.003639779
 103994219, 0, -0.04, 359.57, 609.54, 33.6412059, 72.9955925, 0.9999932, 3.623881E-05, -0.0003902632, -0.003674608
 104094179, 0, -0.04, 359.57, 609.78, 33.6412059, 72.9955925, 0.9999931, 5.416205E-05, -0.0003835592, -0.003702787
 104194139, 0, -0.04, 359.57, 610.02, 33.6412059, 72.9955925, 0.999993, 5.877727E-05, -0.0003587137, -0.003725258
 104294099, 0, -0.03, 359.57, 610.25, 33.6412059, 72.9955925, 0.999993, 4.828539E-05, -0.0003404962, -0.003737059
 104394059, 0, -0.03, 359.57, 610.49, 33.6412059, 72.9955925, 0.999993, 6.679508E-05, -0.0002768751, -0.003732569
 104494019, 0, -0.02, 359.57, 610.73, 33.6412059, 72.9955925, 0.9999931, 5.109094E-05, -0.0002381507, -0.00370857
 104593979, 0, -0.02, 359.57, 610.96, 33.6412059, 72.9955925, 0.9999932, 6.506773E-05, -0.000230942, -0.00367391
 104693939, 0, -0.02, 359.58, 611.2, 33.6412059, 72.9955925, 0.9999934, 6.733815E-05, -0.0001764108, -0.003621048
 104793899, 0, -0.02, 359.59, 611.44, 33.6412059, 72.9955925, 0.9999936, 5.74777E-05, -0.0001809467, -0.00357065
 104893859, 0, -0.01, 359.59, 611.68, 33.6412059, 72.9955925, 0.9999937, 5.286495E-05, -0.000140008, -0.003529201
 104993819, 0, -0.01, 359.59, 611.91, 33.6412059, 72.9955925, 0.9999939, 6.236918E-05, -0.0001170518, -0.003502163
 105093779, 0, -0.01, 359.59, 612.15, 33.6412059, 72.9955925, 0.9999939, 2.765164E-05, -8.739322E-05, -0.003491856
 105193739, 0, 0, 359.6, 612.39, 33.6412059, 72.9955925, 0.9999939, 2.955758E-05, -8.445336E-05, -0.00348723
 105293699, 0, 0, 359.59, 612.62, 33.6412059, 72.9955925, 0.9999939, 3.53881E-05, -4.029816E-05, -0.003507319
 105393659, 0, 0, 359.59, 612.86, 33.6412059, 72.9955925, 0.9999937, 6.725178E-05, -9.511073E-06, -0.003535579
 105493619, 0, 0, 359.59, 613.1, 33.6412059, 72.9955925, 0.9999937, 3.251621E-05, -3.684877E-05, -0.003542957
 105594412, 0, 0, 359.59, 613.34, 33.6412059, 72.9955925, 0.9999937, 1.712136E-05, -2.446427E-05, -0.003527659
 105694372, 0, 0, 359.59, 613.58, 33.6412059, 72.9955925, 0.9999939, 7.952761E-06, -1.629433E-05, -0.003508584
 105794332, 0, 0, 359.59, 613.81, 33.6412059, 72.9955926, 0.9999939, 7.753678E-06, -5.740089E-07, -0.003492209
 105894292, 0, 0, 359.6, 614.05, 33.6412059, 72.9955926, 0.9999939, -4.378181E-06, 7.22372E-06, -0.003482158
 105994252, 0, 0, 359.6, 614.29, 33.6412059, 72.9955926, 0.999994, 3.104443E-05, 3.973867E-05, -0.003475302
 106094212, 0, 0, 359.6, 614.52, 33.6412059, 72.9955926, 0.999994, 6.412635E-05, 7.000906E-05, -0.00346849
 106194172, 0, 0, 359.6, 614.76, 33.6412059, 72.9955926, 0.999994, 3.81547E-05, 5.644637E-05, -0.003462214
 106294132, 0, 0, 359.6, 615, 33.6412059, 72.9955926, 0.999994, -5.080448E-05, -3.720578E-05, -0.003460841
 106394092, -0.01, 0, 359.6, 615.24, 33.6412059, 72.9955926, 0.999994, -0.0001185214, -7.861898E-05, -0.003461563
 106494052, -0.01, -0.01, 359.6, 615.48, 33.6412059, 72.9955926, 0.999994, -0.0001545395, -0.0001366878, -0.003462072
 106594012, -0.02, -0.02, 359.6, 615.71, 33.6412059, 72.9955926, 0.9999939, -0.0002058564, -0.0001943074, -0.003462383
 106693972, -0.02, -0.01, 359.6, 615.95, 33.6412059, 72.9955926, 0.999994, -0.000203313, -0.0001373845, -0.003461202
 106793932, -0.01, 0, 359.6, 616.19, 33.6412059, 72.9955926, 0.999994, -0.0001620669, -7.684254E-05, -0.003459851
 106893892, -0.02, 0, 359.6, 616.43, 33.6412059, 72.9955926, 0.999994, -0.0001772279, -7.519707E-05, -0.003456147
 106993852, -0.02, -0.01, 359.6, 616.67, 33.6412059, 72.9955926, 0.999994, -0.0001968069, -9.933548E-05, -0.003451961
 107093812, -0.02, -0.01, 359.6, 616.91, 33.6412059, 72.9955926, 0.999994, -0.000191942, -0.0001039856, -0.003447671
 107193772, -0.02, 0, 359.6, 617.15, 33.6412059, 72.9955926, 0.999994, -0.0001772097, -8.255296E-05, -0.003444837
 107293732, -0.02, 0, 359.6, 617.39, 33.6412059, 72.9955926, 0.999994, -0.0001848976, -6.975748E-05, -0.003445322
 107393692, -0.01, 0, 359.6, 617.62, 33.6412059, 72.9955926, 0.999994, -0.0001661738, -5.410295E-05, -0.003453149
 107493652, -0.01, 0, 359.6, 617.86, 33.6412059, 72.9955926, 0.999994, -0.0001718085, -3.909215E-05, -0.003461407
 107593612, -0.01, 0, 359.6, 618.1, 33.6412059, 72.9955926, 0.999994, -0.0001248287, -2.131275E-05, -0.003468962
 107694405, -0.01, 0, 359.6, 618.34, 33.6412059, 72.9955926, 0.999994, -0.0001446147, -9.867524E-06, -0.003470495
 107794365, -0.02, 0, 359.6, 618.58, 33.6412059, 72.9955926, 0.999994, -0.0001786263, 7.10312E-05, -0.00346452
 107894325, -0.01, 0, 359.6, 618.82, 33.6412059, 72.9955926, 0.999994, -0.0001633337, 5.923235E-05, -0.003459577
 107994285, -0.01, 0, 359.6, 619.06, 33.6412059, 72.9955926, 0.999994, -0.000127289, 1.821706E-05, -0.003445051
 108094245, -0.01, 0, 359.6, 619.3, 33.6412059, 72.9955926, 0.999994, -0.0001012737, -4.619289E-05, -0.003443189
 108194205, -0.01, 0, 359.6, 619.54, 33.6412059, 72.9955926, 0.999994, -0.0001063017, -7.80453E-05, -0.003450409
 108294165, 0, 0, 359.6, 619.78, 33.6412059, 72.9955926, 0.999994, -7.884991E-05, -6.761465E-05, -0.003443903
 108394125, 0, -0.01, 359.6, 620.02, 33.6412059, 72.9955926, 0.999994, -7.099504E-05, -9.245177E-05, -0.003441271
 108494085, 0, 0, 359.6, 620.26, 33.6412059, 72.9955926, 0.999994, -4.504845E-05, -8.155376E-05, -0.003454376
 108594045, 0, 0, 359.6, 620.5, 33.6412059, 72.9955926, 0.999994, -7.356623E-05, -8.47967E-05, -0.003470524
 108694005, 0, 0, 359.6, 620.73, 33.6412059, 72.9955926, 0.999994, -4.895442E-05, -8.009316E-05, -0.003469178
 108793965, 0, 0, 359.6, 620.97, 33.6412059, 72.9955926, 0.9999941, -2.814752E-05, -8.051896E-05, -0.003435125
 108893925, 0, 0, 359.61, 621.21, 33.6412059, 72.9955926, 0.9999942, -9.409974E-06, -4.391461E-05, -0.003387406
 108993885, 0, 0, 359.61, 621.45, 33.6412059, 72.9955926, 0.9999944, 3.286679E-05, -4.762318E-05, -0.003338396
 109093845, 0, -0.01, 359.62, 621.69, 33.6412059, 72.9955926, 0.9999945, 5.110249E-05, -9.1701E-05, -0.003304606
 109193805, 0.01, -0.01, 359.62, 621.93, 33.6412059, 72.9955926, 0.9999946, 9.383309E-05, -0.0001145339, -0.003297886
 109293765, 0, -0.01, 359.62, 622.17, 33.6412059, 72.9955926, 0.9999946, 5.622514E-05, -0.0001232096, -0.003292643
 109393725, 0, -0.01, 359.62, 622.41, 33.6412059, 72.9955926, 0.9999946, 1.066631E-05, -0.0001162905, -0.003297244
 109493685, -0.01, -0.01, 359.61, 622.65, 33.6412061, 72.9955926, 0.9999945, -0.0001232836, -9.961663E-05, -0.003333238
 109593645, -0.01, 0, 359.61, 622.89, 33.6412061, 72.9955926, 0.9999942, -0.0001100814, -6.779605E-05, -0.00339846
 109693605, -0.01, 0, 359.6, 623.12, 33.6412061, 72.9955926, 0.9999939, -9.004262E-05, -6.228148E-06, -0.003473342
 109794398, 0, 0, 359.59, 623.36, 33.6412061, 72.9955926, 0.9999937, -5.846964E-05, 5.844468E-05, -0.003532264
 109894358, 0, 0, 359.58, 623.6, 33.6412061, 72.9955926, 0.9999936, -8.142754E-05, 8.565355E-05, -0.00358401
 109994318, -0.01, 0.01, 359.58, 623.84, 33.6412061, 72.9955926, 0.9999934, -0.0001019437, 0.000114263, -0.003635257
 110094278, -0.01, 0.03, 359.57, 624.08, 33.6412061, 72.9955926, 0.9999931, -0.0001063018, 0.0002926386, -0.003678998
 110194238, 0, 0.04, 359.57, 624.32, 33.6412061, 72.9955926, 0.999993, -6.765962E-05, 0.0004326724, -0.003707651
 110294198, 0, 0.05, 359.57, 624.55, 33.6412061, 72.9955926, 0.999993, -3.829432E-05, 0.000499586, -0.003714549
 110394158, 0, 0.05, 359.57, 624.78, 33.6412061, 72.9955926, 0.999993, -3.947346E-05, 0.000513864, -0.003701927
 110494118, 0, 0.06, 359.57, 625.01, 33.6412061, 72.9955926, 0.9999931, -4.486914E-05, 0.0005467073, -0.003675392
 110594078, 0, 0.05, 359.58, 625.23, 33.6412061, 72.9955926, 0.9999933, 3.243177E-05, 0.0005123305, -0.003631896
 110694038, 0, 0.06, 359.58, 625.44, 33.6412061, 72.9955926, 0.9999934, -4.957516E-05, 0.0005497041, -0.003583923
 110793998, 0, 0.07, 359.59, 625.65, 33.6412061, 72.9955925, 0.9999936, -2.631084E-05, 0.0006506839, -0.003532511
 110893958, 0, 0.07, 359.6, 625.86, 33.6412061, 72.9955925, 0.9999937, 2.461875E-05, 0.0006360706, -0.003475981
 110993918, 0, 0.06, 359.6, 626.05, 33.6412061, 72.9955925, 0.999994, 7.418314E-05, 0.0005500367, -0.003420496
 111093878, 0.01, 0.05, 359.61, 626.25, 33.6412061, 72.9955925, 0.9999942, 0.0001437775, 0.0005049452, -0.003363274
 111193838, 0.02, 0.05, 359.62, 626.43, 33.6412061, 72.9955925, 0.9999944, 0.000249341, 0.0004674657, -0.003314794
 111293798, 0.02, 0.04, 359.62, 626.62, 33.6412061, 72.9955925, 0.9999945, 0.0002016521, 0.0004243679, -0.003281816
 111393758, 0.01, 0.04, 359.62, 626.79, 33.6412061, 72.9955925, 0.9999946, 0.0001654585, 0.0004020708, -0.003266183
 111493718, 0.02, 0.04, 359.62, 626.96, 33.6412061, 72.9955925, 0.9999946, 0.0001812881, 0.0003821997, -0.003266507
 111593678, 0.03, 0.03, 359.62, 627.13, 33.6412061, 72.9955925, 0.9999945, 0.0002917279, 0.0003212714, -0.003295419
 111693638, 0.03, 0.03, 359.61, 627.28, 33.6412061, 72.9955925, 0.9999943, 0.0002905746, 0.0002781439, -0.003333264
 111794431, 0.03, 0.02, 359.61, 627.44, 33.6412061, 72.9955925, 0.9999942, 0.0003033294, 0.0002088086, -0.003385044
 111894391, 0.03, 0.01, 359.6, 627.59, 33.6412061, 72.9955925, 0.999994, 0.0003354047, 0.0001012575, -0.003439803
 111994351, 0.03, 0.01, 359.59, 627.73, 33.6412061, 72.9955925, 0.9999939, 0.0003093761, 9.043555E-05, -0.003497498
 112094311, 0.03, 0.01, 359.59, 627.87, 33.6412061, 72.9955925, 0.9999936, 0.0002627068, 0.0001051753, -0.003553526
 112194271, 0.02, 0.01, 359.58, 628, 33.6412061, 72.9955925, 0.9999934, 0.0002117467, 0.00010021, -0.003607063
 112294231, 0, 0.01, 359.58, 628.13, 33.6412061, 72.9955925, 0.9999933, 3.258559E-05, 0.0001501537, -0.003650927
 112394191, 0, 0.01, 359.57, 628.25, 33.6412061, 72.9955925, 0.9999932, -3.37537E-05, 0.0001460289, -0.003680564
 112494151, 0, 0.01, 359.57, 628.37, 33.6412059, 72.9955925, 0.9999931, -6.826334E-05, 0.0001412462, -0.003703574
 112594111, 0, 0.01, 359.57, 628.48, 33.6412059, 72.9955925, 0.9999931, -2.797553E-05, 0.000144802, -0.003714513
 112694071, 0, 0, 359.57, 628.59, 33.6412059, 72.9955925, 0.9999931, 1.80792E-05, 8.553643E-05, -0.003712541
 112794031, 0, 0, 359.57, 628.69, 33.6412059, 72.9955925, 0.9999931, 8.290084E-06, 6.49333E-05, -0.003693606
 112893991, 0.01, -0.01, 359.58, 628.78, 33.6412059, 72.9955925, 0.9999933, 8.823647E-05, -0.0001019007, -0.003664201
 112993951, 0.02, -0.03, 359.58, 628.87, 33.6412059, 72.9955925, 0.9999933, 0.0001883428, -0.000275584, -0.003634065
 113093911, 0.01, -0.05, 359.58, 628.96, 33.6412059, 72.9955925, 0.9999934, 0.0001540304, -0.0004800156, -0.003592229
 113193871, 0.02, -0.05, 359.59, 629.04, 33.6412059, 72.9955925, 0.9999936, 0.0001745195, -0.0004945067, -0.003543611
 113293831, 0.01, -0.05, 359.59, 629.12, 33.6412059, 72.9955925, 0.9999937, 0.0001698273, -0.0005121912, -0.00349753
 113393791, 0.02, -0.05, 359.6, 629.19, 33.6412059, 72.9955925, 0.9999939, 0.0001728303, -0.0004925563, -0.003463104
 113493751, 0, -0.05, 359.6, 629.25, 33.6412059, 72.9955925, 0.9999939, 8.220052E-05, -0.0004857391, -0.003447976
 113593711, 0, -0.05, 359.6, 629.31, 33.6412059, 72.9955925, 0.9999939, 2.216831E-05, -0.000474108, -0.003439991
 113693671, 0, -0.05, 359.6, 629.36, 33.6412059, 72.9955925, 0.999994, -1.939438E-05, -0.0004452672, -0.003437066
 113793631, 0, -0.04, 359.6, 629.41, 33.6412059, 72.9955925, 0.999994, 2.274694E-06, -0.0003961314, -0.003437131
 113894424, 0, -0.04, 359.6, 629.45, 33.6412059, 72.9955925, 0.999994, -1.387169E-05, -0.0003638468, -0.003435308
 113994384, 0, -0.03, 359.6, 629.49, 33.6412059, 72.9955925, 0.999994, -3.916443E-06, -0.0003184513, -0.003431234
 114094344, 0, -0.03, 359.6, 629.51, 33.6412059, 72.9955925, 0.999994, -2.055747E-05, -0.0002697796, -0.003426253
 114194304, 0, -0.02, 359.6, 629.54, 33.6412059, 72.9955925, 0.9999941, 6.423438E-06, -0.0001959138, -0.003425169
 114294264, -0.22, -0.64, 359.6, 629.55, 33.6412059, 72.9955925, 0.9999762, -0.001984066, -0.00564586, -0.003424618
 114394224, -0.88, -2.45, 359.62, 629.57, 33.6412059, 72.9955925, 0.9997345, -0.00777464, -0.02142046, -0.003418771
 114494184, -1.42, -3.93, 359.65, 629.58, 33.6412059, 72.9955925, 0.9993266, -0.01252536, -0.03431777, -0.00340759
 114594144, -1.76, -4.84, 359.68, 629.59, 33.6412059, 72.9955925, 0.9989827, -0.01547734, -0.0422185, -0.003393041
 114694104, -1.96, -5.42, 359.7, 629.6, 33.6412062, 72.9955925, 0.9987273, -0.01724821, -0.04727343, -0.003385819
 114794064, -2.1, -5.86, 359.62, 629.61, 33.6412064, 72.9955923, 0.9985132, -0.01850031, -0.05110366, -0.004183009
 114894024, -2.17, -6.25, 359.11, 629.62, 33.6412068, 72.9955921, 0.9982941, -0.01935037, -0.05439305, -0.008721478
 114993984, -2.1, -6.62, 357.73, 629.62, 33.6412071, 72.995592, 0.9979412, -0.01951978, -0.05743509, -0.02082142
 115093944, -1.88, -6.98, 355.34, 629.63, 33.6412076, 72.9955918, 0.9971409, -0.01887457, -0.06021349, -0.04156842
 115193904, -1.52, -7.31, 352.17, 629.63, 33.6412082, 72.9955915, 0.995496, -0.01756368, -0.06271096, -0.06889556
 115293864, -1.05, -7.59, 348.54, 629.64, 33.6412089, 72.9955911, 0.9927192, -0.01575678, -0.06498253, -0.1001876
 115393824, -0.52, -7.81, 344.7, 629.64, 33.6412098, 72.9955909, 0.9887449, -0.01360754, -0.06692928, -0.1331125
 115493784, 0.02, -7.96, 340.89, 629.64, 33.6412107, 72.9955904, 0.9837599, -0.01132354, -0.06854362, -0.1654995
 115593744, 0.55, -8.05, 337.37, 629.64, 33.6412117, 72.9955901, 0.9782108, -0.009048278, -0.06985501, -0.1952997
 115693704, 1.02, -8.1, 334.34, 629.65, 33.6412126, 72.9955896, 0.9727131, -0.007027615, -0.07087442, -0.2208093
 115793664, 1.4, -8.12, 331.96, 629.65, 33.6412138, 72.9955892, 0.9679148, -0.005326959, -0.07169586, -0.2407742
 115893624, 1.66, -8.15, 330.31, 629.65, 33.641215, 72.9955885, 0.9643449, -0.004241289, -0.07241497, -0.2545133
 115994417, 1.81, -8.17, 329.41, 629.65, 33.6412164, 72.995588, 0.9623197, -0.003550004, -0.07291915, -0.2619369
 116094377, 1.85, -8.2, 329.25, 629.65, 33.6412178, 72.9955875, 0.9619426, -0.003351787, -0.07324678, -0.2632304
 116194337, 1.81, -8.29, 329.76, 629.65, 33.6412192, 72.9955868, 0.9630359, -0.003646833, -0.0739055, -0.2590107
 116294297, 1.67, -8.41, 330.84, 629.65, 33.6412209, 72.9955863, 0.9653597, -0.004355988, -0.07469422, -0.2499649
 116394257, 1.47, -8.55, 332.4, 629.65, 33.6412225, 72.9955856, 0.9685863, -0.005352586, -0.07550339, -0.2368777
 116494217, 1.2, -8.71, 334.33, 629.65, 33.6412243, 72.9955849, 0.9723396, -0.006660381, -0.07636295, -0.2206357
 116594177, 0.89, -8.87, 336.52, 629.65, 33.6412261, 72.9955842, 0.9762499, -0.008131526, -0.07730152, -0.2022241
 116694137, 0.56, -9.04, 338.82, 629.65, 33.6412278, 72.9955834, 0.9799782, -0.009659731, -0.07839186, -0.1827678
 116794097, 0.24, -9.23, 341.1, 629.65, 33.6412299, 72.9955827, 0.9832556, -0.01114515, -0.07976502, -0.163468
 116894057, -0.06, -9.42, 343.21, 629.65, 33.6412319, 72.9955818, 0.9859496, -0.01251892, -0.08116086, -0.1454634
 116994017, -0.32, -9.6, 345.06, 629.64, 33.641234, 72.995581, 0.988007, -0.01367659, -0.0826252, -0.1297233
 117093977, -0.52, -9.79, 346.55, 629.64, 33.6412362, 72.9955801, 0.9894444, -0.01454668, -0.08426465, -0.1169944
 117193937, -0.65, -9.98, 347.63, 629.64, 33.6412384, 72.9955793, 0.9903397, -0.01506997, -0.08594432, -0.1077671
 117293897, -0.72, -10.19, 348.27, 629.64, 33.6412407, 72.9955784, 0.9907619, -0.01533291, -0.08774086, -0.1022612
 117393857, -0.71, -10.45, 348.48, 629.64, 33.641243, 72.9955775, 0.9907433, -0.01532711, -0.09003574, -0.1004306
 117493817, -0.63, -10.74, 348.29, 629.64, 33.6412456, 72.9955765, 0.9903519, -0.01504, -0.09258086, -0.1020082
 117593777, -0.48, -11.04, 347.75, 629.64, 33.6412482, 72.9955755, 0.9896337, -0.0144627, -0.09522559, -0.1065271
 117693737, -0.28, -11.34, 346.94, 629.63, 33.6412508, 72.9955745, 0.9886215, -0.01368296, -0.09791894, -0.113367
 117793697, -0.02, -11.64, 345.93, 629.63, 33.6412535, 72.9955734, 0.9873575, -0.01266683, -0.1006437, -0.1218015
 117893657, 0.25, -11.95, 344.82, 629.63, 33.6412563, 72.9955725, 0.9858869, -0.01154433, -0.1035109, -0.1310699
 117993617, 0.55, -12.27, 343.7, 629.63, 33.6412592, 72.9955714, 0.9842895, -0.01039656, -0.1065386, -0.1404127
 118094410, 0.85, -12.56, 342.64, 629.63, 33.6412621, 72.9955703, 0.9827096, -0.009197127, -0.1092534, -0.1492011
 118194370, 1.13, -12.83, 341.72, 629.62, 33.6412652, 72.9955693, 0.9812581, -0.008043702, -0.11189, -0.1566795
 118294330, 1.38, -13.17, 341.01, 629.62, 33.6412683, 72.9955681, 0.9799583, -0.007075179, -0.1150901, -0.1624375
 118394290, 1.59, -13.5, 340.54, 629.62, 33.6412715, 72.995567, 0.9789704, -0.006212939, -0.1182123, -0.1661452
 118494250, 1.75, -13.83, 340.34, 629.62, 33.6412748, 72.9955659, 0.9783509, -0.005559217, -0.1212459, -0.1676244
 118594210, 1.85, -14.15, 340.41, 629.61, 33.6412782, 72.9955648, 0.9781237, -0.005091561, -0.1241761, -0.166818
 118694170, 1.92, -14.5, 340.74, 629.61, 33.6412817, 72.9955636, 0.9782439, -0.004652719, -0.1272374, -0.1637917
 118794130, 1.96, -14.86, 341.31, 629.61, 33.6412853, 72.9955624, 0.9786645, -0.004204041, -0.1303573, -0.1587612
 118894090, 1.97, -15.15, 342.09, 629.61, 33.641289, 72.9955612, 0.9793944, -0.00360818, -0.1328978, -0.1520252
 118994050, 1.83, -13.02, 343.1, 629.6, 33.6412927, 72.99556, 0.9829086, -0.0009415296, -0.1144744, -0.1441716
 119094010, 1.69, -10.16, 344.22, 629.6, 33.6412965, 72.9955588, 0.9867097, 0.002438175, -0.08980086, -0.1354026
 119193970, 1.65, -8.19, 345.35, 629.6, 33.6413005, 72.9955578, 0.9893344, 0.005169571, -0.07272129, -0.1261046
 119293930, 1.68, -6.91, 346.46, 629.59, 33.6413043, 72.9955567, 0.9912231, 0.007462767, -0.06160979, -0.1167278
 119393890, 1.76, -5.95, 347.53, 629.59, 33.641308, 72.9955556, 0.9927129, 0.009658813, -0.05332567, -0.1076304
 119493850, 1.88, -5.1, 348.52, 629.59, 33.6413117, 72.9955545, 0.9939473, 0.01191015, -0.04591484, -0.09909008
 119593810, 2.02, -4.27, 349.43, 629.58, 33.6413155, 72.9955535, 0.9949681, 0.01415802, -0.03874932, -0.09130497
 119693770, 2.2, -3.48, 350.24, 629.58, 33.6413192, 72.9955526, 0.9957833, 0.01658435, -0.03194171, -0.08438238
 119793730, 2.4, -2.74, 350.94, 629.58, 33.6413226, 72.9955519, 0.9964176, 0.01900627, -0.02550326, -0.07836038
 119893690, 2.61, -2.04, 351.55, 629.57, 33.6413262, 72.9955511, 0.996899, 0.02142452, -0.01944995, -0.07317834
 119993650, 2.84, -1.39, 352.08, 629.57, 33.6413295, 72.9955504, 0.997255, 0.02388374, -0.0138705, -0.06869944
 120093610, 3.08, -0.82, 352.55, 629.57, 33.6413328, 72.9955497, 0.9975139, 0.02640892, -0.008929447, -0.06472182
 120194403, 3.33, -0.25, 353, 629.56, 33.6413359, 72.995549, 0.9977132, 0.02894892, -0.004037786, -0.06094297
 120294363, 3.6, 0.2, 353.45, 629.56, 33.641339, 72.9955485, 0.9978682, 0.03153298, 2.451514E-05, -0.05713799
 120394323, 3.91, 0.6, 353.94, 629.56, 33.641342, 72.9955482, 0.9980005, 0.03437437, 0.003469908, -0.05292802
 120494283, 4.25, 0.95, 354.53, 629.55, 33.641345, 72.9955478, 0.9981252, 0.03745743, 0.006587218, -0.04795579
 120594243, 4.63, 1.28, 355.25, 629.55, 33.6413477, 72.9955477, 0.9982409, 0.04090378, 0.009492951, -0.04185532
 120694203, 5.08, 1.55, 356.13, 629.55, 33.6413504, 72.9955475, 0.9983371, 0.04476365, 0.01205589, -0.03426032
 120794163, 5.63, 1.8, 357.24, 629.55, 33.6413529, 72.9955475, 0.9983602, 0.04950703, 0.0145514, -0.02478545
 120894123, 6.29, 2.2, 358.63, 629.54, 33.6413554, 72.9955476, 0.9982262, 0.05507828, 0.01851998, -0.01295457
 120994083, 7.08, 2.78, 0.36, 629.54, 33.6413578, 72.9955478, 0.997793, 0.06172555, 0.0244202, 0.001698256
 121094043, 8.06, 3.3, 2.48, 629.54, 33.64136, 72.995548, 0.9969155, 0.06968765, 0.03031895, 0.01959437
 121194003, 9.31, 3.77, 5.07, 629.54, 33.641362, 72.9955483, 0.995298, 0.07964476, 0.03640232, 0.04139582
 121293963, 10.89, 4.24, 8.24, 629.53, 33.641364, 72.995549, 0.99248, 0.09194621, 0.04361031, 0.06802537
 121393923, 12.85, 4.81, 12.17, 629.53, 33.6413658, 72.9955497, 0.9877357, 0.1068058, 0.0533289, 0.1006316
 121493883, 15.16, 5.53, 17.03, 629.53, 33.6413675, 72.9955508, 0.9801202, 0.1232666, 0.06687922, 0.1403459
 121593843, 17.51, 6.46, 22.91, 629.53, 33.641369, 72.9955519, 0.9688034, 0.137922, 0.08479065, 0.1876379
 121693803, 19.23, 7.39, 29.75, 629.52, 33.6413702, 72.9955533, 0.9536758, 0.1448198, 0.1042194, 0.2422148
 121793763, 19.7, 7.87, 37.26, 629.52, 33.6413711, 72.995555, 0.9351652, 0.1401229, 0.118651, 0.3029084
 121893723, 18.78, 7.57, 45.12, 629.52, 33.6413717, 72.9955567, 0.9132282, 0.1253788, 0.1226412, 0.3677683
 121993683, 16.97, 6.55, 53.18, 629.52, 33.6413719, 72.9955586, 0.8867596, 0.1064714, 0.1164893, 0.4344554
 122093643, 15.06, 4.98, 61.36, 629.51, 33.6413719, 72.9955605, 0.854673, 0.09063601, 0.103921, 0.5005194
 122193603, 14.84, 1.28, 69.13, 629.51, 33.6413718, 72.9955624, 0.8173123, 0.1000753, 0.08246183, 0.5614139
 122294396, 14.03, -2.82, 76.89, 629.51, 33.6413714, 72.9955645, 0.7751783, 0.1109017, 0.05676319, 0.6193362
 122394356, 11.87, -6.06, 84.73, 629.51, 33.6413708, 72.9955665, 0.7301404, 0.1117814, 0.03079148, 0.6733882
 122494316, 9.49, -8.07, 92.63, 629.51, 33.64137, 72.9955686, 0.6823668, 0.1077622, 0.01120848, 0.7229366
 122594276, 7.24, -9.28, 100.33, 629.51, 33.641369, 72.9955707, 0.6332584, 0.1024087, -0.003375212, 0.7671277
 122694236, 5.12, -10.02, 107.64, 629.51, 33.641368, 72.9955729, 0.5842677, 0.09673907, -0.01560644, 0.8056235
 122794196, 3.12, -10.43, 114.38, 629.51, 33.6413669, 72.9955753, 0.5372604, 0.09109548, -0.02640784, 0.8380665
 122894156, 1.33, -10.56, 120.24, 629.51, 33.6413656, 72.9955775, 0.4950613, 0.08564723, -0.03578427, 0.8638856
 122994116, -0.15, -10.54, 124.98, 629.51, 33.6413644, 72.9955801, 0.460058, 0.08087888, -0.04362753, 0.8831205
 123094076, -1.32, -10.42, 128.49, 629.51, 33.6413631, 72.9955827, 0.4336282, 0.07685361, -0.04981719, 0.8964253
 123194036, -2.17, -10.31, 130.78, 629.51, 33.6413617, 72.9955853, 0.4162143, 0.07381461, -0.05461036, 0.9046186
 123293996, -2.74, -10.25, 131.91, 629.51, 33.6413602, 72.995588, 0.4075868, 0.07185642, -0.05818775, 0.9084734
 123393956, -3.06, -10.29, 132, 629.51, 33.6413589, 72.9955908, 0.4070704, 0.07110767, -0.06078015, 0.9085941
 123493916, -3.14, -10.42, 131.17, 629.51, 33.6413575, 72.9955937, 0.413697, 0.07142566, -0.06244533, 0.9054577
 123593876, -3.03, -10.69, 129.56, 629.51, 33.641356, 72.9955966, 0.4263078, 0.0730266, -0.06351732, 0.8993855
 123693836, -2.71, -11.04, 127.3, 629.51, 33.6413545, 72.9955997, 0.4436511, 0.0757419, -0.06379109, 0.8907118
 123793796, -2.2, -11.44, 124.55, 629.51, 33.641353, 72.9956029, 0.4644503, 0.07934281, -0.06336159, 0.879759
 123893756, -1.54, -11.86, 121.46, 629.51, 33.6413516, 72.9956062, 0.4874084, 0.08357462, -0.06223943, 0.8669341
 123993716, -0.76, -12.26, 118.2, 629.51, 33.6413499, 72.9956095, 0.5112025, 0.08824254, -0.06056615, 0.8527702
 124093676, 0.1, -12.62, 114.93, 629.51, 33.6413485, 72.9956129, 0.5344143, 0.09319055, -0.05840078, 0.8380372
 124193636, 0.99, -12.94, 111.89, 629.51, 33.6413468, 72.9956165, 0.555523, 0.09826861, -0.05595417, 0.8237758
 124294429, 1.89, -13.23, 109.27, 629.51, 33.6413453, 72.9956201, 0.5732853, 0.1034463, -0.0532659, 0.8110521
 124394389, 2.7, -13.36, 107.27, 629.52, 33.6413436, 72.9956239, 0.5864624, 0.1075726, -0.05013599, 0.8012344
 124494349, 3.42, -13.56, 106, 629.52, 33.6413419, 72.9956275, 0.5944653, 0.1121009, -0.04735293, 0.7948598
 124594309, 4.01, -13.78, 105.5, 629.52, 33.6413401, 72.9956315, 0.597141, 0.116511, -0.04492922, 0.7923567
 124694269, 4.49, -14.03, 105.77, 629.52, 33.6413383, 72.9956354, 0.5946076, 0.1208347, -0.04265082, 0.7937391
 124794229, 4.85, -14.33, 106.74, 629.52, 33.6413364, 72.9956395, 0.5871927, 0.1251236, -0.04067943, 0.7986827
 124894189, 5.09, -14.69, 108.35, 629.52, 33.6413345, 72.9956435, 0.5753129, 0.1294017, -0.03902529, 0.8066891
 124994149, 5.23, -15.11, 110.5, 629.52, 33.6413323, 72.9956478, 0.5594556, 0.1337614, -0.0376519, 0.8171289
 125094109, 5.3, -15.6, 113.11, 629.53, 33.6413303, 72.9956521, 0.5401691, 0.1384484, -0.03644393, 0.8292897
 125194069, 5.32, -16.13, 116.06, 629.53, 33.641328, 72.9956564, 0.5181315, 0.1432646, -0.03521902, 0.8424813
 125294029, 5.3, -16.67, 119.23, 629.53, 33.6413256, 72.9956607, 0.4941267, 0.1481471, -0.03374695, 0.8560095
 125393989, 5.27, -16.7, 122.53, 629.53, 33.6413231, 72.9956651, 0.4692611, 0.1491171, -0.02986414, 0.8698657
 125493949, 5.22, -14.58, 125.96, 629.53, 33.6413207, 72.9956696, 0.4449895, 0.1334742, -0.01732918, 0.8853636
 125593909, 5.35, -12.59, 129.15, 629.54, 33.641318, 72.9956741, 0.4216099, 0.1189113, -0.005120868, 0.8989322
 125693869, 5.6, -11.46, 131.96, 629.54, 33.6413152, 72.9956785, 0.4000117, 0.1109342, 0.003803556, 0.9097636
