Time,AHR2_Roll,AHR2_Pitch,AHR2_Yaw,AHR2_Alt,AHR2_Lat,AHR2_Lng,AHR2_Q1,AHR2_Q2,AHR2_Q3,AHR2_Q4
 101194506, 0.1, 0.09, 0.22, 558.04, 33.6216408, 72.955685, 0.9999973, 0.0009158435, 0.0007964908, 0.001987326
 101294466, 0.1, 0.09, 0.22, 558.04, 33.6216408, 72.955685, 0.9999973, 0.0009141211, 0.0007955842, 0.001987912
 101394426, 0.1, 0.09, 0.22, 558.04, 33.6216408, 72.955685, 0.9999973, 0.00091266, 0.000794626, 0.001986501
 101494386, 0.1, 0.09, 0.22, 558.04, 33.6216408, 72.955685, 0.9999973, 0.0009133408, 0.0007930665, 0.001984344
 101594346, 0.1, 0.09, 0.22, 558.04, 33.6216408, 72.955685, 0.9999973, 0.0009108222, 0.0007902294, 0.001984377
 101694306, 0.1, 0.09, 0.22, 558.04, 33.6216408, 72.955685, 0.9999973, 0.0009092266, 0.0007901579, 0.001982797
 101794266, 0.1, 0.09, 0.22, 558.04, 33.6216408, 72.955685, 0.9999973, 0.0009095364, 0.0007907409, 0.001983589
 101894226, 0.1, 0.09, 0.22, 558.04, 33.6216408, 72.955685, 0.9999973, 0.0009120288, 0.0007885194, 0.001984575
 101994186, 0.1, 0.09, 0.22, 558.04, 33.6216408, 72.955685, 0.9999973, 0.0009110589, 0.0007877229, 0.001986247
 102094146, 0.1, 0.08, 0.22, 558.04, 33.6216408, 72.955685, 0.9999973, 0.0009091188, 0.0007862744, 0.001986271
 102194106, 0.1, 0.09, 0.22, 558.04, 33.6216408, 72.955685, 0.9999973, 0.0009079135, 0.0007895383, 0.001990365
 102294066, 0.1, 0.08, 0.22, 558.04, 33.6216408, 72.955685, 0.9999973, 0.0009060457, 0.0007852998, 0.00199164
 102394026, 0.1, 0.08, 0.22, 558.04, 33.6216408, 72.955685, 0.9999973, 0.0009032299, 0.0007850584, 0.001990132
 102493986, 0.1, 0.08, 0.22, 558.04, 33.6216408, 72.955685, 0.9999973, 0.0009022579, 0.0007849797, 0.001990951
 102593946, 0.1, 0.09, 0.22, 558.04, 33.6216408, 72.955685, 0.9999973, 0.0009005153, 0.0007871997, 0.001991999
 102693906, 0.1, 0.08, 0.22, 558.04, 33.6216408, 72.955685, 0.9999973, 0.0009022137, 0.0007867651, 0.001992848
 102793866, 0.1, 0.08, 0.22, 558.04, 33.6216408, 72.955685, 0.9999973, 0.0009004078, 0.0007862033, 0.001993741
 102893826, 0.1, 0.08, 0.22, 558.04, 33.6216408, 72.955685, 0.9999973, 0.0008958864, 0.0007860033, 0.001992342
 102993786, 0.1, 0.09, 0.22, 558.04, 33.6216408, 72.955685, 0.9999973, 0.0008931333, 0.0007874107, 0.001991318
 103093746, 0.1, 0.08, 0.22, 558.04, 33.6216408, 72.955685, 0.9999973, 0.0008907334, 0.000786957, 0.001992361
 103193706, 0.1, 0.08, 0.22, 558.04, 33.6216408, 72.955685, 0.9999973, 0.0008913106, 0.0007870146, 0.001990689
 103294499, 0.1, 0.08, 0.22, 558.04, 33.6216408, 72.955685, 0.9999973, 0.0008926899, 0.0007863488, 0.001990854
 103394459, 0.1, 0.09, 0.22, 558.04, 33.6216408, 72.955685, 0.9999973, 0.0008918413, 0.000787964, 0.001989939
 103494419, 0.1, 0.08, 0.22, 558.04, 33.6216408, 72.955685, 0.9999973, 0.0008908983, 0.0007861859, 0.001989254
 103594379, 0.1, 0.08, 0.22, 558.04, 33.6216408, 72.955685, 0.9999973, 0.0008904897, 0.0007837163, 0.001992174
 103694339, 0.1, 0.08, 0.22, 558.04, 33.6216408, 72.955685, 0.9999973, 0.0008896206, 0.0007843567, 0.001992527
 103794299, 0.1, 0.08, 0.22, 558.04, 33.6216408, 72.955685, 0.9999973, 0.0008891667, 0.0007835275, 0.001993522
 103894259, 0.1, 0.08, 0.22, 558.04, 33.6216408, 72.955685, 0.9999973, 0.0008924447, 0.0007854032, 0.001997509
 103994219, 0.1, 0.08, 0.22, 558.04, 33.6216408, 72.955685, 0.9999973, 0.0008919876, 0.0007859649, 0.00199821
 104094179, 0.1, 0.08, 0.22, 558.04, 33.6216408, 72.955685, 0.9999973, 0.0008908832, 0.0007841787, 0.002001368
 104194139, 0.1, 0.08, 0.22, 558.04, 33.6216408, 72.955685, 0.9999973, 0.0008899258, 0.0007858158, 0.002002993
 104294099, 0.1, 0.08, 0.22, 558.04, 33.6216408, 72.955685, 0.9999973, 0.0008891174, 0.0007836685, 0.002005475
 104394059, 0.1, 0.08, 0.23, 558.04, 33.6216408, 72.955685, 0.9999973, 0.0008894848, 0.0007829432, 0.002007574
 104494019, 0.1, 0.08, 0.23, 558.04, 33.6216408, 72.955685, 0.9999973, 0.0008931123, 0.0007845377, 0.002008266
 104593979, 0.1, 0.08, 0.23, 558.04, 33.6216408, 72.955685, 0.9999973, 0.0008975634, 0.0007835109, 0.002009498
 104693939, 0.1, 0.08, 0.23, 558.04, 33.6216408, 72.955685, 0.9999973, 0.0008999513, 0.0007842973, 0.002012678
 104793899, 0.1, 0.09, 0.23, 558.04, 33.6216408, 72.955685, 0.9999973, 0.0009017752, 0.0007877541, 0.002017244
 104893859, 0.1, 0.09, 0.23, 558.04, 33.6216408, 72.955685, 0.9999973, 0.000903353, 0.0007911054, 0.00202177
 104993819, 0.1, 0.09, 0.23, 558.04, 33.6216408, 72.955685, 0.9999972, 0.0009037742, 0.0007941154, 0.002028424
 105093779, 0.1, 0.09, 0.23, 558.04, 33.6216408, 72.955685, 0.9999972, 0.0009047966, 0.0007943568, 0.002029535
 105193739, 0.1, 0.09, 0.23, 558.04, 33.6216408, 72.955685, 0.9999972, 0.000904258, 0.0007970954, 0.0020288
 105293699, 0.1, 0.09, 0.23, 558.04, 33.6216408, 72.955685, 0.9999972, 0.0009058316, 0.0007993037, 0.002029282
 105394492, 0.1, 0.09, 0.23, 558.04, 33.6216408, 72.955685, 0.9999972, 0.0009067924, 0.0008016102, 0.002033133
 105494452, 0.1, 0.09, 0.23, 558.04, 33.6216408, 72.955685, 0.9999972, 0.0009081488, 0.0008046271, 0.002038045
 105594412, 0.1, 0.09, 0.23, 558.04, 33.6216408, 72.955685, 0.9999971, 0.0009106906, 0.0008066512, 0.002038677
 105694372, 0.1, 0.09, 0.23, 558.04, 33.6216408, 72.955685, 0.9999971, 0.000914367, 0.0008077676, 0.002041696
 105794332, 0.1, 0.09, 0.23, 558.04, 33.6216408, 72.955685, 0.9999971, 0.0009183615, 0.0008091511, 0.002042563
 105894292, 0.1, 0.09, 0.23, 558.04, 33.6216408, 72.955685, 0.9999971, 0.0009148389, 0.0008094383, 0.002040148
 105994252, 0.1, 0.09, 0.23, 558.04, 33.6216408, 72.955685, 0.9999971, 0.0009142728, 0.0008077352, 0.002039262
 106094212, 0.1, 0.09, 0.23, 558.04, 33.6216408, 72.955685, 0.9999971, 0.0009130523, 0.0008064962, 0.002038447
 106194172, 0.1, 0.09, 0.23, 558.04, 33.6216408, 72.955685, 0.9999972, 0.0009131399, 0.0008049418, 0.00203625
 106294132, 0.1, 0.09, 0.23, 558.04, 33.6216408, 72.955685, 0.9999972, 0.0009117362, 0.0008032255, 0.002035717
 106394092, 0.1, 0.09, 0.23, 558.05, 33.6216408, 72.955685, 0.9999972, 0.0009092485, 0.0008021696, 0.002033063
 106494052, 0.1, 0.09, 0.23, 558.08, 33.6216408, 72.955685, 0.9999972, 0.0009091366, 0.0007988621, 0.002033156
 106594012, 0.1, 0.09, 0.23, 558.1, 33.6216408, 72.955685, 0.9999972, 0.0009051588, 0.0007976861, 0.002031972
 106693972, 0.1, 0.09, 0.23, 558.15, 33.6216408, 72.955685, 0.9999972, 0.0009045269, 0.0007950846, 0.002033184
 106793932, -0.03, -0.03, 0.23, 558.22, 33.6216408, 72.955685, 0.9999979, -0.000261625, -0.0003124362, 0.002029415
 106893892, -0.2, -0.18, 0.22, 558.34, 33.6216408, 72.955685, 0.9999951, -0.001745799, -0.001629042, 0.002004115
 106993852, -0.25, -0.24, 0.22, 558.51, 33.6216408, 72.955685, 0.9999933, -0.002230838, -0.002108973, 0.001968074
 107093812, -0.23, -0.23, 0.22, 558.7, 33.6216408, 72.955685, 0.999994, -0.00207548, -0.002017759, 0.001929099
 107193772, -0.17, -0.17, 0.21, 558.9, 33.6216408, 72.955685, 0.9999959, -0.001527983, -0.001520815, 0.001889525
 107293732, -0.1, -0.1, 0.21, 559.1, 33.6216408, 72.955685, 0.9999975, -0.0008760787, -0.000904283, 0.001847696
 107394525, -0.03, -0.03, 0.2, 559.31, 33.6216408, 72.955685, 0.9999983, -0.0002996333, -0.0003446851, 0.001802589
 107494485, 0.02, 0, 0.2, 559.53, 33.6216408, 72.9556849, 0.9999985, 0.0001821404, 6.644122E-05, 0.001758295
 107594445, 0.06, 0.04, 0.19, 559.77, 33.6216408, 72.9556849, 0.9999983, 0.0005799338, 0.000381138, 0.001714516
 107694405, 0.09, 0.06, 0.19, 560.02, 33.6216409, 72.9556849, 0.999998, 0.0008699529, 0.0006076017, 0.001676386
 107794365, 0.12, 0.09, 0.18, 560.27, 33.6216409, 72.9556848, 0.9999976, 0.001128254, 0.0008701277, 0.001650276
 107894325, 0.14, 0.13, 0.18, 560.52, 33.6216409, 72.9556848, 0.9999972, 0.00126801, 0.001167337, 0.001631699
 107994285, 0.16, 0.15, 0.18, 560.79, 33.6216409, 72.9556847, 0.9999967, 0.001467679, 0.001370164, 0.001622397
 108094245, 0.18, 0.16, 0.18, 561.06, 33.621641, 72.9556848, 0.9999963, 0.001630881, 0.001450317, 0.001620528
 108194205, 0.2, 0.17, 0.18, 561.34, 33.621641, 72.9556848, 0.9999959, 0.001780498, 0.001521474, 0.001622899
 108294165, 0.21, 0.18, 0.18, 561.62, 33.6216411, 72.9556847, 0.9999956, 0.001883492, 0.001609984, 0.00162862
 108394125, 0.22, 0.19, 0.18, 561.89, 33.6216411, 72.9556847, 0.9999953, 0.001943108, 0.00174248, 0.001627349
 108494085, 0.23, 0.2, 0.18, 562.17, 33.6216411, 72.9556846, 0.9999951, 0.002020409, 0.001786834, 0.00162368
 108594045, 0.23, 0.21, 0.18, 562.45, 33.6216411, 72.9556846, 0.9999949, 0.002046642, 0.001841997, 0.001611772
 108694005, 0.23, 0.21, 0.18, 562.72, 33.6216412, 72.9556846, 0.9999949, 0.002045851, 0.0018597, 0.001590658
 108793965, 0.23, 0.21, 0.17, 562.98, 33.6216412, 72.9556846, 0.9999949, 0.00202157, 0.001915416, 0.001565093
 108893925, 0.22, 0.23, 0.17, 563.25, 33.6216412, 72.9556846, 0.9999949, 0.001942859, 0.002011742, 0.001539481
 108993885, 0.21, 0.23, 0.17, 563.52, 33.6216412, 72.9556846, 0.9999949, 0.001869138, 0.002075846, 0.001513702
 109093845, 0.2, 0.22, 0.17, 563.78, 33.6216412, 72.9556846, 0.9999954, 0.001803979, 0.001958767, 0.001483609
 109193805, 0.19, 0.2, 0.16, 564.04, 33.6216412, 72.9556846, 0.9999959, 0.001719913, 0.001789749, 0.001459536
 109293765, 0.19, 0.18, 0.16, 564.29, 33.6216412, 72.9556846, 0.9999962, 0.00166621, 0.001641597, 0.00143869
 109393725, 0.17, 0.17, 0.16, 564.55, 33.6216412, 72.9556846, 0.9999966, 0.001521727, 0.001553163, 0.00141736
 109494518, 0.16, 0.17, 0.16, 564.81, 33.6216412, 72.9556846, 0.9999969, 0.001413752, 0.001500344, 0.001398197
 109594478, 0.16, 0.16, 0.15, 565.06, 33.6216412, 72.9556846, 0.999997, 0.001421927, 0.001421037, 0.001385016
 109694438, 0.16, 0.15, 0.15, 565.31, 33.6216412, 72.9556846, 0.9999971, 0.001413823, 0.001365937, 0.001371839
 109794398, 0.15, 0.15, 0.15, 565.56, 33.6216412, 72.9556846, 0.9999973, 0.00134256, 0.001365285, 0.00134128
 109894358, 0.14, 0.15, 0.14, 565.81, 33.6216412, 72.9556846, 0.9999974, 0.001298033, 0.00137721, 0.001298756
 109994318, 0.12, 0.13, 0.14, 566.06, 33.6216412, 72.9556846, 0.9999979, 0.001095419, 0.001200755, 0.001267638
 110094278, 0.11, 0.12, 0.14, 566.33, 33.6216412, 72.9556846, 0.9999981, 0.001030362, 0.001098161, 0.001237782
 110194238, 0.12, 0.12, 0.13, 566.58, 33.6216412, 72.9556846, 0.999998, 0.001123706, 0.001090394, 0.001212426
 110294198, 0.12, 0.11, 0.13, 566.83, 33.6216412, 72.9556846, 0.9999982, 0.001120825, 0.001030384, 0.00119203
 110394158, 0.13, 0.12, 0.13, 567.09, 33.6216412, 72.9556846, 0.999998, 0.001195418, 0.001118817, 0.001178018
 110494118, 0.12, 0.13, 0.13, 567.34, 33.6216412, 72.9556846, 0.999998, 0.001106664, 0.00113708, 0.001169603
 110594078, 0.11, 0.13, 0.13, 567.61, 33.6216412, 72.9556846, 0.9999982, 0.0009957806, 0.001169258, 0.001160591
 110694038, 0.11, 0.13, 0.13, 567.86, 33.6216412, 72.9556846, 0.9999982, 0.001030758, 0.001140097, 0.001161966
 110793998, 0.12, 0.13, 0.13, 568.11, 33.6216412, 72.9556846, 0.999998, 0.001067758, 0.001183256, 0.001175421
 110893958, 0.12, 0.13, 0.13, 568.36, 33.6216412, 72.9556846, 0.9999979, 0.001106533, 0.001218151, 0.001192097
 110993918, 0.13, 0.14, 0.13, 568.62, 33.6216412, 72.9556846, 0.9999979, 0.001140843, 0.001246664, 0.001204201
 111093878, 0.13, 0.14, 0.13, 568.87, 33.6216412, 72.9556846, 0.9999979, 0.001172196, 0.001228922, 0.001211426
 111193838, 0.13, 0.12, 0.13, 569.13, 33.6216412, 72.9556846, 0.9999979, 0.001199842, 0.001103443, 0.0012157
 111293798, 0.14, 0.1, 0.13, 569.37, 33.6216411, 72.9556846, 0.9999981, 0.001229652, 0.0009198058, 0.001211208
 111393758, 0.13, 0.09, 0.13, 569.63, 33.6216411, 72.9556846, 0.9999983, 0.001142272, 0.0007958065, 0.001179327
 111493718, 0.11, 0.07, 0.13, 569.88, 33.6216411, 72.9556846, 0.9999986, 0.001026862, 0.0006544632, 0.001142537
 111594511, 0.1, 0.06, 0.12, 570.13, 33.6216411, 72.9556846, 0.9999987, 0.0009586967, 0.0006064259, 0.00110318
 111694471, 0.09, 0.06, 0.12, 570.38, 33.6216411, 72.9556846, 0.9999989, 0.0008675708, 0.0005303323, 0.001058943
 111794431, 0.09, 0.05, 0.11, 570.63, 33.6216411, 72.9556846, 0.999999, 0.0008245744, 0.0005031602, 0.001010504
 111894391, 0.09, 0.05, 0.1, 570.88, 33.6216411, 72.9556847, 0.9999991, 0.0008091822, 0.000498245, 0.0009577337
 111994351, 0.09, 0.06, 0.1, 571.13, 33.6216411, 72.9556847, 0.999999, 0.000839775, 0.0005603644, 0.000903233
 112094311, 0.1, 0.07, 0.09, 571.37, 33.621641, 72.9556848, 0.999999, 0.0008747953, 0.0006159253, 0.0008495238
 112194271, 0.08, 0.06, 0.09, 571.62, 33.621641, 72.9556848, 0.9999993, 0.0007246675, 0.0005251553, 0.0008040878
 112294231, 0.07, 0.04, 0.08, 571.87, 33.6216409, 72.9556848, 0.9999995, 0.0006130539, 0.0003934646, 0.0007680557
 112394191, 0.05, 0.03, 0.08, 572.13, 33.6216409, 72.9556848, 0.9999996, 0.0004776578, 0.0002854543, 0.0007502884
 112494151, 0.04, 0.02, 0.08, 572.38, 33.6216409, 72.9556848, 0.9999996, 0.0003928904, 0.0002079447, 0.000763645
 112594111, 0.04, 0.02, 0.09, 572.62, 33.6216409, 72.9556848, 0.9999996, 0.0003591759, 0.000216034, 0.000796569
 112694071, 0.03, 0.01, 0.09, 572.87, 33.6216409, 72.9556848, 0.9999996, 0.000329805, 0.0001566529, 0.0008345603
 112794031, 0.03, 0.01, 0.09, 573.13, 33.6216409, 72.9556848, 0.9999996, 0.0003020629, 9.149608E-05, 0.0008714499
 112893991, 0.04, 0, 0.1, 573.38, 33.6216409, 72.9556848, 0.9999995, 0.0003588843, 4.027595E-05, 0.0008912634
 112993951, 0.04, 0, 0.1, 573.63, 33.6216409, 72.9556848, 0.9999995, 0.0003864567, -1.073248E-05, 0.0008776132
 113093911, 0.04, 0, 0.09, 573.88, 33.6216409, 72.9556849, 0.9999996, 0.0004306845, 5.805211E-05, 0.0008292698
 113193871, 0.05, 0.01, 0.08, 574.13, 33.6216409, 72.9556849, 0.9999996, 0.0004531686, 0.0001635393, 0.0007537163
 113293831, 0.04, 0.02, 0.07, 574.38, 33.6216409, 72.9556849, 0.9999996, 0.0004257564, 0.0002570601, 0.000648885
 113393791, 0.04, 0.02, 0.06, 574.62, 33.6216409, 72.9556849, 0.9999997, 0.0004104857, 0.0002529839, 0.0005394834
 113493751, 0.04, 0.03, 0.05, 574.87, 33.6216409, 72.9556849, 0.9999998, 0.0003933816, 0.0003087489, 0.0004387466
 113593711, 0.04, 0.03, 0.04, 575.13, 33.6216409, 72.9556849, 0.9999998, 0.0003683396, 0.0003427812, 0.0003510306
 113694504, 0.04, 0.04, 0.03, 575.38, 33.6216409, 72.9556849, 0.9999998, 0.0003984956, 0.0003923516, 0.0002757112
 113794464, 0.04, 0.04, 0.02, 575.63, 33.6216409, 72.9556849, 0.9999998, 0.0003724121, 0.0004251124, 0.000214693
 113894424, 0.04, 0.05, 0.02, 575.88, 33.6216409, 72.9556849, 0.9999998, 0.0003544565, 0.000446924, 0.0001756867
 113994384, 0.04, 0.05, 0.02, 576.13, 33.6216409, 72.9556849, 0.9999998, 0.0003586044, 0.0005003948, 0.0001793124
 114094344, 0.04, 0.06, 0.02, 576.39, 33.6216409, 72.9556849, 0.9999998, 0.0003562901, 0.0005483817, 0.0002219688
 114194304, 0.03, 0.06, 0.03, 576.63, 33.6216409, 72.9556849, 0.9999998, 0.0003255813, 0.0005502952, 0.0002832088
 114294264, 0.04, 0.05, 0.03, 576.88, 33.6216409, 72.9556849, 0.9999998, 0.0003953777, 0.0004837515, 0.000343437
 114394224, 0.05, 0.05, 0.04, 577.13, 33.6216409, 72.9556849, 0.9999997, 0.0004502583, 0.0004912725, 0.0003856754
 114494184, 0.04, 0.05, 0.04, 577.38, 33.6216409, 72.9556849, 0.9999997, 0.0004314518, 0.0004825698, 0.0004002089
 114594144, 0.04, 0.05, 0.04, 577.63, 33.6216409, 72.9556849, 0.9999997, 0.0004124198, 0.000485418, 0.000397233
 114694104, 0.04, 0.05, 0.04, 577.88, 33.6216409, 72.9556849, 0.9999998, 0.0004225274, 0.0005094005, 0.0003652387
 114794064, 0.05, 0.05, 0.03, 578.13, 33.6216409, 72.9556849, 0.9999997, 0.0004744643, 0.000497165, 0.0002978113
 114894024, 0.06, 0.05, 0.02, 578.38, 33.6216409, 72.9556848, 0.9999997, 0.0005571808, 0.000506267, 0.000196034
 114993984, 0.07, 0.05, 0, 578.63, 33.6216409, 72.9556848, 0.9999996, 0.0006172322, 0.0005199352, 7.974219E-05
 115093944, 0.07, 0.06, 359.99, 578.87, 33.621641, 72.9556848, 0.9999996, 0.000677984, 0.0005303756, -3.776705E-05
 115193904, 0.08, 0.06, 359.98, 579.12, 33.621641, 72.9556848, 0.9999996, 0.0007084206, 0.0005914369, -0.0001258155
 115293864, 0.08, 0.07, 359.97, 579.38, 33.6216411, 72.9556848, 0.9999995, 0.0007308882, 0.0006313251, -0.0001765169
 115393824, 0.09, 0.08, 359.97, 579.63, 33.6216411, 72.9556848, 0.9999994, 0.0008147502, 0.0007193666, -0.0001909672
 115493784, 0.09, 0.09, 359.97, 579.87, 33.6216411, 72.9556847, 0.9999993, 0.0008389457, 0.0008091396, -0.0001804438
 115593744, 0.1, 0.1, 359.98, 580.12, 33.6216411, 72.9556847, 0.9999992, 0.0008862318, 0.0008883341, -0.0001395154
 115693704, 0.1, 0.1, 359.98, 580.37, 33.6216411, 72.9556846, 0.9999991, 0.0009505146, 0.0009395742, -9.581452E-05
 115794497, 0.11, 0.11, 359.99, 580.61, 33.6216411, 72.9556846, 0.9999989, 0.001030404, 0.001017265, -5.848318E-05
 115894457, 0.12, 0.12, 359.99, 580.86, 33.6216411, 72.9556846, 0.9999989, 0.001083522, 0.001055635, -3.313298E-05
 115994417, 0.12, 0.12, 359.99, 581.11, 33.6216411, 72.9556846, 0.9999989, 0.001106928, 0.001053505, -4.221928E-05
 116094377, 0.13, 0.12, 359.99, 581.36, 33.6216412, 72.9556846, 0.9999988, 0.001135862, 0.001053753, -7.3457E-05
 116194337, 0.13, 0.12, 359.98, 581.61, 33.6216412, 72.9556846, 0.9999987, 0.001146484, 0.001093134, -0.000121825
 116294297, 0.13, 0.12, 359.98, 581.86, 33.6216412, 72.9556846, 0.9999987, 0.001150885, 0.001100558, -0.0001722815
 116394257, 0.13, 0.12, 359.97, 582.1, 33.6216412, 72.9556846, 0.9999987, 0.001158185, 0.00109812, -0.0002210539
 116494217, 0.12, 0.12, 359.96, 582.35, 33.6216412, 72.9556846, 0.9999987, 0.001118574, 0.001104587, -0.0002677281
 116594177, 0.12, 0.12, 359.96, 582.61, 33.6216412, 72.9556846, 0.9999987, 0.001107397, 0.001101211, -0.0003133772
 116694137, 0.11, 0.11, 359.95, 582.85, 33.6216412, 72.9556846, 0.9999989, 0.00103371, 0.001038975, -0.0003505154
 116794097, 0.11, 0.11, 359.95, 583.1, 33.6216412, 72.9556846, 0.9999989, 0.001029828, 0.001030953, -0.0003826701
 116894057, 0.11, 0.11, 359.95, 583.35, 33.6216412, 72.9556846, 0.9999989, 0.0009795567, 0.001011786, -0.0004093625
 116994017, 0.1, 0.11, 359.95, 583.61, 33.6216412, 72.9556846, 0.999999, 0.0009269756, 0.0009781717, -0.000430739
 117093977, 0.09, 0.1, 359.94, 583.86, 33.6216412, 72.9556846, 0.9999991, 0.0008267786, 0.0009278933, -0.0004457913
 117193937, 0.09, 0.1, 359.94, 584.11, 33.6216412, 72.9556846, 0.9999992, 0.0007935878, 0.0008975221, -0.0004604084
 117293897, 0.09, 0.1, 359.94, 584.38, 33.6216412, 72.9556846, 0.999999, 0.0008583561, 0.0009496814, -0.0004746203
 117393857, 0.09, 0.1, 359.94, 584.63, 33.6216412, 72.9556846, 0.999999, 0.0008712178, 0.0009325763, -0.0004864115
 117493817, 0.09, 0.09, 359.94, 584.88, 33.6216412, 72.9556845, 0.9999991, 0.0008498714, 0.0008674338, -0.0004885353
 117593777, 0.1, 0.1, 359.94, 585.14, 33.6216412, 72.9556845, 0.9999991, 0.0008863127, 0.0009014735, -0.0004885687
 117693737, 0.11, 0.1, 359.94, 585.38, 33.6216413, 72.9556844, 0.9999989, 0.0009651619, 0.0009479432, -0.0004899818
 117794530, 0.11, 0.12, 359.94, 585.62, 33.6216413, 72.9556844, 0.9999987, 0.00102695, 0.001120542, -0.0004964016
 117894490, 0.12, 0.12, 359.94, 585.88, 33.6216413, 72.9556844, 0.9999986, 0.001127533, 0.001118441, -0.0005183353
 117994450, 0.13, 0.13, 359.93, 586.13, 33.6216413, 72.9556844, 0.9999984, 0.001219474, 0.001159492, -0.0005438682
 118094410, 0.14, 0.12, 359.93, 586.37, 33.6216413, 72.9556844, 0.9999984, 0.001284067, 0.001132154, -0.0005781674
 118194370, 0.14, 0.12, 359.93, 586.62, 33.6216413, 72.9556844, 0.9999984, 0.001307896, 0.001085645, -0.000600024
 118294330, 0.15, 0.11, 359.92, 586.86, 33.6216413, 72.9556844, 0.9999984, 0.001333828, 0.001018606, -0.000620511
 118394290, 0.14, 0.1, 359.92, 587.11, 33.6216413, 72.9556844, 0.9999985, 0.001272917, 0.000958658, -0.0006438654
 118494250, 0.12, 0.1, 359.92, 587.35, 33.6216413, 72.9556844, 0.9999987, 0.001124168, 0.000918709, -0.000648565
 118594210, 0.11, 0.1, 359.92, 587.61, 33.6216413, 72.9556844, 0.9999989, 0.0009861639, 0.0008958517, -0.0006477758
 118694170, 0.11, 0.1, 359.92, 587.85, 33.6216413, 72.9556844, 0.9999988, 0.00103235, 0.0009209775, -0.0006452439
 118794130, 0.12, 0.11, 359.92, 588.1, 33.6216413, 72.9556844, 0.9999987, 0.001110623, 0.0009796646, -0.000646818
 118894090, 0.13, 0.11, 359.92, 588.36, 33.6216413, 72.9556844, 0.9999986, 0.001174923, 0.0009908993, -0.0006555925
 118994050, 0.13, 0.11, 359.92, 588.6, 33.6216413, 72.9556844, 0.9999986, 0.001167508, 0.0009832147, -0.0006699221
 119094010, 0.12, 0.11, 359.92, 588.85, 33.6216413, 72.9556844, 0.9999986, 0.001116222, 0.0009897398, -0.0006894473
 119193970, 0.12, 0.11, 359.91, 589.09, 33.6216413, 72.9556844, 0.9999986, 0.001124664, 0.0009784536, -0.0007152781
 119293930, 0.12, 0.11, 359.91, 589.34, 33.6216413, 72.9556844, 0.9999986, 0.001101028, 0.0009606456, -0.0007420957
 119393890, 0.12, 0.11, 359.91, 589.59, 33.6216413, 72.9556844, 0.9999987, 0.001077087, 0.0009621404, -0.000776218
 119493850, 0.12, 0.11, 359.9, 589.84, 33.6216413, 72.9556844, 0.9999986, 0.001088776, 0.0009713944, -0.0008149672
 119593810, 0.12, 0.1, 359.9, 590.08, 33.6216413, 72.9556844, 0.9999986, 0.001086398, 0.0009547364, -0.0008525536
 119693770, 0.12, 0.1, 359.89, 590.34, 33.6216413, 72.9556844, 0.9999986, 0.001079051, 0.0009399751, -0.0008800555
 119793730, 0.11, 0.11, 359.89, 590.59, 33.6216413, 72.9556844, 0.9999986, 0.001039846, 0.0009721005, -0.0008842431
 119894523, 0.11, 0.1, 359.9, 590.84, 33.6216413, 72.9556844, 0.9999986, 0.001039661, 0.000946281, -0.0008643865
 119994483, 0.12, 0.11, 359.9, 591.08, 33.6216413, 72.9556844, 0.9999986, 0.001057639, 0.0009744199, -0.0008363209
 120094443, 0.11, 0.11, 359.9, 591.33, 33.6216413, 72.9556844, 0.9999987, 0.0009860659, 0.001015482, -0.0008212192
 120194403, 0.1, 0.12, 359.9, 591.59, 33.6216413, 72.9556844, 0.9999986, 0.0009191312, 0.001097995, -0.0008162173
 120294363, 0.09, 0.11, 359.9, 591.84, 33.6216413, 72.9556844, 0.9999987, 0.0008727408, 0.001035671, -0.0008172083
 120394323, 0.09, 0.11, 359.9, 592.08, 33.6216413, 72.9556844, 0.9999988, 0.0008695624, 0.0009784775, -0.0008175896
 120494283, 0.1, 0.1, 359.9, 592.33, 33.6216413, 72.9556844, 0.9999988, 0.0009275206, 0.0009191958, -0.0008244316
 120594243, 0.11, 0.09, 359.9, 592.58, 33.6216413, 72.9556844, 0.9999987, 0.001033956, 0.0008638971, -0.0008627659
 120694203, 0.12, 0.1, 359.89, 592.83, 33.6216413, 72.9556844, 0.9999986, 0.001063416, 0.0008983735, -0.0009336098
 120794163, 0.12, 0.1, 359.88, 593.08, 33.6216413, 72.9556844, 0.9999985, 0.001107916, 0.0009274859, -0.001013215
 120894123, 0.12, 0.1, 359.87, 593.32, 33.6216413, 72.9556844, 0.9999984, 0.001079029, 0.0009053337, -0.001095881
 120994083, 0.13, 0.1, 359.86, 593.58, 33.6216413, 72.9556844, 0.9999982, 0.001169735, 0.0009368852, -0.001162813
 121094043, 0.12, 0.1, 359.86, 593.83, 33.6216412, 72.9556844, 0.9999983, 0.001099478, 0.0008731281, -0.001215491
 121194003, 0.11, 0.09, 359.85, 594.08, 33.6216412, 72.9556844, 0.9999983, 0.001031246, 0.0008440556, -0.001267456
 121293963, 0.11, 0.08, 359.85, 594.32, 33.6216412, 72.9556844, 0.9999984, 0.0009675174, 0.0007798083, -0.001304131
 121393923, 0.1, 0.09, 359.85, 594.57, 33.6216412, 72.9556844, 0.9999984, 0.0009494663, 0.0008063574, -0.001305727
 121493883, 0.1, 0.08, 359.85, 594.83, 33.6216412, 72.9556845, 0.9999985, 0.0009364926, 0.0007816477, -0.001273148
 121593843, 0.1, 0.09, 359.86, 595.07, 33.6216412, 72.9556845, 0.9999985, 0.0009153393, 0.0007918058, -0.001218721
 121693803, 0.09, 0.08, 359.86, 595.32, 33.6216412, 72.9556846, 0.9999987, 0.0008494994, 0.0007488707, -0.001161493
 121793763, 0.08, 0.08, 359.87, 595.57, 33.6216412, 72.9556846, 0.9999989, 0.0007653757, 0.0007047353, -0.00110789
 121893723, 0.07, 0.07, 359.87, 595.82, 33.6216412, 72.9556846, 0.999999, 0.0006808743, 0.0006653215, -0.001066779
 121994516, 0.08, 0.07, 359.88, 596.06, 33.6216412, 72.9556846, 0.999999, 0.0007216581, 0.0006310982, -0.00104344
 122094476, 0.07, 0.06, 359.88, 596.31, 33.6216412, 72.9556846, 0.999999, 0.0006679503, 0.0005922629, -0.001027727
 122194436, 0.06, 0.06, 359.88, 596.57, 33.6216412, 72.9556846, 0.9999991, 0.0005918774, 0.0005574356, -0.001030854
 122294396, 0.06, 0.06, 359.88, 596.81, 33.6216412, 72.9556846, 0.9999991, 0.0005682128, 0.0006048246, -0.001034764
 122394356, 0.06, 0.08, 359.88, 597.06, 33.6216412, 72.9556846, 0.999999, 0.0005810774, 0.0007633074, -0.00103436
 122494316, 0.06, 0.09, 359.87, 597.31, 33.6216412, 72.9556846, 0.9999989, 0.0005921687, 0.0008368057, -0.001056442
 122594276, 0.06, 0.1, 359.87, 597.55, 33.6216412, 72.9556846, 0.9999988, 0.0005743288, 0.0008803952, -0.001115826
 122694236, 0.06, 0.1, 359.86, 597.8, 33.6216412, 72.9556846, 0.9999987, 0.0005626872, 0.0008976407, -0.001185556
 122794196, 0.06, 0.1, 359.85, 598.05, 33.6216412, 72.9556846, 0.9999986, 0.0005780396, 0.0009042197, -0.001264438
 122894156, 0.06, 0.1, 359.84, 598.31, 33.6216411, 72.9556846, 0.9999985, 0.0005970038, 0.0008988457, -0.001362107
 122994116, 0.07, 0.09, 359.83, 598.56, 33.6216411, 72.9556846, 0.9999983, 0.0006510061, 0.0008361645, -0.001466019
 123094076, 0.07, 0.08, 359.82, 598.8, 33.6216411, 72.9556846, 0.9999983, 0.000632088, 0.000737921, -0.001555458
 123194036, 0.07, 0.08, 359.81, 599.05, 33.6216411, 72.9556846, 0.9999982, 0.0006459526, 0.0007124175, -0.001615843
 123293996, 0.08, 0.07, 359.81, 599.31, 33.6216411, 72.9556846, 0.9999982, 0.0007167521, 0.0006631869, -0.001639242
 123393956, 0.08, 0.07, 359.81, 599.55, 33.6216411, 72.9556846, 0.9999982, 0.000779034, 0.0006312695, -0.001644104
 123493916, 0.09, 0.06, 359.81, 599.81, 33.6216411, 72.9556846, 0.9999982, 0.0007984894, 0.0006008394, -0.001638319
 123593876, 0.09, 0.06, 359.81, 600.06, 33.6216411, 72.9556846, 0.9999982, 0.0008044231, 0.0006074714, -0.001628369
 123693836, 0.09, 0.06, 359.81, 600.3, 33.6216411, 72.9556846, 0.9999982, 0.0008097487, 0.0005906319, -0.00161782
 123793796, 0.09, 0.06, 359.81, 600.55, 33.6216411, 72.9556846, 0.9999982, 0.0008240233, 0.0006031216, -0.001607199
 123893756, 0.09, 0.06, 359.81, 600.8, 33.6216411, 72.9556846, 0.9999982, 0.00086518, 0.000571794, -0.001598054
 123993716, 0.1, 0.06, 359.81, 601.06, 33.6216411, 72.9556846, 0.9999982, 0.0008880218, 0.0005577902, -0.001591987
 124094509, 0.09, 0.06, 359.81, 601.31, 33.6216411, 72.9556846, 0.9999982, 0.0008725805, 0.0005455076, -0.001589232
 124194469, 0.1, 0.06, 359.81, 601.56, 33.6216411, 72.9556846, 0.9999982, 0.0008832007, 0.0005756382, -0.001590046
 124294429, 0.1, 0.07, 359.81, 601.81, 33.6216411, 72.9556846, 0.999998, 0.0009183452, 0.0006502249, -0.001613278
 124394389, 0.1, 0.07, 359.81, 602.05, 33.6216411, 72.9556846, 0.999998, 0.0009150665, 0.00069545, -0.001656332
 124494349, 0.1, 0.08, 359.8, 602.3, 33.6216411, 72.9556846, 0.9999979, 0.0008968629, 0.0007172093, -0.001700017
 124594309, 0.1, 0.08, 359.8, 602.55, 33.6216411, 72.9556846, 0.9999978, 0.0008910572, 0.0007119486, -0.001740498
 124694269, 0.1, 0.08, 359.79, 602.79, 33.6216411, 72.9556846, 0.9999978, 0.0008821012, 0.0007111291, -0.001775142
 124794229, 0.1, 0.07, 359.79, 603.04, 33.6216411, 72.9556846, 0.9999977, 0.0008805678, 0.0006877462, -0.001809149
 124894189, 0.1, 0.08, 359.78, 603.28, 33.6216411, 72.9556846, 0.9999976, 0.0008899639, 0.0007215326, -0.001839907
 124994149, 0.11, 0.08, 359.78, 603.51, 33.6216411, 72.9556846, 0.9999975, 0.0009938093, 0.0007196223, -0.001861055
 125094109, 0.11, 0.08, 359.78, 603.73, 33.6216411, 72.9556846, 0.9999974, 0.001028038, 0.0007553462, -0.001877269
 125194069, 0.11, 0.08, 359.78, 603.95, 33.6216411, 72.9556846, 0.9999974, 0.001013348, 0.0007650172, -0.001888026
 125294029, 0.11, 0.09, 359.78, 604.17, 33.6216411, 72.9556846, 0.9999974, 0.0009672543, 0.0008049869, -0.001898937
 125393989, 0.1, 0.09, 359.78, 604.37, 33.6216411, 72.9556846, 0.9999974, 0.0009391681, 0.000793642, -0.001915743
 125493949, 0.1, 0.09, 359.77, 604.58, 33.6216411, 72.9556846, 0.9999974, 0.0009140691, 0.0007943243, -0.001924513
 125593909, 0.1, 0.09, 359.77, 604.77, 33.6216411, 72.9556846, 0.9999974, 0.0009345601, 0.0007946889, -0.001926722
 125693869, 0.11, 0.08, 359.77, 604.96, 33.6216411, 72.9556846, 0.9999973, 0.0009814297, 0.0007808188, -0.001924453
 125793829, 0.11, 0.09, 359.78, 605.15, 33.6216411, 72.9556846, 0.9999974, 0.0009721214, 0.0008154687, -0.00191236
 125893789, 0.11, 0.09, 359.78, 605.32, 33.6216411, 72.9556846, 0.9999974, 0.0009667596, 0.0008239694, -0.001904602
 125993749, 0.1, 0.1, 359.78, 605.49, 33.6216411, 72.9556846, 0.9999974, 0.0008941778, 0.0009008633, -0.001894767
 126093709, 0.09, 0.1, 359.78, 605.66, 33.6216411, 72.9556846, 0.9999974, 0.000847917, 0.0009211548, -0.001886526
 126194502, 0.08, 0.09, 359.78, 605.82, 33.6216411, 72.9556846, 0.9999976, 0.0007407065, 0.000810177, -0.001878359
 126294462, 0.08, 0.09, 359.78, 605.97, 33.6216411, 72.9556846, 0.9999976, 0.0007690935, 0.0008216477, -0.001873277
 126394422, 0.1, 0.1, 359.78, 606.12, 33.6216411, 72.9556846, 0.9999974, 0.0008923889, 0.0008856347, -0.001871868
 126494382, 0.1, 0.1, 359.78, 606.27, 33.6216411, 72.9556846, 0.9999975, 0.0008768072, 0.0008776038, -0.001873896
 126594342, 0.09, 0.1, 359.78, 606.41, 33.6216411, 72.9556846, 0.9999975, 0.0007952327, 0.0008808466, -0.001879959
 126694302, 0.08, 0.1, 359.78, 606.54, 33.6216411, 72.9556846, 0.9999975, 0.0007735353, 0.000891921, -0.0018868
 126794262, 0.09, 0.09, 359.78, 606.67, 33.6216411, 72.9556846, 0.9999975, 0.0008310091, 0.0008132775, -0.001899818
 126894222, 0.1, 0.08, 359.78, 606.78, 33.6216411, 72.9556846, 0.9999975, 0.0009058248, 0.0007373942, -0.001911114
 126994182, 0.1, 0.08, 359.77, 606.91, 33.6216411, 72.9556846, 0.9999974, 0.0009441039, 0.0007453718, -0.001932202
 127094142, 0.1, 0.08, 359.77, 607.01, 33.6216411, 72.9556846, 0.9999973, 0.0009586462, 0.0007598177, -0.001955889
 127194102, 0.09, 0.08, 359.77, 607.12, 33.6216411, 72.9556846, 0.9999974, 0.0008424885, 0.0007546304, -0.001984191
 127294062, 0.09, 0.08, 359.76, 607.22, 33.6216411, 72.9556846, 0.9999974, 0.0007937416, 0.000728143, -0.002012062
 127394022, 0.09, 0.08, 359.76, 607.32, 33.6216411, 72.9556846, 0.9999973, 0.0008193725, 0.0007124518, -0.002036058
 127493982, 0.09, 0.07, 359.76, 607.4, 33.6216411, 72.9556846, 0.9999973, 0.000813945, 0.0006817225, -0.002061399
 127593942, 0.09, 0.08, 359.76, 607.48, 33.6216411, 72.9556846, 0.9999972, 0.0008345129, 0.0007112432, -0.002085109
 127693902, 0.09, 0.09, 359.75, 607.57, 33.6216411, 72.9556846, 0.9999971, 0.0008123829, 0.0007893411, -0.002104052
 127793862, 0.09, 0.09, 359.75, 607.63, 33.6216411, 72.9556846, 0.999997, 0.0008429014, 0.0008386251, -0.002126734
 127893822, 0.09, 0.09, 359.75, 607.71, 33.6216411, 72.9556846, 0.999997, 0.0008459364, 0.0008438054, -0.002147709
 127993782, 0.09, 0.09, 359.75, 607.77, 33.6216411, 72.9556846, 0.9999969, 0.0008548918, 0.0008540449, -0.002167015
 128093742, 0.09, 0.08, 359.75, 607.82, 33.6216411, 72.9556846, 0.999997, 0.0007945265, 0.0007396545, -0.00218052
 128193702, 0.08, 0.08, 359.74, 607.86, 33.6216411, 72.9556846, 0.999997, 0.0007784264, 0.0007771754, -0.002191868
 128294495, 0.09, 0.08, 359.74, 607.91, 33.6216411, 72.9556846, 0.999997, 0.000809704, 0.0007410552, -0.002198054
 128394455, 0.09, 0.08, 359.74, 607.95, 33.6216411, 72.9556846, 0.999997, 0.0008419266, 0.0007228444, -0.002203514
 128494415, 0.1, 0.08, 359.74, 607.98, 33.6216411, 72.9556846, 0.9999968, 0.0009028087, 0.0007624539, -0.002213899
 128594375, 0.1, 0.09, 359.74, 608, 33.6216411, 72.9556846, 0.9999967, 0.0009554243, 0.0008210678, -0.002222511
 128694335, 0.11, 0.08, 359.74, 608.01, 33.6216411, 72.9556846, 0.9999967, 0.001004443, 0.0007482495, -0.002233403
 128794295, 0.13, -0.02, 359.74, 608.02, 33.6216411, 72.9556846, 0.9999968, 0.001163143, -0.0001828666, -0.002246353
 128894255, 0.17, -0.33, 359.74, 608.01, 33.6216411, 72.9556846, 0.9999919, 0.001521944, -0.002970184, -0.002262309
 128994215, 0.24, -0.85, 359.73, 608.01, 33.6216411, 72.9556846, 0.9999673, 0.002148218, -0.007455923, -0.002277995
 129094175, 0.33, -1.45, 359.73, 608, 33.6216411, 72.9556846, 0.9999125, 0.002854231, -0.01271185, -0.002289925
 129194135, 0.41, -2.04, 359.72, 607.99, 33.6216411, 72.9556846, 0.999832, 0.003547389, -0.01783343, -0.002300914
 129294095, 0.48, -2.6, 359.72, 607.99, 33.6216411, 72.9556846, 0.9997297, 0.004181931, -0.02275324, -0.002307364
 129394055, 0.55, -3.11, 359.72, 607.98, 33.6216412, 72.9556846, 0.9996154, 0.004818329, -0.02721207, -0.002308554
 129494015, 0.63, -3.6, 359.71, 607.98, 33.6216414, 72.9556846, 0.9994882, 0.005455569, -0.03143619, -0.002301379
 129593975, 0.7, -4.06, 359.71, 607.99, 33.6216415, 72.9556846, 0.9993494, 0.006037883, -0.03548334, -0.00228491
 129693935, 0.77, -4.51, 359.71, 607.99, 33.6216418, 72.9556846, 0.9991969, 0.006701415, -0.03944091, -0.002242783
 129793895, 0.85, -4.98, 359.71, 608.01, 33.6216419, 72.9556846, 0.9990253, 0.007355169, -0.04346871, -0.002176861
 129893855, 0.94, -5.45, 359.71, 608.03, 33.6216425, 72.9556847, 0.9988331, 0.008095092, -0.04756821, -0.002064652
 129993815, 1.02, -5.92, 359.78, 608.05, 33.6216428, 72.9556847, 0.9986213, 0.008834491, -0.05172531, -0.001388164
 130093775, 1.07, -6.41, 0.2, 608.08, 33.6216436, 72.9556848, 0.9983869, 0.009428435, -0.05594325, 0.002265515
 130193735, 1.05, -6.91, 1.13, 608.13, 33.6216441, 72.9556849, 0.9980813, 0.009766791, -0.06024338, 0.01044035
 130294528, 0.95, -7.44, 2.52, 608.17, 33.6216451, 72.9556851, 0.9976025, 0.009776082, -0.06469322, 0.02254783
 130394488, 0.8, -7.96, 4.23, 608.22, 33.6216457, 72.9556852, 0.9968615, 0.009563855, -0.069162, 0.03731473
 130494448, 0.59, -8.51, 6.08, 608.27, 33.621647, 72.9556854, 0.9957966, 0.009085853, -0.0738964, 0.05334731
 130594408, 0.35, -9.09, 7.96, 608.35, 33.6216478, 72.9556855, 0.9944235, 0.008599385, -0.07886238, 0.06948878
 130694368, 0.08, -9.68, 9.73, 608.42, 33.6216493, 72.9556858, 0.9928269, 0.007943195, -0.08407357, 0.08463653
 130794328, -0.17, -10.28, 11.29, 608.49, 33.6216503, 72.955686, 0.9911478, 0.007352167, -0.08936729, 0.09790585
 130894288, -0.41, -10.89, 12.56, 608.58, 33.621652, 72.9556862, 0.9895333, 0.006827445, -0.09476195, 0.1086162
 130994248, -0.61, -11.51, 13.48, 608.68, 33.6216533, 72.9556865, 0.9881212, 0.006493735, -0.1002263, 0.1163147
 131094208, -0.75, -12.07, 14.03, 608.78, 33.6216554, 72.9556869, 0.9870635, 0.006386371, -0.1052242, 0.1208007
 131194168, -0.8, -12.5, 14.19, 608.91, 33.6216569, 72.9556871, 0.9865012, 0.006539547, -0.108917, 0.1221052
 131294128, -0.78, -12.77, 14.01, 609.04, 33.6216593, 72.9556877, 0.9864415, 0.006770156, -0.1112459, 0.1204643
 131394088, -0.7, -12.99, 13.52, 609.17, 33.6216611, 72.955688, 0.9867288, 0.007268738, -0.1130979, 0.1162852
 131494048, -0.56, -13.09, 12.78, 609.32, 33.621664, 72.9556885, 0.9873457, 0.007869166, -0.1138857, 0.1100757
 131594008, -0.36, -13.04, 11.88, 609.47, 33.6216661, 72.9556889, 0.9882179, 0.008578428, -0.1133547, 0.1024814
 131693968, -0.16, -12.88, 10.88, 609.63, 33.6216691, 72.9556896, 0.9892172, 0.009216729, -0.1118265, 0.0941235
 131793928, 0.02, -12.67, 9.89, 609.8, 33.6216715, 72.95569, 0.9901854, 0.009742421, -0.1099647, 0.0857072
 131893888, 0.18, -12.52, 8.95, 609.99, 33.6216749, 72.9556907, 0.9909869, 0.0101457, -0.1085851, 0.07779077
 131993848, 0.32, -12.4, 8.14, 610.18, 33.6216776, 72.9556912, 0.9916144, 0.01047475, -0.1075453, 0.07088806
 132093808, 0.42, -12.29, 7.49, 610.38, 33.6216811, 72.9556919, 0.9920899, 0.01066175, -0.1066263, 0.06538124
 132193768, 0.47, -12.2, 7.04, 610.58, 33.621684, 72.9556925, 0.9924223, 0.01067846, -0.105829, 0.06151563
 132293728, 0.47, -12.11, 6.79, 610.79, 33.6216877, 72.9556932, 0.9926314, 0.01032848, -0.1051272, 0.05936709
 132394521, 0.42, -12.03, 6.75, 611, 33.6216909, 72.9556938, 0.9927351, 0.00984021, -0.1044146, 0.05897168
 132494481, 0.35, -11.92, 6.9, 611.22, 33.6216946, 72.9556946, 0.9927614, 0.009349979, -0.1034956, 0.06021626
 132594441, 0.26, -11.81, 7.21, 611.45, 33.621698, 72.9556952, 0.9926954, 0.008774936, -0.1026121, 0.06284618
 132694401, 0.15, -11.71, 7.65, 611.68, 33.6217019, 72.9556959, 0.9925469, 0.008116496, -0.1017714, 0.06653846
 132794361, 0.03, -11.62, 8.17, 611.91, 33.6217055, 72.9556966, 0.9923257, 0.007487508, -0.1009763, 0.07097465
 132894321, -0.08, -11.5, 8.74, 612.15, 33.6217095, 72.9556974, 0.9920731, 0.006866586, -0.1000343, 0.07574366
 132994281, -0.2, -11.36, 9.3, 612.39, 33.6217131, 72.9556981, 0.9918205, 0.006270085, -0.098845, 0.08051436
 133094241, -0.29, -11.2, 9.82, 612.63, 33.6217171, 72.9556988, 0.9915835, 0.005800957, -0.09751695, 0.08496442
 133194201, -0.36, -11.01, 10.27, 612.87, 33.6217209, 72.9556995, 0.9914046, 0.005417168, -0.09589652, 0.0888337
 133294161, -0.41, -10.8, 10.63, 613.13, 33.6217251, 72.9557002, 0.9912973, 0.005150721, -0.09408295, 0.09193242
 133394121, -0.43, -10.57, 10.88, 613.38, 33.621729, 72.9557009, 0.9912851, 0.00499257, -0.09205324, 0.09410224
 133494081, -0.43, -10.32, 11.02, 613.63, 33.6217331, 72.9557017, 0.9913656, 0.004912, -0.08992707, 0.09530615
 133594041, -0.4, -10.02, 11.04, 613.88, 33.6217371, 72.9557025, 0.9915754, 0.004914466, -0.08731956, 0.09554824
 133694001, -0.36, -9.77, 10.96, 614.13, 33.6217414, 72.9557031, 0.9918307, 0.005017768, -0.08509976, 0.09489319
 133793961, -0.31, -9.66, 10.78, 614.38, 33.6217453, 72.9557039, 0.9920526, 0.005197505, -0.08410734, 0.09343822
 133893921, -0.26, -9.69, 10.54, 614.62, 33.6217495, 72.9557045, 0.992218, 0.005493521, -0.08439776, 0.09137985
 133993881, -0.19, -9.83, 10.25, 614.88, 33.6217536, 72.9557052, 0.9923431, 0.005950456, -0.08551182, 0.0889244
 134093841, -0.12, -9.97, 9.94, 615.13, 33.6217577, 72.955706, 0.9924698, 0.00644215, -0.08672693, 0.08625817
 134193801, -0.06, -10.06, 9.63, 615.38, 33.6217618, 72.9557067, 0.9926363, 0.006789898, -0.08742219, 0.08357349
 134293761, -0.01, -10.12, 9.33, 615.62, 33.6217659, 72.9557074, 0.9927959, 0.007082824, -0.0879581, 0.08105233
 134393721, 0.03, -10.17, 9.07, 615.88, 33.62177, 72.9557081, 0.992933, 0.007302393, -0.08839668, 0.0788471
 134494514, 0.07, -10.19, 8.86, 616.13, 33.6217742, 72.9557089, 0.9930568, 0.007491476, -0.08856211, 0.07706416
 134594474, 0.11, -10.19, 8.72, 616.37, 33.6217784, 72.9557096, 0.9931539, 0.0077344, -0.08852662, 0.07581918
 134694434, 0.11, -10.18, 8.63, 616.62, 33.6217826, 72.9557103, 0.9932187, 0.007674316, -0.08842175, 0.07509572
 134794394, 0.1, -10.18, 8.61, 616.87, 33.6217868, 72.9557111, 0.9932346, 0.007585185, -0.08842614, 0.0748878
 134894354, 0.08, -10.19, 8.64, 617.12, 33.621791, 72.9557118, 0.9932071, 0.00746714, -0.08850987, 0.07516595
 134994314, 0.07, -10.21, 8.73, 617.36, 33.6217951, 72.9557126, 0.9931331, 0.007423901, -0.08870987, 0.07590887
 135094274, 0.06, -10.23, 8.86, 617.61, 33.6217994, 72.9557134, 0.9930357, 0.007443454, -0.08886423, 0.07699248
 135194234, 0.04, -10.23, 9.01, 617.86, 33.6218036, 72.9557141, 0.9929305, 0.007418579, -0.08888572, 0.07831594
 135294194, 0.01, -10.22, 9.18, 618.1, 33.6218078, 72.9557149, 0.9928277, 0.007271379, -0.08879466, 0.07972277
 135394154, 0, -10.18, 9.34, 618.35, 33.6218121, 72.9557156, 0.992739, 0.007230371, -0.08850523, 0.08114139
 135494114, -0.01, -10.19, 9.49, 618.6, 33.6218163, 72.9557163, 0.9926304, 0.007181133, -0.08852807, 0.08243916
 135594074, -0.02, -10.2, 9.62, 618.84, 33.6218205, 72.955717, 0.9925286, 0.007212685, -0.0886198, 0.08355615
 135694034, -0.01, -10.16, 9.72, 619.09, 33.6218248, 72.9557178, 0.9924837, 0.007347256, -0.08825926, 0.08445362
 135793994, 0, -10.1, 9.79, 619.34, 33.621829, 72.9557185, 0.9924743, 0.007501128, -0.08777659, 0.08505102
 135893954, 0, -10.06, 9.82, 619.59, 33.6218333, 72.9557193, 0.9924888, 0.007555607, -0.08736508, 0.08530139
 135993914, 0.02, -10, 9.81, 619.83, 33.6218376, 72.95572, 0.9925361, 0.007677103, -0.08689785, 0.08521688
 136093874, 0.04, -9.99, 9.76, 620.08, 33.6218418, 72.9557208, 0.9925843, 0.007773901, -0.08673239, 0.08481489
 136193834, 0.06, -9.96, 9.68, 620.32, 33.6218461, 72.9557215, 0.992659, 0.00786199, -0.08650278, 0.08416395
 136293794, 0.07, -9.93, 9.58, 620.58, 33.6218504, 72.9557223, 0.9927511, 0.007913971, -0.08626778, 0.08331018
 136393754, 0.09, -9.91, 9.47, 620.81, 33.6218547, 72.955723, 0.9928476, 0.008002586, -0.0860872, 0.08233299
 136493714, 0.11, -9.9, 9.35, 621.07, 33.621859, 72.9557238, 0.9929435, 0.008053581, -0.08596696, 0.08128921
 136594507, 0.13, -9.85, 9.22, 621.31, 33.6218634, 72.9557246, 0.9930643, 0.008116803, -0.08554734, 0.08024435
 136694467, 0.15, -9.81, 9.11, 621.56, 33.6218675, 72.9557254, 0.9931738, 0.008154193, -0.08518738, 0.07926211
 136794427, 0.17, -9.76, 9, 621.81, 33.6218718, 72.9557262, 0.9932801, 0.008174086, -0.08476397, 0.07837642
 136894387, 0.17, -9.75, 8.91, 622.05, 33.6218762, 72.9557269, 0.9933557, 0.008112779, -0.08460904, 0.07758898
 136994347, 0.17, -9.74, 8.83, 622.31, 33.6218805, 72.9557277, 0.9934108, 0.008071353, -0.08457993, 0.07691688
 137094307, 0.17, -9.74, 8.78, 622.55, 33.6218847, 72.9557285, 0.9934545, 0.007984842, -0.08453775, 0.07640506
 137194267, 0.16, -9.73, 8.74, 622.8, 33.6218889, 72.9557293, 0.9934845, 0.007886853, -0.08448027, 0.07608824
 137294227, 0.15, -9.72, 8.73, 623.04, 33.6218933, 72.95573, 0.9935024, 0.007797707, -0.08439269, 0.0759611
 137394187, 0.14, -9.69, 8.73, 623.29, 33.6218975, 72.9557308, 0.9935178, 0.007722378, -0.08418854, 0.07599489
 137494147, 0.13, -9.68, 8.75, 623.54, 33.6219018, 72.9557315, 0.9935193, 0.007604608, -0.08405893, 0.07612985
 137594107, 0.12, -9.7, 8.77, 623.78, 33.621906, 72.9557323, 0.9934844, 0.007552605, -0.08427149, 0.07635403
 137694067, 0.11, -9.71, 8.81, 624.03, 33.6219102, 72.9557331, 0.9934542, 0.007487585, -0.08437279, 0.07664161
 137794027, 0.1, -9.71, 8.85, 624.28, 33.6219145, 72.9557339, 0.9934345, 0.007410544, -0.08431864, 0.07696253
 137893987, 0.1, -9.71, 8.88, 624.53, 33.6219187, 72.9557346, 0.993407, 0.007434573, -0.08433755, 0.07729525
 137993947, 0.1, -9.69, 8.92, 624.78, 33.6219229, 72.9557354, 0.9934006, 0.007494361, -0.08413722, 0.07758895
 138093907, 0.1, -9.65, 8.94, 625.02, 33.6219273, 72.9557362, 0.9934111, 0.00748599, -0.08380576, 0.07781415
 138193867, 0.1, -9.64, 8.96, 625.27, 33.6219315, 72.955737, 0.9934052, 0.007507371, -0.0837542, 0.07794214
 138293827, 0.1, -9.66, 8.96, 625.53, 33.6219357, 72.9557377, 0.9933879, 0.007485099, -0.08394574, 0.07795915
 138393787, 0.09, -9.68, 8.95, 625.77, 33.6219399, 72.9557385, 0.9933825, 0.007441659, -0.08408575, 0.07788158
 138493747, 0.09, -9.68, 8.93, 626.02, 33.6219443, 72.9557392, 0.9933916, 0.007436397, -0.08412356, 0.07772468
 138593707, 0.1, -9.69, 8.91, 626.27, 33.6219485, 72.95574, 0.9934074, 0.007474639, -0.0841369, 0.07750416
 138694500, 0.09, -9.66, 8.88, 626.51, 33.6219528, 72.9557408, 0.9934459, 0.007380113, -0.08394782, 0.07722399
 138794460, 0.09, -9.64, 8.84, 626.76, 33.621957, 72.9557416, 0.9934829, 0.007307223, -0.0837905, 0.07692538
 138894420, 0.09, -9.61, 8.81, 627.01, 33.6219613, 72.9557424, 0.993531, 0.007271003, -0.08350651, 0.07661522
 138994380, 0.1, -9.6, 8.77, 627.25, 33.6219655, 72.9557432, 0.9935598, 0.007313605, -0.08344342, 0.07630669
 139094340, 0.11, -9.62, 8.73, 627.51, 33.6219697, 72.9557439, 0.993573, 0.0073651, -0.08356097, 0.07600012
 139194300, 0.12, -9.63, 8.7, 627.76, 33.6219739, 72.9557447, 0.9935871, 0.007414458, -0.08366709, 0.07569386
 139294260, 0.12, -9.64, 8.66, 628.01, 33.6219782, 72.9557454, 0.9936018, 0.007462289, -0.08376352, 0.07538866
 139394220, 0.12, -9.65, 8.63, 628.25, 33.6219824, 72.9557462, 0.9936171, 0.007429672, -0.08385897, 0.07508367
 139494180, 0.12, -9.66, 8.6, 628.5, 33.6219867, 72.955747, 0.9936301, 0.00738632, -0.08394783, 0.07481617
 139594140, 0.11, -9.67, 8.57, 628.76, 33.6219909, 72.9557478, 0.9936406, 0.007336613, -0.08403187, 0.07458702
 139694100, 0.11, -9.7, 8.55, 629.01, 33.6219951, 72.9557486, 0.9936343, 0.00730911, -0.08427565, 0.07439821
 139794060, 0.11, -9.72, 8.53, 629.26, 33.6219993, 72.9557494, 0.9936296, 0.007274882, -0.08445919, 0.07425701
 139894020, 0.1, -9.71, 8.52, 629.5, 33.6220036, 72.9557501, 0.9936404, 0.007205355, -0.08441629, 0.0741668
 139993980, 0.1, -9.7, 8.52, 629.75, 33.6220077, 72.9557509, 0.993652, 0.007183631, -0.08431474, 0.07412872
 140093940, 0.1, -9.66, 8.52, 630, 33.6220119, 72.9557516, 0.9936832, 0.007204497, -0.08394774, 0.07412531
 140193900, 0.11, -9.64, 8.52, 630.25, 33.6220161, 72.9557524, 0.9937001, 0.007283127, -0.08372901, 0.07413857
 140293860, 0.12, -9.65, 8.52, 630.51, 33.6220203, 72.9557531, 0.9936877, 0.007382049, -0.08385273, 0.07415472
 140393820, 0.13, -9.68, 8.52, 630.75, 33.6220245, 72.9557539, 0.9936679, 0.007478732, -0.08406272, 0.07417319
 140493780, 0.13, -9.71, 8.52, 631, 33.6220288, 72.9557547, 0.9936457, 0.007432337, -0.08432584, 0.07417615
 140593740, 0.12, -9.73, 8.52, 631.25, 33.622033, 72.9557555, 0.9936255, 0.007386368, -0.08456611, 0.07417889
 140693700, 0.11, -9.76, 8.52, 631.5, 33.6220373, 72.9557563, 0.9936063, 0.00734736, -0.08478924, 0.07418372
 140794493, 0.1, -9.73, 8.52, 631.76, 33.6220416, 72.9557571, 0.9936275, 0.007261447, -0.08455656, 0.07417448
 140894453, 0.09, -9.72, 8.52, 632, 33.6220458, 72.9557578, 0.9936367, 0.007163199, -0.08447463, 0.07415394
 140994413, 0.08, -9.71, 8.52, 632.25, 33.62205, 72.9557586, 0.9936501, 0.007069348, -0.08435158, 0.0741242
 141094373, 0.08, -9.74, 8.52, 632.5, 33.6220543, 72.9557593, 0.9936308, 0.007010358, -0.08461252, 0.07409102
 141194333, 0.07, -9.78, 8.51, 632.75, 33.6220585, 72.9557601, 0.9936019, 0.006966016, -0.08498011, 0.07406152
 141294293, 0.07, -9.82, 8.51, 632.99, 33.6220627, 72.9557609, 0.9935727, 0.006991179, -0.08533988, 0.07403673
 141394253, 0.08, -9.86, 8.51, 633.25, 33.6220669, 72.9557617, 0.993546, 0.007153383, -0.08565695, 0.07401441
 141494213, 0.09, -9.9, 8.5, 633.49, 33.6220712, 72.9557624, 0.9935179, 0.007189478, -0.08602557, 0.07396073
 141594173, 0.08, -9.93, 8.49, 633.75, 33.6220754, 72.9557632, 0.9935009, 0.007191963, -0.08630297, 0.07386569
 141694133, 0.09, -9.95, 8.48, 634, 33.6220796, 72.9557639, 0.993499, 0.007194759, -0.08642659, 0.07374536
 141794093, 0.1, -9.98, 8.46, 634.24, 33.6220838, 72.9557647, 0.9934829, 0.007297496, -0.08671977, 0.07360861
 141894053, 0.12, -9.98, 8.44, 634.49, 33.6220881, 72.9557654, 0.9934939, 0.007474115, -0.08671831, 0.07344324
 141994013, 0.14, -9.97, 8.42, 634.74, 33.6220923, 72.9557662, 0.9935156, 0.00761504, -0.0866003, 0.07327448
 142093973, 0.14, -9.96, 8.4, 635, 33.6220965, 72.9557669, 0.9935338, 0.007661339, -0.0865282, 0.07310814
 142193933, 0.15, -9.93, 8.38, 635.24, 33.6221007, 72.9557677, 0.9935675, 0.007715409, -0.08624567, 0.07297765
 142293893, 0.15, -9.92, 8.37, 635.49, 33.622105, 72.9557685, 0.9935859, 0.007679616, -0.08614414, 0.07285041
 142393853, 0.15, -9.91, 8.35, 635.74, 33.6221092, 72.9557693, 0.993601, 0.00766527, -0.0860685, 0.07273547
 142493813, 0.15, -9.9, 8.35, 635.98, 33.6221135, 72.95577, 0.9936127, 0.007666157, -0.08599164, 0.07266636
 142593773, 0.15, -9.89, 8.34, 636.23, 33.6221177, 72.9557708, 0.9936208, 0.007651061, -0.08592489, 0.07263725
 142693733, 0.15, -9.88, 8.34, 636.48, 33.6221221, 72.9557716, 0.9936252, 0.00763059, -0.08586812, 0.07264642
 142794526, 0.15, -9.88, 8.35, 636.73, 33.6221264, 72.9557724, 0.9936268, 0.007590947, -0.08581496, 0.07269016
 142894486, 0.15, -9.83, 8.36, 636.98, 33.6221306, 72.9557731, 0.993655, 0.007563484, -0.08542451, 0.07276761
 142994446, 0.15, -9.8, 8.37, 637.23, 33.6221349, 72.9557739, 0.9936735, 0.007564941, -0.08515853, 0.07282679
 143094406, 0.15, -9.78, 8.37, 637.47, 33.6221391, 72.9557746, 0.9936847, 0.007571997, -0.08499359, 0.07286552
 143194366, 0.15, -9.79, 8.37, 637.72, 33.6221434, 72.9557754, 0.9936839, 0.007569205, -0.08500506, 0.07286432
 143294326, 0.15, -9.78, 8.37, 637.97, 33.6221477, 72.9557762, 0.9936939, 0.007527467, -0.0849234, 0.0728259
 143394286, 0.14, -9.75, 8.36, 638.22, 33.622152, 72.955777, 0.9937159, 0.007463431, -0.0847197, 0.07277068
 143494246, 0.14, -9.73, 8.35, 638.46, 33.6221562, 72.9557777, 0.9937354, 0.00740104, -0.08455604, 0.07270198
 143594206, 0.14, -9.71, 8.34, 638.72, 33.6221605, 72.9557785, 0.9937549, 0.007403009, -0.08439945, 0.07261668
 143694166, 0.14, -9.7, 8.33, 638.97, 33.6221647, 72.9557792, 0.9937702, 0.007404709, -0.08431539, 0.07250373
 143794126, 0.14, -9.71, 8.31, 639.22, 33.622169, 72.95578, 0.9937797, 0.007413012, -0.08432295, 0.07236408
 143894086, 0.14, -9.73, 8.3, 639.46, 33.6221732, 72.9557808, 0.9937742, 0.007390919, -0.0845063, 0.07222781
 143994046, 0.13, -9.71, 8.29, 639.72, 33.6221775, 72.9557816, 0.9937912, 0.007330686, -0.0844001, 0.07212493
 144094006, 0.14, -9.7, 8.28, 639.97, 33.6221817, 72.9557823, 0.9938049, 0.007358511, -0.08428711, 0.07206469
 144193966, 0.15, -9.69, 8.28, 640.22, 33.6221859, 72.9557831, 0.9938107, 0.007445781, -0.08422394, 0.07204995
 144293926, 0.15, -9.67, 8.28, 640.47, 33.6221902, 72.9557838, 0.9938287, 0.007467235, -0.08400114, 0.07206043
 144393886, 0.16, -9.67, 8.28, 640.71, 33.6221944, 72.9557846, 0.9938278, 0.007497276, -0.08399639, 0.07207444
 144493846, 0.16, -9.69, 8.28, 640.96, 33.6221987, 72.9557854, 0.9938124, 0.007496482, -0.08417031, 0.0720842
 144593806, 0.15, -9.7, 8.28, 641.21, 33.6222029, 72.9557862, 0.9938045, 0.007479692, -0.08426084, 0.07208978
 144693766, 0.15, -9.71, 8.28, 641.47, 33.6222073, 72.9557869, 0.9937992, 0.007477459, -0.08431903, 0.0720932
 144793726, 0.15, -9.71, 8.28, 641.72, 33.6222115, 72.9557877, 0.9937974, 0.007449099, -0.08434459, 0.07209197
 144894519, 0.15, -9.7, 8.28, 641.97, 33.6222158, 72.9557884, 0.9938018, 0.007465078, -0.08430176, 0.0720805
 144994479, 0.16, -9.68, 8.28, 642.21, 33.62222, 72.9557892, 0.9938216, 0.007493379, -0.08408234, 0.07206084
 145094439, 0.16, -9.67, 8.27, 642.46, 33.6222242, 72.9557899, 0.9938323, 0.007505715, -0.08397949, 0.07203159
 145194399, 0.16, -9.68, 8.27, 642.72, 33.6222284, 72.9557907, 0.9938225, 0.007539098, -0.08412667, 0.07199123
 145294359, 0.17, -9.71, 8.26, 642.97, 33.6222327, 72.9557915, 0.9938117, 0.007578628, -0.08430794, 0.07192409
 145394319, 0.16, -9.72, 8.25, 643.22, 33.6222369, 72.9557923, 0.993809, 0.007546409, -0.08442166, 0.07183145
 145494279, 0.16, -9.72, 8.24, 643.47, 33.6222412, 72.955793, 0.9938132, 0.007548201, -0.08444623, 0.07174403
 145594239, 0.16, -9.72, 8.23, 643.71, 33.6222454, 72.9557938, 0.9938161, 0.007545589, -0.08448388, 0.07166017
 145694199, 0.16, -9.73, 8.22, 643.96, 33.6222496, 72.9557946, 0.9938214, 0.007511722, -0.08448915, 0.07158339
 145794159, 0.16, -9.73, 8.21, 644.21, 33.6222538, 72.9557954, 0.9938245, 0.007484105, -0.0845128, 0.07151573
 145894119, 0.15, -9.75, 8.21, 644.47, 33.6222581, 72.9557961, 0.9938156, 0.007457142, -0.08466575, 0.07146094
 145994079, 0.15, -9.77, 8.2, 644.72, 33.6222623, 72.9557969, 0.9937995, 0.007456719, -0.08488146, 0.07142885
 146094039, 0.15, -9.77, 8.2, 644.97, 33.6222666, 72.9557976, 0.9938008, 0.007433953, -0.08486456, 0.07143387
 146193999, 0.15, -9.76, 8.21, 645.21, 33.6222708, 72.9557984, 0.9938011, 0.007406849, -0.08482309, 0.0714821
 146293959, 0.15, -9.75, 8.22, 645.46, 33.622275, 72.9557991, 0.9938033, 0.007442376, -0.08472899, 0.07155942
 146393919, 0.15, -9.72, 8.23, 645.72, 33.6222793, 72.9557999, 0.9938192, 0.007462469, -0.08447901, 0.07163122
 146493879, 0.15, -9.75, 8.23, 645.96, 33.6222834, 72.9558007, 0.9937989, 0.007471153, -0.08468261, 0.07167222
 146593839, 0.15, -9.79, 8.23, 646.22, 33.6222877, 72.9558015, 0.9937652, 0.007502892, -0.08506472, 0.07168242
 146693799, 0.15, -9.83, 8.23, 646.47, 33.6222919, 72.9558022, 0.9937393, 0.007502089, -0.0853934, 0.0716511
 146793759, 0.16, -9.85, 8.22, 646.71, 33.6222962, 72.955803, 0.9937231, 0.007570883, -0.08561231, 0.07160693
 146893719, 0.15, -9.88, 8.22, 646.96, 33.6223004, 72.9558037, 0.9937108, 0.007561493, -0.08581146, 0.07154025
 146994512, 0.16, -9.88, 8.21, 647.21, 33.6223047, 72.9558045, 0.9937134, 0.007618446, -0.08583274, 0.07147293
 147094472, 0.17, -9.88, 8.2, 647.47, 33.622309, 72.9558052, 0.9937207, 0.00763999, -0.08580836, 0.07139844
 147194432, 0.17, -9.87, 8.19, 647.71, 33.6223132, 72.955806, 0.9937341, 0.007664067, -0.08571261, 0.071324
 147294392, 0.17, -9.87, 8.18, 647.96, 33.6223175, 72.9558068, 0.9937394, 0.007670488, -0.08570989, 0.07125319
 147394352, 0.17, -9.87, 8.17, 648.21, 33.6223218, 72.9558076, 0.9937404, 0.007666657, -0.08575401, 0.07118571
 147494312, 0.17, -9.87, 8.17, 648.46, 33.622326, 72.9558083, 0.9937481, 0.007627294, -0.08571608, 0.07112902
 147594272, 0.16, -9.85, 8.16, 648.7, 33.6223303, 72.9558091, 0.9937623, 0.007562367, -0.08558965, 0.07108974
 147694232, 0.16, -9.84, 8.16, 648.96, 33.6223345, 72.9558099, 0.9937754, 0.007499273, -0.08547355, 0.07105306
 147794192, 0.15, -9.83, 8.16, 649.21, 33.6223388, 72.9558107, 0.9937874, 0.007441717, -0.08537, 0.07101499
 147894152, 0.15, -9.81, 8.15, 649.46, 33.622343, 72.9558114, 0.9937982, 0.007450942, -0.08526997, 0.07098314
 147994112, 0.17, -9.82, 8.15, 649.71, 33.6223473, 72.9558122, 0.9937934, 0.007573904, -0.08533382, 0.0709612
 148094072, 0.17, -9.83, 8.15, 649.95, 33.6223515, 72.9558129, 0.9937925, 0.007615442, -0.08535654, 0.0709415
 148194032, 0.17, -9.81, 8.14, 650.2, 33.6223558, 72.9558137, 0.9938057, 0.007613581, -0.0852145, 0.07092756
 148293992, 0.17, -9.8, 8.14, 650.45, 33.62236, 72.9558145, 0.9938122, 0.007625719, -0.08513208, 0.07093447
 148393952, 0.17, -9.78, 8.15, 650.71, 33.6223642, 72.9558153, 0.9938245, 0.007595627, -0.08496222, 0.07096905
 148493912, 0.16, -9.76, 8.15, 650.96, 33.6223685, 72.955816, 0.9938405, 0.007490443, -0.08475429, 0.07100393
 148593872, 0.15, -9.76, 8.16, 651.2, 33.6223727, 72.9558168, 0.9938343, 0.007437318, -0.08480809, 0.0710336
 148693832, 0.15, -9.77, 8.16, 651.45, 33.622377, 72.9558176, 0.9938274, 0.007388911, -0.08487549, 0.07105394
 148793792, 0.14, -9.77, 8.16, 651.7, 33.6223812, 72.9558184, 0.9938273, 0.00734209, -0.0848827, 0.07105109
 148893752, 0.14, -9.76, 8.16, 651.95, 33.6223856, 72.9558191, 0.9938323, 0.00734022, -0.08483284, 0.07104079
 148993712, 0.16, -9.76, 8.16, 652.21, 33.6223898, 72.9558199, 0.993836, 0.007490313, -0.08477425, 0.0710438
 149094505, 0.17, -9.69, 8.16, 652.46, 33.6223941, 72.9558206, 0.9938897, 0.007492694, -0.08414587, 0.07103916
 149194465, 0.17, -9.45, 8.16, 652.71, 33.6223984, 72.9558214, 0.994059, 0.00735593, -0.08213767, 0.071036
 149294425, 0.17, -9.01, 8.15, 652.95, 33.6224026, 72.9558222, 0.9943697, 0.007082775, -0.07831355, 0.0710334
 149394385, 0.16, -8.49, 8.15, 653.2, 33.6224069, 72.955823, 0.9947217, 0.00673881, -0.07374161, 0.07103272
 149494345, 0.17, -7.92, 8.15, 653.46, 33.6224111, 72.9558237, 0.9950789, 0.006404715, -0.06878502, 0.07103238
 149594305, 0.17, -7.33, 8.15, 653.69, 33.6224153, 72.9558245, 0.9954208, 0.00604356, -0.06369868, 0.07101738
 149694265, 0.17, -6.74, 8.14, 653.95, 33.6224195, 72.9558252, 0.9957401, 0.005662023, -0.05856799, 0.07098968
 149794225, 0.17, -6.13, 8.14, 654.19, 33.6224237, 72.955826, 0.9960417, 0.005310603, -0.05327102, 0.07095782
 149894185, 0.17, -5.51, 8.13, 654.42, 33.6224276, 72.9558267, 0.9963192, 0.004937219, -0.04789163, 0.07092213
 149994145, 0.17, -4.87, 8.12, 654.66, 33.6224317, 72.9558274, 0.9965774, 0.004562584, -0.0422831, 0.07088608
 150094105, 0.19, -4.17, 8.12, 654.89, 33.6224355, 72.9558281, 0.9968191, 0.00428239, -0.03623578, 0.07085364
 150194065, 0.28, -3.25, 8.12, 655.11, 33.6224395, 72.9558289, 0.9970767, 0.004461991, -0.02819607, 0.07087318
 150294025, 0.44, -2.07, 8.13, 655.33, 33.6224431, 72.9558295, 0.9973065, 0.005172167, -0.01775631, 0.07097693
 150393985, 0.67, -0.7, 8.16, 655.55, 33.6224469, 72.9558302, 0.9974251, 0.006274524, -0.005727395, 0.07120998
 150493945, 0.91, 0.75, 8.22, 655.75, 33.6224502, 72.9558308, 0.997376, 0.007511384, 0.007147811, 0.07164915
 150593905, 1.16, 2.24, 8.32, 655.95, 33.6224538, 72.9558315, 0.9971312, 0.008744541, 0.02031691, 0.07238836
 150693865, 1.42, 3.78, 8.48, 656.14, 33.6224568, 72.9558321, 0.9966674, 0.009975002, 0.0338157, 0.0735601
 150793825, 1.71, 5.36, 8.72, 656.33, 33.6224603, 72.9558327, 0.9959492, 0.01131734, 0.04780246, 0.07531263
 150893785, 2.02, 7, 9.06, 656.49, 33.6224628, 72.9558333, 0.9949375, 0.01279288, 0.06228443, 0.07782335
 150993745, 2.38, 8.69, 9.53, 656.65, 33.6224659, 72.955834, 0.9935886, 0.01439705, 0.07722721, 0.08130401
 151093705, 2.78, 10.42, 10.16, 656.81, 33.622468, 72.9558346, 0.9918516, 0.01609897, 0.09257497, 0.08602931
 151194498, 3.3, 12.19, 11.02, 656.95, 33.6224708, 72.9558352, 0.9896268, 0.01835813, 0.1084506, 0.092413
 151294458, 3.92, 13.86, 12.14, 657.07, 33.6224722, 72.9558359, 0.9869807, 0.02108162, 0.1235289, 0.1008233
 151394418, 4.69, 15.32, 13.63, 657.19, 33.6224746, 72.9558365, 0.9838861, 0.02445592, 0.137114, 0.1121157
 151494378, 5.66, 16.55, 15.65, 657.29, 33.6224755, 72.955837, 0.9801317, 0.02887186, 0.1491225, 0.1275572
 151594338, 6.95, 17.53, 18.46, 657.37, 33.6224773, 72.9558376, 0.9751976, 0.03474589, 0.1598056, 0.1491458
 151694298, 8.6, 18.11, 22.25, 657.44, 33.6224775, 72.9558383, 0.9685102, 0.04240733, 0.1683367, 0.1784727
 151794258, 10.6, 18.17, 27.04, 657.51, 33.6224788, 72.9558389, 0.9593701, 0.05190649, 0.1742804, 0.2157335
 151894218, 12.88, 17.68, 32.75, 657.55, 33.6224784, 72.9558394, 0.9468861, 0.06331114, 0.1778424, 0.2603278
 151994178, 15.35, 16.63, 39.26, 657.59, 33.6224792, 72.95584, 0.9300924, 0.07631287, 0.1794737, 0.3112775
 152094138, 17.81, 14.96, 46.36, 657.61, 33.622478, 72.9558407, 0.9083717, 0.09045178, 0.1787159, 0.3670695
 152194098, 20.09, 12.67, 53.91, 657.62, 33.6224782, 72.9558414, 0.8810508, 0.1052659, 0.175466, 0.4264742
 152294058, 21.99, 9.77, 61.78, 657.62, 33.6224766, 72.9558421, 0.8476637, 0.1201541, 0.1693068, 0.4882258
 152394018, 23.42, 6.4, 69.84, 657.61, 33.6224761, 72.9558427, 0.8081032, 0.1348714, 0.1608681, 0.5503639
 152493978, 24.31, 2.71, 78, 657.59, 33.6224737, 72.9558436, 0.7626057, 0.1490256, 0.1505208, 0.6112016
 152593938, 24.62, -1.14, 86.24, 657.55, 33.6224726, 72.9558443, 0.711633, 0.1623156, 0.1386386, 0.6693366
 152693898, 24.3, -4.96, 94.4, 657.52, 33.6224696, 72.9558451, 0.6568842, 0.1739638, 0.1255227, 0.7228305
 152793858, 23.32, -8.56, 102.45, 657.47, 33.6224679, 72.9558458, 0.5998072, 0.1832335, 0.1113352, 0.7708834
 152893818, 21.73, -11.75, 110.33, 657.42, 33.6224644, 72.9558468, 0.5421116, 0.1896839, 0.09651719, 0.8129081
 152993778, 19.74, -14.48, 117.93, 657.36, 33.6224621, 72.9558476, 0.485302, 0.1941086, 0.08170361, 0.8486037
 153093738, 17.49, -16.74, 125.15, 657.29, 33.622458, 72.9558485, 0.4306548, 0.1970242, 0.06727971, 0.878175
 153193698, 15.13, -18.59, 131.93, 657.21, 33.6224551, 72.9558493, 0.3789826, 0.1992054, 0.05345822, 0.9021262
 153294491, 12.7, -20.09, 138.32, 657.13, 33.6224506, 72.9558504, 0.3301097, 0.2007783, 0.04010755, 0.92147
 153394451, 10.34, -21.28, 144.17, 657.05, 33.6224473, 72.9558513, 0.2852183, 0.202271, 0.02770967, 0.9364663
 153494411, 8.05, -22.24, 149.61, 656.97, 33.6224424, 72.9558523, 0.2434227, 0.2037904, 0.01606224, 0.9481333
 153594371, 5.85, -23.03, 154.71, 656.87, 33.6224386, 72.9558532, 0.2042416, 0.2055276, 0.005148341, 0.9570879
 153694331, 3.71, -23.65, 159.56, 656.78, 33.6224334, 72.9558543, 0.1670382, 0.2072181, -0.005151024, 0.9639152
 153794291, 1.62, -24.11, 164.25, 656.68, 33.6224291, 72.9558553, 0.1309841, 0.2088036, -0.01482897, 0.9690327
 153894251, -0.39, -24.43, 168.85, 656.58, 33.6224237, 72.9558564, 0.09565167, 0.2103225, -0.02389783, 0.972648
 153994211, -2.22, -24.64, 173.15, 656.48, 33.6224191, 72.9558574, 0.06243758, 0.2118517, -0.03165705, 0.9747913
 154094171, -3.7, -24.75, 176.87, 656.37, 33.6224135, 72.9558587, 0.03354186, 0.2132848, -0.03740495, 0.9756974
 154194131, -4.78, -24.81, 179.78, 656.27, 33.6224085, 72.9558598, 0.01082409, 0.2145946, -0.04114691, 0.9757761
