Time,ATT_DesRoll,ATT_Roll,ATT_DesPitch,ATT_Pitch,ATT_DesYaw,ATT_Yaw,ATT_ErrRP,ATT_ErrYaw,ATT_AEKF
 101194506, 0, 0.07, 0, 0.06, 0.84, 0.84, 0, 0, 3
 101294466, 0, 0.07, 0, 0.06, 0.84, 0.84, 0, 0, 3
 101394426, 0, 0.07, 0, 0.06, 0.84, 0.84, 0, 0, 3
 101494386, 0, 0.07, 0, 0.06, 0.85, 0.85, 0, 0, 3
 101594346, 0, 0.07, 0, 0.06, 0.85, 0.85, 0, 0, 3
 101694306, 0, 0.07, 0, 0.06, 0.85, 0.85, 0, 0, 3
 101794266, 0, 0.07, 0, 0.06, 0.85, 0.85, 0, 0, 3
 101894226, 0, 0.07, 0, 0.06, 0.85, 0.85, 0, 0, 3
 101994186, 0, 0.07, 0, 0.06, 0.85, 0.85, 0, 0, 3
 102094146, 0, 0.07, 0, 0.06, 0.85, 0.85, 0, 0, 3
 102194106, 0, 0.07, 0, 0.06, 0.85, 0.85, 0, 0, 3
 102294066, 0, 0.07, 0, 0.06, 0.85, 0.85, 0, 0, 3
 102394026, 0, 0.07, 0, 0.06, 0.85, 0.85, 0, 0, 3
 102493986, 0, 0.07, 0, 0.06, 0.85, 0.85, 0, 0, 3
 102593946, 0, 0.08, 0, 0.06, 0.85, 0.85, 0, 0, 3
 102693906, 0, 0.08, 0, 0.06, 0.85, 0.85, 0, 0, 3
 102793866, 0, 0.08, 0, 0.07, 0.86, 0.86, 0, 0, 3
 102893826, 0, 0.08, 0, 0.07, 0.86, 0.86, 0, 0, 3
 102993786, 0, 0.08, 0, 0.07, 0.86, 0.86, 0, 0, 3
 103093746, 0, 0.08, 0, 0.07, 0.86, 0.86, 0, 0, 3
 103193706, 0, 0.08, 0, 0.07, 0.86, 0.86, 0, 0, 3
 103294499, 0, 0.09, 0, 0.07, 0.86, 0.86, 0, 0, 3
 103394459, 0, 0.09, 0, 0.08, 0.86, 0.86, 0, 0, 3
 103494419, 0, 0.09, 0, 0.08, 0.86, 0.86, 0, 0, 3
 103594379, 0, 0.09, 0, 0.08, 0.86, 0.86, 0, 0, 3
 103694339, 0, 0.09, 0, 0.08, 0.86, 0.86, 0, 0, 3
 103794299, 0, 0.09, 0, 0.08, 0.86, 0.86, 0, 0, 3
 103894259, 0, 0.1, 0, 0.08, 0.86, 0.86, 0, 0, 3
 103994219, 0, 0.1, 0, 0.09, 0.86, 0.86, 0, 0, 3
 104094179, 0, 0.1, 0, 0.09, 0.87, 0.87, 0, 0, 3
 104194139, 0, 0.1, 0, 0.09, 0.87, 0.87, 0, 0, 3
 104294099, 0, 0.1, 0, 0.09, 0.87, 0.87, 0, 0, 3
 104394059, 0, 0.1, 0, 0.09, 0.87, 0.87, 0, 0, 3
 104494019, 0, 0.11, 0, 0.1, 0.87, 0.87, 0, 0, 3
 104593979, 0, 0.11, 0, 0.1, 0.87, 0.87, 0, 0, 3
 104693939, 0, 0.11, 0, 0.1, 0.87, 0.87, 0, 0, 3
 104793899, 0, 0.11, 0, 0.1, 0.87, 0.87, 0, 0, 3
 104893859, 0, 0.11, 0, 0.1, 0.87, 0.87, 0, 0, 3
 104993819, 0, 0.12, 0, 0.1, 0.88, 0.88, 0, 0, 3
 105093779, 0, 0.12, 0, 0.11, 0.88, 0.88, 0, 0, 3
 105193739, 0, 0.12, 0, 0.11, 0.88, 0.88, 0, 0, 3
 105293699, 0, 0.12, 0, 0.11, 0.88, 0.88, 0, 0, 3
 105394492, 0, 0.12, 0, 0.11, 0.88, 0.88, 0, 0, 3
 105494452, 0, 0.13, 0, 0.11, 0.88, 0.88, 0, 0, 3
 105594412, -0.01, 0.13, -0.01, 0.11, 0.88, 0.88, 0, 0, 3
 105694372, -0.03, 0.13, -0.03, 0.12, 0.88, 0.88, 0, 0, 3
 105794332, -0.05, 0.13, -0.04, 0.12, 0.88, 0.88, 0, 0, 3
 105894292, -0.05, 0.13, -0.05, 0.12, 0.88, 0.89, 0, 0, 3
 105994252, -0.06, 0.14, -0.06, 0.12, 0.88, 0.89, 0, 0, 3
 106094212, -0.07, 0.14, -0.07, 0.12, 0.88, 0.89, 0, 0, 3
 106194172, -0.08, 0.14, -0.08, 0.13, 0.88, 0.89, 0, 0, 3
 106294132, -0.09, 0.14, -0.08, 0.13, 0.88, 0.89, 0, 0, 3
 106394092, -0.1, 0.14, -0.1, 0.13, 0.88, 0.89, 0, 0, 3
 106494052, -0.12, 0.14, -0.11, 0.13, 0.88, 0.89, 0, 0, 3
 106594012, -0.14, 0.15, -0.13, 0.13, 0.88, 0.89, 0, 0, 3
 106693972, -0.15, 0.15, -0.15, 0.14, 0.88, 0.89, 0, 0, 3
 106793932, -0.17, 0.01, -0.16, 0.01, 0.88, 0.9, 0, 0, 3
 106893892, -0.15, -0.14, -0.15, -0.13, 0.88, 0.9, 0, 0, 3
 106993852, -0.09, -0.2, -0.09, -0.18, 0.88, 0.89, 0, 0, 3
 107093812, -0.01, -0.18, -0.02, -0.17, 0.88, 0.89, 0, 0, 3
 107193772, 0.07, -0.11, 0.06, -0.11, 0.88, 0.89, 0, 0, 3
 107293732, 0.15, -0.03, 0.13, -0.04, 0.88, 0.88, 0, 0, 3
 107394525, 0.21, 0.03, 0.19, 0.02, 0.88, 0.88, 0, 0, 3
 107494485, 0.25, 0.08, 0.23, 0.07, 0.88, 0.88, 0, 0, 3
 107594445, 0.29, 0.13, 0.25, 0.1, 0.88, 0.87, 0, 0, 3
 107694405, 0.31, 0.16, 0.27, 0.13, 0.88, 0.87, 0, 0, 3
 107794365, 0.33, 0.19, 0.29, 0.16, 0.88, 0.87, 0, 0, 3
 107894325, 0.34, 0.21, 0.31, 0.19, 0.88, 0.87, 0, 0, 3
 107994285, 0.35, 0.23, 0.31, 0.22, 0.88, 0.87, 0, 0, 3
 108094245, 0.36, 0.25, 0.32, 0.23, 0.19, 0.17, 0, 0, 3
 108194205, 0.36, 0.27, 0.32, 0.24, 0.19, 0.18, 0, 0, 3
 108294165, 0.37, 0.28, 0.33, 0.25, 0.19, 0.19, 0, 0, 3
 108394125, 0.36, 0.29, 0.33, 0.26, 0.19, 0.19, 0, 0, 3
 108494085, 0.36, 0.3, 0.34, 0.27, 0.19, 0.19, 0, 0, 3
 108594045, 0.36, 0.3, 0.33, 0.28, 0.19, 0.19, 0, 0, 3
 108694005, 0.35, 0.3, 0.33, 0.28, 0.19, 0.19, 0, 0, 3
 108793965, 0.34, 0.3, 0.33, 0.29, 0.19, 0.19, 0, 0, 3
 108893925, 0.33, 0.29, 0.33, 0.3, 0.19, 0.19, 0, 0, 3
 108993885, 0.31, 0.28, 0.32, 0.3, 0.19, 0.18, 0, 0, 3
 109093845, 0.3, 0.27, 0.31, 0.29, 0.19, 0.18, 0, 0, 3
 109193805, 0.29, 0.26, 0.29, 0.27, 0.19, 0.18, 0, 0, 3
 109293765, 0.28, 0.26, 0.28, 0.25, 0.19, 0.18, 0, 0, 3
 109393725, 0.27, 0.24, 0.27, 0.24, 0.19, 0.18, 0, 0, 3
 109494518, 0.26, 0.23, 0.27, 0.24, 0.19, 0.18, 0, 0, 3
 109594478, 0.25, 0.23, 0.26, 0.23, 0.19, 0.18, 0, 0, 3
 109694438, 0.25, 0.23, 0.26, 0.22, 0.19, 0.18, 0, 0, 3
 109794398, 0.24, 0.22, 0.25, 0.22, 0.19, 0.18, 0, 0, 3
 109894358, 0.24, 0.22, 0.25, 0.22, 0.19, 0.17, 0, 0, 3
 109994318, 0.23, 0.19, 0.24, 0.21, 0.19, 0.17, 0, 0, 3
 110094278, 0.22, 0.19, 0.23, 0.19, 0.19, 0.17, 0, 0, 3
 110194238, 0.22, 0.2, 0.23, 0.19, 0.19, 0.17, 0, 0, 3
 110294198, 0.22, 0.2, 0.22, 0.19, 0.19, 0.17, 0, 0, 3
 110394158, 0.22, 0.21, 0.22, 0.2, 0.19, 0.17, 0, 0, 3
 110494118, 0.21, 0.2, 0.22, 0.2, 0.19, 0.17, 0, 0, 3
 110594078, 0.21, 0.18, 0.22, 0.2, 0.19, 0.17, 0, 0, 3
 110694038, 0.22, 0.19, 0.21, 0.2, 0.19, 0.17, 0, 0, 3
 110793998, 0.22, 0.19, 0.21, 0.21, 0.19, 0.17, 0, 0, 3
 110893958, 0.22, 0.2, 0.21, 0.21, 0.19, 0.18, 0, 0, 3
 110993918, 0.21, 0.2, 0.2, 0.21, 0.19, 0.18, 0, 0, 3
 111093878, 0.21, 0.21, 0.19, 0.21, 0.19, 0.19, 0, 0, 3
 111193838, 0.21, 0.21, 0.19, 0.2, 0.19, 0.19, 0, 0, 3
 111293798, 0.21, 0.22, 0.18, 0.18, 0.19, 0.19, 0, 0, 3
 111393758, 0.2, 0.21, 0.17, 0.17, 0.19, 0.19, 0, 0, 3
 111493718, 0.2, 0.2, 0.16, 0.15, 0.19, 0.19, 0, 0, 3
 111594511, 0.19, 0.19, 0.16, 0.15, 0.19, 0.19, 0, 0, 3
 111694471, 0.19, 0.18, 0.16, 0.14, 0.19, 0.19, 0, 0, 3
 111794431, 0.19, 0.18, 0.16, 0.14, 0.19, 0.18, 0, 0, 3
 111894391, 0.19, 0.18, 0.16, 0.14, 0.19, 0.18, 0, 0, 3
 111994351, 0.19, 0.18, 0.16, 0.15, 0.19, 0.18, 0, 0, 3
 112094311, 0.19, 0.19, 0.16, 0.16, 0.19, 0.18, 0, 0, 3
 112194271, 0.18, 0.17, 0.15, 0.15, 0.19, 0.17, 0, 0, 3
 112294231, 0.17, 0.16, 0.14, 0.14, 0.19, 0.17, 0, 0, 3
 112394191, 0.16, 0.15, 0.13, 0.13, 0.19, 0.17, 0, 0, 3
 112494151, 0.16, 0.14, 0.13, 0.12, 0.19, 0.18, 0, 0, 3
 112594111, 0.16, 0.14, 0.13, 0.12, 0.19, 0.19, 0, 0, 3
 112694071, 0.16, 0.14, 0.13, 0.12, 0.19, 0.19, 0, 0, 3
 112794031, 0.16, 0.14, 0.13, 0.11, 0.19, 0.2, 0, 0, 3
 112893991, 0.16, 0.14, 0.13, 0.11, 0.19, 0.21, 0, 0, 3
 112993951, 0.16, 0.15, 0.13, 0.1, 0.19, 0.21, 0, 0, 3
 113093911, 0.17, 0.16, 0.14, 0.11, 0.19, 0.21, 0, 0, 3
 113193871, 0.17, 0.16, 0.14, 0.13, 0.19, 0.2, 0, 0, 3
 113293831, 0.17, 0.16, 0.15, 0.14, 0.19, 0.19, 0, 0, 3
 113393791, 0.17, 0.16, 0.15, 0.14, 0.19, 0.18, 0, 0, 3
 113493751, 0.17, 0.16, 0.16, 0.15, 0.19, 0.17, 0, 0, 3
 113593711, 0.17, 0.16, 0.16, 0.15, 0.19, 0.17, 0, 0, 3
 113694504, 0.17, 0.16, 0.17, 0.16, 0.19, 0.16, 0, 0, 3
 113794464, 0.17, 0.16, 0.17, 0.16, 0.19, 0.16, 0, 0, 3
 113894424, 0.17, 0.16, 0.17, 0.17, 0.19, 0.16, 0, 0, 3
 113994384, 0.17, 0.16, 0.17, 0.17, 0.19, 0.16, 0, 0, 3
 114094344, 0.17, 0.16, 0.17, 0.18, 0.19, 0.17, 0, 0, 3
 114194304, 0.17, 0.16, 0.17, 0.18, 0.19, 0.18, 0, 0, 3
 114294264, 0.18, 0.17, 0.18, 0.17, 0.19, 0.19, 0, 0, 3
 114394224, 0.18, 0.18, 0.18, 0.18, 0.19, 0.2, 0, 0, 3
 114494184, 0.19, 0.18, 0.18, 0.18, 0.19, 0.2, 0, 0, 3
 114594144, 0.19, 0.17, 0.18, 0.18, 0.19, 0.2, 0, 0, 3
 114694104, 0.2, 0.18, 0.19, 0.18, 0.19, 0.2, 0, 0, 3
 114794064, 0.2, 0.18, 0.19, 0.18, 0.19, 0.2, 0, 0, 3
 114894024, 0.21, 0.19, 0.19, 0.18, 0.19, 0.19, 0, 0, 3
 114993984, 0.21, 0.2, 0.19, 0.18, 0.19, 0.18, 0, 0, 3
 115093944, 0.22, 0.21, 0.2, 0.19, 0.19, 0.17, 0, 0, 3
 115193904, 0.22, 0.21, 0.2, 0.19, 0.19, 0.16, 0, 0, 3
 115293864, 0.23, 0.22, 0.21, 0.2, 0.19, 0.16, 0, 0, 3
 115393824, 0.23, 0.23, 0.22, 0.21, 0.19, 0.16, 0, 0, 3
 115493784, 0.24, 0.23, 0.23, 0.22, 0.19, 0.16, 0, 0, 3
 115593744, 0.24, 0.23, 0.24, 0.23, 0.19, 0.17, 0, 0, 3
 115693704, 0.25, 0.24, 0.25, 0.23, 0.19, 0.18, 0, 0, 3
 115794497, 0.26, 0.25, 0.25, 0.24, 0.19, 0.18, 0, 0, 3
 115894457, 0.27, 0.26, 0.26, 0.25, 0.19, 0.19, 0, 0, 3
 115994417, 0.27, 0.26, 0.26, 0.25, 0.19, 0.19, 0, 0, 3
 116094377, 0.27, 0.26, 0.26, 0.25, 0.19, 0.19, 0, 0, 3
 116194337, 0.28, 0.26, 0.26, 0.25, 0.19, 0.19, 0, 0, 3
 116294297, 0.28, 0.26, 0.26, 0.25, 0.19, 0.18, 0, 0, 3
 116394257, 0.27, 0.26, 0.26, 0.25, 0.19, 0.18, 0, 0, 3
 116494217, 0.27, 0.26, 0.26, 0.25, 0.19, 0.18, 0, 0, 3
 116594177, 0.27, 0.26, 0.26, 0.25, 0.19, 0.17, 0, 0, 3
 116694137, 0.26, 0.25, 0.26, 0.24, 0.19, 0.17, 0, 0, 3
 116794097, 0.26, 0.25, 0.26, 0.24, 0.19, 0.17, 0, 0, 3
 116894057, 0.26, 0.24, 0.25, 0.24, 0.19, 0.17, 0, 0, 3
 116994017, 0.25, 0.24, 0.25, 0.23, 0.19, 0.17, 0, 0, 3
 117093977, 0.24, 0.23, 0.24, 0.23, 0.19, 0.17, 0, 0, 3
 117193937, 0.24, 0.22, 0.24, 0.23, 0.19, 0.17, 0, 0, 3
 117293897, 0.24, 0.23, 0.24, 0.23, 0.19, 0.17, 0, 0, 3
 117393857, 0.24, 0.23, 0.24, 0.23, 0.19, 0.18, 0, 0, 3
 117493817, 0.24, 0.23, 0.24, 0.22, 0.19, 0.18, 0, 0, 3
 117593777, 0.24, 0.23, 0.24, 0.22, 0.19, 0.18, 0, 0, 3
 117693737, 0.25, 0.24, 0.24, 0.23, 0.19, 0.18, 0, 0, 3
 117794530, 0.26, 0.25, 0.24, 0.25, 0.19, 0.18, 0, 0, 3
 117894490, 0.27, 0.26, 0.24, 0.25, 0.19, 0.18, 0, 0, 3
 117994450, 0.27, 0.27, 0.24, 0.25, 0.19, 0.18, 0, 0, 3
 118094410, 0.27, 0.27, 0.24, 0.24, 0.19, 0.18, 0, 0, 3
 118194370, 0.27, 0.27, 0.23, 0.24, 0.19, 0.18, 0, 0, 3
 118294330, 0.27, 0.27, 0.23, 0.23, 0.19, 0.18, 0, 0, 3
 118394290, 0.26, 0.27, 0.23, 0.22, 0.19, 0.18, 0, 0, 3
 118494250, 0.26, 0.25, 0.23, 0.22, 0.19, 0.18, 0, 0, 3
 118594210, 0.26, 0.23, 0.23, 0.21, 0.19, 0.18, 0, 0, 3
 118694170, 0.27, 0.24, 0.23, 0.22, 0.19, 0.18, 0, 0, 3
 118794130, 0.27, 0.25, 0.23, 0.22, 0.19, 0.19, 0, 0, 3
 118894090, 0.27, 0.25, 0.23, 0.22, 0.19, 0.19, 0, 0, 3
 118994050, 0.26, 0.25, 0.23, 0.22, 0.19, 0.19, 0, 0, 3
 119094010, 0.26, 0.24, 0.23, 0.22, 0.19, 0.19, 0, 0, 3
 119193970, 0.25, 0.24, 0.23, 0.22, 0.19, 0.19, 0, 0, 3
 119293930, 0.25, 0.24, 0.23, 0.21, 0.19, 0.18, 0, 0, 3
 119393890, 0.25, 0.24, 0.22, 0.21, 0.19, 0.18, 0, 0, 3
 119493850, 0.25, 0.24, 0.23, 0.21, 0.19, 0.18, 0, 0, 3
 119593810, 0.24, 0.24, 0.22, 0.21, 0.19, 0.18, 0, 0, 3
 119693770, 0.24, 0.23, 0.22, 0.21, 0.19, 0.18, 0, 0, 3
 119793730, 0.24, 0.23, 0.22, 0.21, 0.19, 0.18, 0, 0, 3
 119894523, 0.23, 0.23, 0.22, 0.2, 0.19, 0.18, 0, 0, 3
 119994483, 0.23, 0.23, 0.22, 0.21, 0.19, 0.19, 0, 0, 3
 120094443, 0.23, 0.22, 0.22, 0.21, 0.19, 0.19, 0, 0, 3
 120194403, 0.23, 0.21, 0.22, 0.22, 0.19, 0.19, 0, 0, 3
 120294363, 0.23, 0.2, 0.21, 0.21, 0.19, 0.19, 0, 0, 3
 120394323, 0.23, 0.2, 0.21, 0.2, 0.19, 0.2, 0, 0, 3
 120494283, 0.23, 0.21, 0.2, 0.19, 0.19, 0.2, 0, 0, 3
 120594243, 0.23, 0.22, 0.2, 0.19, 0.19, 0.19, 0, 0, 3
 120694203, 0.23, 0.22, 0.2, 0.19, 0.19, 0.19, 0, 0, 3
 120794163, 0.23, 0.23, 0.21, 0.19, 0.19, 0.18, 0, 0, 3
 120894123, 0.23, 0.22, 0.2, 0.19, 0.19, 0.17, 0, 0, 3
 120994083, 0.22, 0.23, 0.2, 0.19, 0.19, 0.17, 0, 0, 3
 121094043, 0.22, 0.22, 0.2, 0.18, 0.19, 0.16, 0, 0, 3
 121194003, 0.21, 0.21, 0.2, 0.18, 0.19, 0.16, 0, 0, 3
 121293963, 0.21, 0.2, 0.19, 0.17, 0.19, 0.16, 0, 0, 3
 121393923, 0.21, 0.2, 0.19, 0.17, 0.19, 0.16, 0, 0, 3
 121493883, 0.21, 0.2, 0.18, 0.17, 0.19, 0.16, 0, 0, 3
 121593843, 0.2, 0.2, 0.18, 0.17, 0.19, 0.17, 0, 0, 3
 121693803, 0.2, 0.19, 0.17, 0.17, 0.19, 0.18, 0, 0, 3
 121793763, 0.19, 0.18, 0.17, 0.16, 0.19, 0.19, 0, 0, 3
 121893723, 0.18, 0.17, 0.16, 0.16, 0.19, 0.2, 0, 0, 3
 121994516, 0.18, 0.18, 0.16, 0.15, 0.19, 0.2, 0, 0, 3
 122094476, 0.17, 0.17, 0.17, 0.15, 0.19, 0.2, 0, 0, 3
 122194436, 0.16, 0.16, 0.17, 0.14, 0.19, 0.21, 0, 0, 3
 122294396, 0.16, 0.16, 0.18, 0.15, 0.19, 0.21, 0, 0, 3
 122394356, 0.16, 0.16, 0.18, 0.16, 0.19, 0.21, 0, 0, 3
 122494316, 0.16, 0.16, 0.19, 0.17, 0.19, 0.21, 0, 0, 3
 122594276, 0.16, 0.16, 0.19, 0.18, 0.19, 0.2, 0, 0, 3
 122694236, 0.16, 0.15, 0.19, 0.18, 0.19, 0.2, 0, 0, 3
 122794196, 0.16, 0.16, 0.18, 0.18, 0.19, 0.19, 0, 0, 3
 122894156, 0.17, 0.16, 0.18, 0.18, 0.19, 0.18, 0, 0, 3
 122994116, 0.17, 0.16, 0.17, 0.17, 0.19, 0.17, 0, 0, 3
 123094076, 0.18, 0.16, 0.16, 0.16, 0.19, 0.16, 0, 0, 3
 123194036, 0.18, 0.16, 0.15, 0.15, 0.19, 0.16, 0, 0, 3
 123293996, 0.19, 0.17, 0.15, 0.15, 0.19, 0.16, 0, 0, 3
 123393956, 0.19, 0.17, 0.15, 0.15, 0.19, 0.16, 0, 0, 3
 123493916, 0.19, 0.18, 0.14, 0.14, 0.19, 0.16, 0, 0, 3
 123593876, 0.19, 0.18, 0.14, 0.14, 0.19, 0.17, 0, 0, 3
 123693836, 0.19, 0.18, 0.14, 0.14, 0.19, 0.17, 0, 0, 3
 123793796, 0.19, 0.18, 0.14, 0.14, 0.19, 0.18, 0, 0, 3
 123893756, 0.19, 0.18, 0.14, 0.14, 0.19, 0.18, 0, 0, 3
 123993716, 0.19, 0.18, 0.14, 0.13, 0.19, 0.18, 0, 0, 3
 124094509, 0.2, 0.18, 0.14, 0.13, 0.19, 0.18, 0, 0, 3
 124194469, 0.19, 0.18, 0.15, 0.14, 0.19, 0.18, 0, 0, 3
 124294429, 0.2, 0.19, 0.15, 0.14, 0.19, 0.18, 0, 0, 3
 124394389, 0.19, 0.19, 0.15, 0.15, 0.19, 0.18, 0, 0, 3
 124494349, 0.19, 0.18, 0.15, 0.15, 0.19, 0.18, 0, 0, 3
 124594309, 0.19, 0.18, 0.15, 0.15, 0.19, 0.17, 0, 0, 3
 124694269, 0.19, 0.18, 0.15, 0.15, 0.19, 0.17, 0, 0, 3
 124794229, 0.19, 0.18, 0.15, 0.14, 0.19, 0.17, 0, 0, 3
 124894189, 0.2, 0.18, 0.16, 0.15, 0.19, 0.17, 0, 0, 3
 124994149, 0.2, 0.19, 0.16, 0.15, 0.19, 0.16, 0, 0, 3
 125094109, 0.2, 0.19, 0.16, 0.15, 0.19, 0.16, 0, 0, 3
 125194069, 0.19, 0.19, 0.16, 0.15, 0.19, 0.16, 0, 0, 3
 125294029, 0.19, 0.19, 0.16, 0.15, 0.19, 0.16, 0, 0, 3
 125393989, 0.19, 0.18, 0.16, 0.15, 0.19, 0.16, 0, 0, 3
 125493949, 0.19, 0.18, 0.17, 0.15, 0.19, 0.16, 0, 0, 3
 125593909, 0.19, 0.18, 0.17, 0.15, 0.19, 0.16, 0, 0, 3
 125693869, 0.18, 0.19, 0.17, 0.15, 0.19, 0.17, 0, 0, 3
 125793829, 0.18, 0.19, 0.16, 0.15, 0.19, 0.17, 0, 0, 3
 125893789, 0.18, 0.18, 0.16, 0.15, 0.19, 0.17, 0, 0, 3
 125993749, 0.18, 0.18, 0.16, 0.16, 0.19, 0.17, 0, 0, 3
 126093709, 0.17, 0.17, 0.16, 0.16, 0.19, 0.17, 0, 0, 3
 126194502, 0.17, 0.16, 0.16, 0.15, 0.19, 0.18, 0, 0, 3
 126294462, 0.18, 0.16, 0.17, 0.15, 0.19, 0.18, 0, 0, 3
 126394422, 0.18, 0.17, 0.17, 0.16, 0.19, 0.18, 0, 0, 3
 126494382, 0.18, 0.17, 0.16, 0.16, 0.19, 0.18, 0, 0, 3
 126594342, 0.18, 0.16, 0.16, 0.16, 0.19, 0.18, 0, 0, 3
 126694302, 0.18, 0.16, 0.16, 0.16, 0.19, 0.18, 0, 0, 3
 126794262, 0.18, 0.17, 0.16, 0.15, 0.19, 0.18, 0, 0, 3
 126894222, 0.18, 0.18, 0.16, 0.14, 0.19, 0.18, 0, 0, 3
 126994182, 0.18, 0.18, 0.15, 0.14, 0.19, 0.18, 0, 0, 3
 127094142, 0.18, 0.18, 0.15, 0.14, 0.19, 0.18, 0, 0, 3
 127194102, 0.18, 0.17, 0.15, 0.14, 0.19, 0.18, 0, 0, 3
 127294062, 0.18, 0.16, 0.15, 0.14, 0.19, 0.18, 0, 0, 3
 127394022, 0.18, 0.17, 0.15, 0.14, 0.19, 0.18, 0, 0, 3
 127493982, 0.18, 0.17, 0.15, 0.14, 0.19, 0.18, 0, 0, 3
 127593942, 0.18, 0.17, 0.15, 0.14, 0.19, 0.18, 0, 0, 3
 127693902, 0.18, 0.17, 0.16, 0.15, 0.19, 0.18, 0, 0, 3
 127793862, 0.18, 0.17, 0.16, 0.15, 0.19, 0.18, 0, 0, 3
 127893822, 0.18, 0.17, 0.15, 0.15, 0.19, 0.18, 0, 0, 3
 127993782, 0.18, 0.17, 0.15, 0.16, 0.19, 0.18, 0, 0, 3
 128093742, 0.18, 0.16, 0.15, 0.14, 0.19, 0.18, 0, 0, 3
 128193702, 0.18, 0.16, 0.15, 0.15, 0.19, 0.18, 0, 0, 3
 128294495, 0.18, 0.17, 0.15, 0.14, 0.19, 0.18, 0, 0, 3
 128394455, 0.19, 0.17, 0.15, 0.14, 0.19, 0.18, 0, 0, 3
 128494415, 0.19, 0.18, 0.16, 0.14, 0.19, 0.18, 0, 0, 3
 128594375, 0.19, 0.18, 0.16, 0.15, 0.19, 0.18, 0, 0, 3
 128694335, 0.2, 0.19, 0.14, 0.14, 0.19, 0.18, 0, 0, 3
 128794295, 0.22, 0.21, 0.02, 0.04, 0.19, 0.18, 0, 0, 3
 128894255, 0.26, 0.25, -0.32, -0.27, 0.19, 0.18, 0, 0, 3
 128994215, 0.33, 0.32, -0.84, -0.79, 0.18, 0.17, 0, 0, 3
 129094175, 0.41, 0.4, -1.41, -1.39, 0.18, 0.17, 0, 0, 3
 129194135, 0.49, 0.48, -1.98, -1.97, 0.18, 0.16, 0, 0, 3
 129294095, 0.57, 0.55, -2.51, -2.52, 0.17, 0.15, 0, 0, 3
 129394055, 0.63, 0.63, -3.01, -3.03, 0.17, 0.14, 0, 0, 3
 129494015, 0.71, 0.7, -3.48, -3.5, 0.16, 0.12, 0, 0, 3
 129593975, 0.77, 0.77, -3.94, -3.95, 0.16, 0.1, 0, 0, 3
 129693935, 0.85, 0.84, -4.39, -4.4, 0.15, 0.06, 0, 0, 3
 129793895, 0.92, 0.92, -4.85, -4.86, 0.15, 0.03, 0, 0, 3
 129893855, 0.98, 1, -5.32, -5.32, 0.37, 359.98, 0, 0, 3
 129993815, 0.8, 1.08, -5.83, -5.79, 2.84, 0, 0, 0, 3
 130093775, 0.56, 1.13, -6.34, -6.28, 5.62, 0.31, 0, 0, 3
 130193735, 0.43, 1.11, -6.84, -6.78, 7.04, 1.18, 0, 0, 3
 130294528, 0.37, 1.01, -7.35, -7.3, 7.77, 2.47, 0, 0, 3
 130394488, 0.33, 0.86, -7.85, -7.82, 8.14, 4.1, 0, 0, 3
 130494448, 0.32, 0.65, -8.38, -8.37, 8.32, 5.84, 0, 0, 3
 130594408, 0.33, 0.42, -8.94, -8.94, 8.42, 7.64, 0, 0.01, 3
 130694368, 0.33, 0.15, -9.53, -9.53, 8.47, 9.3, 0, 0.01, 3
 130794328, 0.34, -0.09, -10.12, -10.13, 8.49, 10.79, 0, 0.01, 3
 130894288, 0.34, -0.33, -10.73, -10.73, 8.5, 11.97, 0, 0.01, 3
 130994248, 0.35, -0.53, -11.35, -11.34, 8.5, 12.84, 0, 0.01, 3
 131094208, 0.36, -0.67, -11.9, -11.9, 8.5, 13.31, 0, 0.01, 3
 131194168, 0.35, -0.72, -12.3, -12.32, 8.5, 13.43, 0, 0.01, 3
 131294128, 0.34, -0.71, -12.57, -12.58, 8.51, 13.21, 0, 0, 3
 131394088, 0.32, -0.62, -12.79, -12.8, 8.51, 12.69, 0, 0, 3
 131494048, 0.3, -0.48, -12.87, -12.9, 8.51, 11.93, 0, 0, 3
 131594008, 0.27, -0.29, -12.8, -12.85, 8.51, 11.01, 0, 0, 3
 131693968, 0.24, -0.08, -12.65, -12.69, 8.52, 9.99, 0, 0, 3
 131793928, 0.21, 0.1, -12.46, -12.48, 8.52, 8.98, 0, 0, 3
 131893888, 0.17, 0.26, -12.33, -12.33, 8.53, 8.03, 0, 0, 3
 131993848, 0.13, 0.39, -12.23, -12.22, 8.53, 7.21, 0, 0, 3
 132093808, 0.08, 0.49, -12.14, -12.12, 8.54, 6.55, 0, 0, 3
 132193768, 0.03, 0.55, -12.06, -12.04, 8.54, 6.09, 0, 0, 3
 132293728, 0, 0.54, -11.98, -11.96, 8.55, 5.84, 0, 0, 3
 132394521, -0.04, 0.5, -11.9, -11.88, 8.55, 5.8, 0, 0, 3
 132494481, -0.07, 0.44, -11.79, -11.78, 8.55, 5.94, 0, 0, 3
 132594441, -0.1, 0.35, -11.69, -11.69, 8.56, 6.26, 0, 0, 3
 132694401, -0.12, 0.24, -11.61, -11.59, 8.56, 6.69, 0, 0, 3
 132794361, -0.13, 0.12, -11.52, -11.51, 8.56, 7.21, 0, 0, 3
 132894321, -0.13, 0, -11.41, -11.4, 8.56, 7.78, 0, 0, 3
 132994281, -0.13, -0.1, -11.26, -11.27, 8.56, 8.34, 0, 0, 3
 133094241, -0.12, -0.19, -11.1, -11.12, 8.56, 8.86, 0, 0, 3
 133194201, -0.11, -0.26, -10.91, -10.93, 8.56, 9.32, 0, 0, 3
 133294161, -0.09, -0.3, -10.71, -10.73, 8.55, 9.68, 0, 0, 3
 133394121, -0.07, -0.32, -10.49, -10.5, 8.55, 9.93, 0, 0, 3
 133494081, -0.04, -0.32, -10.25, -10.27, 8.55, 10.06, 0, 0, 3
 133594041, -0.02, -0.29, -9.96, -9.98, 8.55, 10.09, 0, 0, 3
 133694001, 0, -0.24, -9.73, -9.73, 8.55, 10, 0, 0, 3
 133793961, 0, -0.2, -9.66, -9.63, 8.54, 9.83, 0, 0, 3
 133893921, 0.03, -0.15, -9.71, -9.67, 8.54, 9.59, 0, 0, 3
 133993881, 0.04, -0.08, -9.85, -9.81, 8.54, 9.3, 0, 0, 3
 134093841, 0.06, -0.01, -9.97, -9.96, 8.54, 8.98, 0, 0, 3
 134193801, 0.06, 0.04, -10.05, -10.05, 8.54, 8.67, 0, 0, 3
 134293761, 0.07, 0.1, -10.11, -10.11, 8.54, 8.37, 0, 0, 3
 134393721, 0.07, 0.14, -10.16, -10.16, 8.54, 8.11, 0, 0, 3
 134494514, 0.07, 0.18, -10.17, -10.18, 8.54, 7.91, 0, 0, 3
 134594474, 0.07, 0.22, -10.18, -10.18, 8.54, 7.77, 0, 0, 3
 134694434, 0.07, 0.22, -10.15, -10.17, 8.54, 7.69, 0, 0, 3
 134794394, 0.06, 0.21, -10.16, -10.17, 8.54, 7.67, 0, 0, 3
 134894354, 0.07, 0.19, -10.18, -10.18, 8.54, 7.72, 0, 0, 3
 134994314, 0.07, 0.18, -10.2, -10.2, 8.54, 7.82, 0, 0, 3
 135094274, 0.08, 0.17, -10.21, -10.22, 8.54, 7.96, 0, 0, 3
 135194234, 0.09, 0.15, -10.21, -10.22, 8.54, 8.12, 0, 0, 3
 135294194, 0.1, 0.12, -10.19, -10.21, 8.54, 8.31, 0, 0, 3
 135394154, 0.11, 0.1, -10.17, -10.18, 8.53, 8.49, 0, 0, 3
 135494114, 0.13, 0.08, -10.18, -10.18, 8.53, 8.66, 0, 0, 3
 135594074, 0.15, 0.07, -10.16, -10.19, 8.53, 8.8, 0, 0, 3
 135694034, 0.17, 0.07, -10.12, -10.15, 8.53, 8.93, 0, 0, 3
 135793994, 0.19, 0.09, -10.08, -10.1, 8.53, 9.01, 0, 0, 3
 135893954, 0.2, 0.09, -10.03, -10.05, 8.53, 9.06, 0, 0, 3
 135993914, 0.21, 0.11, -9.99, -10, 8.53, 9.07, 0, 0, 3
 136093874, 0.21, 0.12, -9.98, -9.98, 8.53, 9.05, 0, 0, 3
 136193834, 0.21, 0.14, -9.96, -9.96, 8.53, 8.99, 0, 0, 3
 136293794, 0.21, 0.15, -9.94, -9.93, 8.53, 8.91, 0, 0, 3
 136393754, 0.22, 0.17, -9.91, -9.92, 8.53, 8.81, 0, 0, 3
 136493714, 0.22, 0.19, -9.89, -9.9, 8.53, 8.72, 0, 0, 3
 136594507, 0.22, 0.21, -9.84, -9.86, 8.53, 8.61, 0, 0, 3
 136694467, 0.21, 0.22, -9.8, -9.82, 8.53, 8.52, 0, 0, 3
 136794427, 0.21, 0.24, -9.76, -9.77, 8.53, 8.44, 0, 0, 3
 136894387, 0.2, 0.24, -9.76, -9.75, 8.53, 8.37, 0, 0, 3
 136994347, 0.19, 0.24, -9.76, -9.75, 8.53, 8.31, 0, 0, 3
 137094307, 0.18, 0.23, -9.75, -9.74, 8.53, 8.28, 0, 0, 3
 137194267, 0.17, 0.22, -9.74, -9.74, 8.53, 8.26, 0, 0, 3
 137294227, 0.16, 0.21, -9.72, -9.73, 8.53, 8.27, 0, 0, 3
 137394187, 0.16, 0.2, -9.71, -9.7, 8.53, 8.29, 0, 0, 3
 137494147, 0.16, 0.19, -9.71, -9.69, 8.53, 8.33, 0, 0, 3
 137594107, 0.16, 0.17, -9.73, -9.71, 8.53, 8.37, 0, 0, 3
 137694067, 0.16, 0.16, -9.73, -9.73, 8.53, 8.43, 0, 0, 3
 137794027, 0.16, 0.15, -9.72, -9.72, 8.53, 8.49, 0, 0, 3
 137893987, 0.16, 0.15, -9.71, -9.72, 8.53, 8.55, 0, 0, 3
 137993947, 0.17, 0.15, -9.68, -9.7, 8.53, 8.6, 0, 0, 3
 138093907, 0.17, 0.15, -9.67, -9.66, 8.53, 8.64, 0, 0, 3
 138193867, 0.16, 0.15, -9.68, -9.66, 8.53, 8.67, 0, 0, 3
 138293827, 0.15, 0.14, -9.69, -9.68, 8.53, 8.69, 0, 0, 3
 138393787, 0.15, 0.14, -9.7, -9.7, 8.53, 8.7, 0, 0, 3
 138493747, 0.15, 0.14, -9.69, -9.7, 8.53, 8.7, 0, 0, 3
 138593707, 0.16, 0.14, -9.69, -9.7, 8.53, 8.69, 0, 0, 3
 138694500, 0.16, 0.13, -9.65, -9.68, 8.53, 8.67, 0, 0, 3
 138794460, 0.16, 0.13, -9.64, -9.66, 8.53, 8.65, 0, 0, 3
 138894420, 0.16, 0.13, -9.62, -9.63, 8.53, 8.63, 0, 0, 3
 138994380, 0.16, 0.14, -9.64, -9.62, 8.53, 8.6, 0, 0, 3
 139094340, 0.15, 0.15, -9.65, -9.63, 8.53, 8.58, 0, 0, 3
 139194300, 0.15, 0.15, -9.66, -9.65, 8.53, 8.56, 0, 0, 3
 139294260, 0.15, 0.16, -9.66, -9.66, 8.53, 8.54, 0, 0, 3
 139394220, 0.14, 0.16, -9.67, -9.67, 8.53, 8.51, 0, 0, 3
 139494180, 0.14, 0.15, -9.66, -9.68, 8.53, 8.5, 0, 0, 3
 139594140, 0.14, 0.15, -9.66, -9.69, 8.53, 8.48, 0, 0, 3
 139694100, 0.13, 0.15, -9.69, -9.72, 8.53, 8.47, 0, 0, 3
 139794060, 0.13, 0.14, -9.69, -9.74, 8.53, 8.46, 0, 0, 3
 139894020, 0.13, 0.13, -9.67, -9.73, 8.53, 8.47, 0, 0, 3
 139993980, 0.13, 0.13, -9.66, -9.72, 8.53, 8.47, 0, 0, 3
 140093940, 0.13, 0.14, -9.64, -9.68, 8.53, 8.48, 0, 0, 3
 140193900, 0.13, 0.15, -9.65, -9.65, 8.53, 8.49, 0, 0, 3
 140293860, 0.13, 0.16, -9.69, -9.67, 8.53, 8.5, 0, 0, 3
 140393820, 0.13, 0.17, -9.72, -9.69, 8.53, 8.51, 0, 0, 3
 140493780, 0.12, 0.16, -9.75, -9.72, 8.53, 8.53, 0, 0, 3
 140593740, 0.12, 0.15, -9.76, -9.75, 8.53, 8.53, 0, 0, 3
 140693700, 0.11, 0.14, -9.76, -9.77, 8.53, 8.55, 0, 0, 3
 140794493, 0.1, 0.14, -9.73, -9.74, 8.54, 8.55, 0, 0, 3
 140894453, 0.1, 0.13, -9.72, -9.73, 8.54, 8.56, 0, 0, 3
 140994413, 0.1, 0.12, -9.73, -9.72, 8.54, 8.57, 0, 0, 3
 141094373, 0.11, 0.11, -9.77, -9.74, 8.54, 8.57, 0, 0, 3
 141194333, 0.12, 0.1, -9.82, -9.78, 8.53, 8.58, 0, 0, 3
 141294293, 0.13, 0.1, -9.87, -9.82, 8.53, 8.58, 0, 0, 3
 141394253, 0.14, 0.12, -9.9, -9.86, 8.53, 8.58, 0, 0, 3
 141494213, 0.14, 0.12, -9.93, -9.9, 8.53, 8.58, 0, 0, 3
 141594173, 0.15, 0.11, -9.93, -9.93, 8.53, 8.58, 0, 0, 3
 141694133, 0.16, 0.11, -9.94, -9.94, 8.53, 8.57, 0, 0, 3
 141794093, 0.17, 0.13, -9.97, -9.98, 8.53, 8.56, 0, 0, 3
 141894053, 0.18, 0.15, -9.96, -9.98, 8.53, 8.55, 0, 0, 3
 141994013, 0.19, 0.17, -9.95, -9.96, 8.53, 8.53, 0, 0, 3
 142093973, 0.19, 0.17, -9.94, -9.95, 8.53, 8.52, 0, 0, 3
 142193933, 0.19, 0.18, -9.91, -9.92, 8.53, 8.51, 0, 0, 3
 142293893, 0.19, 0.18, -9.91, -9.91, 8.53, 8.5, 0, 0, 3
 142393853, 0.19, 0.18, -9.91, -9.9, 8.53, 8.5, 0, 0, 3
 142493813, 0.19, 0.18, -9.9, -9.89, 8.53, 8.49, 0, 0, 3
 142593773, 0.19, 0.18, -9.9, -9.88, 8.53, 8.5, 0, 0, 3
 142693733, 0.19, 0.18, -9.88, -9.88, 8.53, 8.5, 0, 0, 3
 142794526, 0.19, 0.18, -9.86, -9.87, 8.53, 8.52, 0, 0, 3
 142894486, 0.18, 0.18, -9.81, -9.83, 8.53, 8.53, 0, 0, 3
 142994446, 0.18, 0.18, -9.78, -9.8, 8.53, 8.54, 0, 0, 3
 143094406, 0.18, 0.18, -9.76, -9.78, 8.53, 8.55, 0, 0, 3
 143194366, 0.18, 0.18, -9.76, -9.78, 8.53, 8.56, 0, 0, 3
 143294326, 0.18, 0.18, -9.75, -9.77, 8.53, 8.56, 0, 0, 3
 143394286, 0.17, 0.17, -9.73, -9.75, 8.53, 8.56, 0, 0, 3
 143494246, 0.18, 0.17, -9.71, -9.73, 8.53, 8.56, 0, 0, 3
 143594206, 0.18, 0.17, -9.7, -9.71, 8.53, 8.55, 0, 0, 3
 143694166, 0.18, 0.17, -9.69, -9.7, 8.53, 8.54, 0, 0, 3
 143794126, 0.18, 0.17, -9.69, -9.7, 8.53, 8.53, 0, 0, 3
 143894086, 0.18, 0.17, -9.71, -9.72, 8.53, 8.52, 0, 0, 3
 143994046, 0.19, 0.16, -9.7, -9.71, 8.53, 8.51, 0, 0, 3
 144094006, 0.19, 0.17, -9.68, -9.7, 8.53, 8.51, 0, 0, 3
 144193966, 0.19, 0.18, -9.68, -9.69, 8.53, 8.51, 0, 0, 3
 144293926, 0.19, 0.18, -9.65, -9.67, 8.53, 8.52, 0, 0, 3
 144393886, 0.19, 0.19, -9.66, -9.66, 8.53, 8.52, 0, 0, 3
 144493846, 0.19, 0.18, -9.68, -9.69, 8.53, 8.53, 0, 0, 3
 144593806, 0.19, 0.18, -9.69, -9.7, 8.53, 8.53, 0, 0, 3
 144693766, 0.18, 0.18, -9.69, -9.7, 8.53, 8.54, 0, 0, 3
 144793726, 0.19, 0.18, -9.69, -9.7, 8.53, 8.54, 0, 0, 3
 144894519, 0.19, 0.18, -9.68, -9.7, 8.53, 8.55, 0, 0, 3
 144994479, 0.19, 0.19, -9.66, -9.67, 8.53, 8.55, 0, 0, 3
 145094439, 0.2, 0.19, -9.65, -9.66, 8.53, 8.55, 0, 0, 3
 145194399, 0.2, 0.19, -9.68, -9.68, 8.53, 8.55, 0, 0, 3
 145294359, 0.2, 0.19, -9.7, -9.7, 8.53, 8.54, 0, 0, 3
 145394319, 0.19, 0.19, -9.7, -9.71, 8.53, 8.53, 0, 0, 3
 145494279, 0.19, 0.19, -9.71, -9.72, 8.53, 8.53, 0, 0, 3
 145594239, 0.19, 0.19, -9.71, -9.72, 8.53, 8.52, 0, 0, 3
 145694199, 0.19, 0.19, -9.71, -9.72, 8.53, 8.52, 0, 0, 3
 145794159, 0.18, 0.19, -9.72, -9.72, 8.53, 8.51, 0, 0, 3
 145894119, 0.18, 0.18, -9.74, -9.74, 8.53, 8.51, 0, 0, 3
 145994079, 0.18, 0.18, -9.76, -9.76, 8.53, 8.51, 0, 0, 3
 146094039, 0.18, 0.18, -9.75, -9.76, 8.53, 8.51, 0, 0, 3
 146193999, 0.18, 0.17, -9.74, -9.76, 8.53, 8.52, 0, 0, 3
 146293959, 0.19, 0.18, -9.73, -9.75, 8.53, 8.53, 0, 0, 3
 146393919, 0.19, 0.18, -9.71, -9.72, 8.53, 8.54, 0, 0, 3
 146493879, 0.19, 0.18, -9.74, -9.74, 8.53, 8.55, 0, 0, 3
 146593839, 0.19, 0.18, -9.78, -9.78, 8.53, 8.56, 0, 0, 3
 146693799, 0.19, 0.18, -9.82, -9.82, 8.53, 8.55, 0, 0, 3
 146793759, 0.19, 0.18, -9.84, -9.85, 8.53, 8.55, 0, 0, 3
 146893719, 0.19, 0.18, -9.86, -9.87, 8.53, 8.55, 0, 0, 3
 146994512, 0.19, 0.19, -9.86, -9.87, 8.53, 8.54, 0, 0, 3
 147094472, 0.2, 0.19, -9.86, -9.87, 8.53, 8.53, 0, 0, 3
 147194432, 0.2, 0.2, -9.85, -9.85, 8.53, 8.53, 0, 0, 3
 147294392, 0.2, 0.2, -9.85, -9.85, 8.53, 8.52, 0, 0, 3
 147394352, 0.2, 0.2, -9.85, -9.86, 8.53, 8.52, 0, 0, 3
 147494312, 0.2, 0.19, -9.85, -9.85, 8.53, 8.51, 0, 0, 3
 147594272, 0.2, 0.19, -9.83, -9.84, 8.53, 8.51, 0, 0, 3
 147694232, 0.2, 0.18, -9.82, -9.83, 8.53, 8.51, 0, 0, 3
 147794192, 0.2, 0.18, -9.81, -9.81, 8.53, 8.51, 0, 0, 3
 147894152, 0.21, 0.18, -9.8, -9.8, 8.53, 8.51, 0, 0, 3
 147994112, 0.21, 0.19, -9.82, -9.81, 8.53, 8.51, 0, 0, 3
 148094072, 0.21, 0.2, -9.81, -9.81, 8.53, 8.51, 0, 0, 3
 148194032, 0.21, 0.2, -9.79, -9.8, 8.53, 8.51, 0, 0, 3
 148293992, 0.2, 0.2, -9.78, -9.79, 8.53, 8.51, 0, 0, 3
 148393952, 0.2, 0.2, -9.76, -9.77, 8.53, 8.51, 0, 0, 3
 148493912, 0.19, 0.19, -9.74, -9.74, 8.53, 8.52, 0, 0, 3
 148593872, 0.19, 0.18, -9.74, -9.75, 8.53, 8.53, 0, 0, 3
 148693832, 0.19, 0.18, -9.75, -9.76, 8.53, 8.53, 0, 0, 3
 148793792, 0.19, 0.17, -9.75, -9.76, 8.53, 8.53, 0, 0, 3
 148893752, 0.19, 0.17, -9.74, -9.75, 8.53, 8.54, 0, 0, 3
 148993712, 0.2, 0.19, -9.74, -9.75, 8.53, 8.54, 0, 0, 3
 149094505, 0.2, 0.2, -9.65, -9.68, 8.53, 8.54, 0, 0, 3
 149194465, 0.2, 0.2, -9.4, -9.44, 8.53, 8.54, 0, 0, 3
 149294425, 0.2, 0.2, -8.95, -9, 8.53, 8.54, 0, 0, 3
 149394385, 0.2, 0.19, -8.43, -8.48, 8.53, 8.54, 0, 0, 3
 149494345, 0.2, 0.2, -7.88, -7.91, 8.53, 8.54, 0, 0, 3
 149594305, 0.19, 0.2, -7.32, -7.33, 8.53, 8.54, 0, 0, 3
 149694265, 0.2, 0.19, -6.74, -6.75, 8.53, 8.54, 0, 0, 3
 149794225, 0.2, 0.2, -6.15, -6.15, 8.53, 8.53, 0, 0, 3
 149894185, 0.2, 0.2, -5.54, -5.54, 8.53, 8.53, 0, 0, 3
 149994145, 0.2, 0.2, -4.9, -4.91, 8.54, 8.53, 0, 0, 3
 150094105, 0.22, 0.22, -4.2, -4.23, 8.55, 8.53, 0, 0, 3
 150194065, 0.31, 0.31, -3.25, -3.32, 8.59, 8.53, 0, 0, 3
 150294025, 0.49, 0.47, -2.05, -2.14, 8.67, 8.55, 0, 0, 3
 150393985, 0.71, 0.7, -0.71, -0.78, 8.82, 8.58, 0, 0, 3
 150493945, 0.95, 0.94, 0.71, 0.66, 9.04, 8.65, 0, 0, 3
 150593905, 1.22, 1.19, 2.16, 2.14, 9.34, 8.76, 0, 0, 3
 150693865, 1.51, 1.45, 3.66, 3.65, 9.74, 8.92, 0, 0, 3
 150793825, 1.83, 1.73, 5.2, 5.22, 10.27, 9.17, 0, 0, 3
 150893785, 2.22, 2.04, 6.8, 6.84, 10.96, 9.52, 0, 0, 3
 150993745, 2.67, 2.4, 8.43, 8.51, 11.86, 9.99, 0, 0, 3
 151093705, 3.24, 2.79, 10.1, 10.22, 13.06, 10.63, 0, 0, 3
 151194498, 3.97, 3.3, 11.75, 11.97, 14.69, 11.48, 0, 0, 3
 151294458, 4.93, 3.92, 13.25, 13.62, 16.96, 12.61, 0, 0, 3
 151394418, 6.24, 4.67, 14.43, 15.07, 20.25, 14.1, 0, 0, 3
 151494378, 8.11, 5.63, 15.15, 16.28, 25.25, 16.11, 0.01, 0, 3
 151594338, 10.46, 6.9, 15.31, 17.25, 31.57, 18.92, 0.01, 0, 3
 151694298, 12.83, 8.53, 14.98, 17.82, 37.85, 22.7, 0, 0, 3
 151794258, 15.08, 10.5, 14.15, 17.88, 44.03, 27.47, 0, 0, 3
 151894218, 17.19, 12.75, 12.92, 17.39, 50.09, 33.17, 0, 0.01, 3
 151994178, 19.11, 15.18, 11.36, 16.36, 56.02, 39.67, 0, 0.01, 3
 152094138, 20.78, 17.62, 9.51, 14.7, 61.83, 46.78, 0, 0.01, 3
 152194098, 22.13, 19.86, 7.4, 12.45, 67.51, 54.3, 0, 0.01, 3
 152294058, 23.12, 21.75, 5.08, 9.59, 73.08, 62.17, 0, 0.01, 3
 152394018, 23.8, 23.18, 2.64, 6.26, 78.57, 70.24, 0, 0.02, 3
 152493978, 24.2, 24.08, 0.11, 2.61, 84.01, 78.42, 0, 0.02, 3
 152593938, 24.31, 24.41, -2.44, -1.22, 89.44, 86.7, 0, 0.02, 3
 152693898, 24.09, 24.12, -4.99, -5.02, 94.88, 94.87, 0, 0.02, 3
 152793858, 23.48, 23.16, -7.46, -8.59, 100.39, 102.94, 0, 0.02, 3
 152893818, 22.48, 21.6, -9.8, -11.77, 105.98, 110.82, 0.01, 0.02, 3
 152993778, 21.16, 19.63, -12, -14.5, 111.66, 118.42, 0.01, 0.02, 3
 153093738, 19.59, 17.4, -14.09, -16.76, 117.44, 125.65, 0.01, 0.02, 3
 153193698, 17.79, 15.05, -16.05, -18.63, 123.31, 132.42, 0.01, 0.02, 3
 153294491, 15.76, 12.64, -17.86, -20.13, 129.29, 138.79, 0.01, 0.02, 3
 153394451, 13.55, 10.28, -19.52, -21.35, 135.38, 144.64, 0.01, 0.02, 3
 153494411, 11.17, 7.99, -21, -22.33, 141.58, 150.09, 0.01, 0.02, 3
 153594371, 8.64, 5.79, -22.28, -23.13, 147.89, 155.2, 0.01, 0.02, 3
 153694331, 5.97, 3.65, -23.32, -23.76, 154.31, 160.05, 0.01, 0.01, 3
 153794291, 3.31, 1.56, -24.07, -24.23, 160.54, 164.76, 0.01, 0.01, 3
 153894251, 1.62, -0.46, -24.52, -24.57, 164.4, 169.36, 0.01, 0.01, 3
 153994211, 0.81, -2.29, -24.86, -24.78, 166.36, 173.68, 0.01, 0.01, 3
 154094171, 0.51, -3.78, -25.15, -24.89, 167.33, 177.41, 0.01, 0.01, 3
 154194131, 0.51, -4.85, -25.38, -24.96, 167.79, 180.32, 0.01, 0.01, 3
 154294091, 0.62, -5.55, -25.62, -25.07, 168, 182.34, 0.01, 0.01, 3
 154394051, 0.77, -5.86, -25.8, -25.2, 168.09, 183.44, 0.01, 0.01, 3
 154494011, 0.94, -5.8, -25.98, -25.4, 168.11, 183.64, 0, 0.01, 3
 154593971, 1.09, -5.43, -26.17, -25.67, 168.11, 183.03, 0, 0, 3
 154693931, 1.23, -4.76, -26.34, -25.97, 168.09, 181.69, 0, 0, 3
 154793891, 1.34, -3.85, -26.58, -26.34, 168.07, 179.75, 0, 0, 3
 154893851, 1.42, -2.75, -26.83, -26.73, 168.05, 177.35, 0, 0, 3
 154993811, 1.44, -1.53, -27.08, -27.08, 168.04, 174.62, 0, 0, 3
 155093771, 1.38, -0.26, -27.33, -27.36, 168.05, 171.71, 0, 0, 3
 155193731, 1.25, 0.93, -27.56, -27.57, 168.09, 168.81, 0, 0, 3
 155294524, 1.02, 2, -27.74, -27.7, 168.14, 166.09, 0, 0, 3
 155394484, 0.74, 2.84, -27.85, -27.74, 168.21, 163.74, 0, 0, 3
 155494444, 0.41, 3.43, -27.92, -27.74, 168.29, 161.88, 0, 0, 3
 155594404, 0.1, 3.75, -27.97, -27.75, 168.37, 160.58, 0, 0, 3
 155694364, -0.19, 3.81, -28.02, -27.79, 168.44, 159.87, 0, 0, 3
 155794324, -0.46, 3.64, -28.06, -27.85, 168.51, 159.76, 0, 0, 3
 155894284, -0.69, 3.23, -28.06, -27.9, 168.57, 160.19, 0, 0, 3
 155994244, -0.88, 2.63, -28.03, -27.94, 168.61, 161.1, 0, 0, 3
 156094204, -1.02, 1.89, -27.98, -27.95, 168.65, 162.39, 0, 0, 3
 156194164, -1.11, 1.07, -27.91, -27.92, 168.67, 163.96, 0, 0, 3
 156294124, -1.13, 0.24, -27.83, -27.85, 168.67, 165.67, 0, 0, 3
 156394084, -1.08, -0.54, -27.72, -27.75, 168.66, 167.43, 0, 0, 3
 156494044, -0.97, -1.22, -27.54, -27.54, 168.63, 169.11, 0, 0, 3
 156594004, -0.8, -1.75, -27.31, -27.28, 168.59, 170.61, 0, 0, 3
 156693964, -0.58, -2.11, -27.08, -27.01, 168.53, 171.85, 0, 0, 3
 156793924, -0.34, -2.29, -26.91, -26.8, 168.48, 172.75, 0, 0, 3
 156893884, -0.09, -2.32, -26.92, -26.78, 168.42, 173.32, 0, 0, 3
 156993844, 0.13, -2.2, -27.01, -26.88, 168.36, 173.52, 0, 0, 3
 157093804, 0.33, -1.96, -27.1, -27, 168.31, 173.38, 0, 0, 3
 157193764, 0.5, -1.62, -27.17, -27.11, 168.27, 172.93, 0, 0, 3
 157293724, 0.62, -1.18, -27.23, -27.2, 168.24, 172.22, 0, 0, 3
 157394517, 0.71, -0.69, -27.26, -27.26, 168.22, 171.31, 0, 0, 3
 157494477, 0.74, -0.17, -27.27, -27.28, 168.21, 170.28, 0, 0, 3
 157594437, 0.73, 0.3, -27.29, -27.3, 168.21, 169.21, 0, 0, 3
 157694397, 0.68, 0.72, -27.33, -27.33, 168.23, 168.16, 0, 0, 3
 157794357, 0.58, 1.08, -27.38, -27.37, 168.25, 167.21, 0, 0, 3
 157894317, 0.46, 1.34, -27.41, -27.39, 168.28, 166.4, 0, 0, 3
 157994277, 0.32, 1.51, -27.42, -27.4, 168.31, 165.77, 0, 0, 3
 158094237, 0.18, 1.58, -27.42, -27.41, 168.35, 165.36, 0, 0, 3
 158194197, 0.05, 1.55, -27.42, -27.4, 168.38, 165.16, 0, 0, 3
 158294157, -0.06, 1.43, -27.42, -27.4, 168.41, 165.19, 0, 0, 3
 158394117, -0.16, 1.23, -27.46, -27.44, 168.43, 165.41, 0, 0, 3
 158494077, -0.23, 0.98, -27.48, -27.48, 168.45, 165.79, 0, 0, 3
 158594037, -0.27, 0.7, -27.48, -27.49, 168.46, 166.31, 0, 0, 3
 158693997, -0.29, 0.41, -27.48, -27.49, 168.47, 166.92, 0, 0, 3
 158793957, -0.28, 0.11, -27.47, -27.48, 168.46, 167.57, 0, 0, 3
 158893917, -0.24, -0.15, -27.45, -27.46, 168.45, 168.22, 0, 0, 3
 158993877, -0.18, -0.37, -27.48, -27.47, 168.44, 168.82, 0, 0, 3
 159093837, -0.11, -0.55, -27.5, -27.49, 168.42, 169.35, 0, 0, 3
 159193797, -0.01, -0.66, -27.53, -27.5, 168.4, 169.77, 0, 0, 3
 159293757, 0.08, -0.7, -27.54, -27.53, 168.37, 170.06, 0, 0, 3
 159393717, 0.19, -0.68, -27.56, -27.54, 168.35, 170.22, 0, 0, 3
 159494510, 0.28, -0.61, -27.54, -27.53, 168.32, 170.24, 0, 0, 3
 159594470, 0.36, -0.48, -27.54, -27.53, 168.3, 170.14, 0, 0, 3
 159694430, 0.42, -0.32, -27.51, -27.51, 168.29, 169.93, 0, 0, 3
 159794390, 0.46, -0.14, -27.54, -27.53, 168.28, 169.63, 0, 0, 3
 159894350, 0.48, 0.03, -27.57, -27.56, 168.27, 169.27, 0, 0, 3
 159994310, 0.47, 0.2, -27.58, -27.57, 168.28, 168.87, 0, 0, 3
 160094270, 0.45, 0.37, -27.59, -27.58, 168.28, 168.47, 0, 0, 3
 160194230, 0.42, 0.51, -27.59, -27.59, 168.29, 168.09, 0, 0, 3
 160294190, 0.37, 0.64, -27.6, -27.59, 168.3, 167.75, 0, 0, 3
 160394150, 0.31, 0.72, -27.61, -27.59, 168.32, 167.47, 0, 0, 3
 160494110, 0.25, 0.76, -27.66, -27.63, 168.33, 167.26, 0, 0, 3
 160594070, 0.19, 0.75, -27.68, -27.67, 168.35, 167.14, 0, 0, 3
 160694030, 0.13, 0.71, -27.68, -27.67, 168.36, 167.1, 0, 0, 3
 160793990, 0.07, 0.64, -27.68, -27.67, 168.37, 167.15, 0, 0, 3
 160893950, 0.03, 0.54, -27.66, -27.66, 168.38, 167.27, 0, 0, 3
 160993910, 0, 0.43, -27.66, -27.65, 168.39, 167.44, 0, 0, 3
 161093870, 0, 0.31, -27.69, -27.68, 168.4, 167.66, 0, 0, 3
 161193830, 0, 0.21, -27.72, -27.7, 168.4, 167.9, 0, 0, 3
 161293790, 0, 0.1, -27.74, -27.74, 168.39, 168.16, 0, 0, 3
 161393750, 0.01, 0.01, -27.76, -27.76, 168.39, 168.4, 0, 0, 3
 161493710, 0.04, -0.06, -27.78, -27.78, 168.38, 168.62, 0, 0, 3
 161594503, 0.09, -0.12, -27.77, -27.78, 168.37, 168.8, 0, 0, 3
 161694463, 0.13, -0.14, -27.77, -27.78, 168.36, 168.94, 0, 0, 3
 161794423, 0.18, -0.13, -27.76, -27.77, 168.35, 169.03, 0, 0, 3
 161894383, 0.22, -0.1, -27.82, -27.82, 168.34, 169.06, 0, 0, 3
 161994343, 0.25, -0.06, -27.9, -27.9, 168.33, 169.04, 0, 0, 3
 162094303, 0.28, -0.01, -27.97, -27.96, 168.32, 168.97, 0, 0, 3
 162194263, 0.3, 0.05, -28.02, -28.03, 168.32, 168.87, 0, 0, 3
 162294223, 0.31, 0.12, -28.07, -28.06, 168.31, 168.74, 0, 0, 3
 162394183, 0.33, 0.19, -28.12, -28.09, 168.31, 168.59, 0, 0, 3
 162494143, 0.33, 0.27, -28.16, -28.14, 168.31, 168.44, 0, 0, 3
 162594103, 0.33, 0.33, -28.23, -28.22, 168.31, 168.29, 0, 0, 3
 162694063, 0.31, 0.38, -28.25, -28.26, 168.31, 168.15, 0, 0, 3
 162794023, 0.29, 0.42, -28.24, -28.26, 168.32, 168.03, 0, 0, 3
 162893983, 0.27, 0.45, -28.24, -28.25, 168.33, 167.94, 0, 0, 3
 162993943, 0.25, 0.46, -28.2, -28.22, 168.33, 167.88, 0, 0, 3
 163093903, 0.23, 0.46, -28.2, -28.19, 168.33, 167.86, 0, 0, 3
 163193863, 0.21, 0.43, -28.21, -28.2, 168.34, 167.87, 0, 0, 3
 163293823, 0.2, 0.4, -28.22, -28.21, 168.34, 167.9, 0, 0, 3
 163393783, 0.19, 0.36, -28.21, -28.21, 168.35, 167.96, 0, 0, 3
 163493743, 0.18, 0.31, -28.19, -28.2, 168.35, 168.04, 0, 0, 3
 163593703, 0.18, 0.27, -28.17, -28.18, 168.35, 168.12, 0, 0, 3
 163694496, 0.19, 0.22, -28.11, -28.12, 168.35, 168.22, 0, 0, 3
 163794456, 0.2, 0.19, -28.08, -28.08, 168.34, 168.31, 0, 0, 3
 163894416, 0.21, 0.16, -28.05, -28.04, 168.34, 168.39, 0, 0, 3
 163994376, 0.22, 0.14, -28.05, -28.02, 168.34, 168.46, 0, 0, 3
 164094336, 0.23, 0.13, -28.05, -28.02, 168.33, 168.52, 0, 0, 3
 164194296, 0.25, 0.14, -28.04, -28.01, 168.33, 168.56, 0, 0, 3
 164294256, 0.27, 0.15, -28.03, -28.02, 168.32, 168.58, 0, 0, 3
 164394216, 0.29, 0.16, -28.01, -28.03, 168.32, 168.57, 0, 0, 3
 164494176, 0.29, 0.18, -27.99, -28.03, 168.32, 168.55, 0, 0, 3
 164594136, 0.3, 0.2, -27.97, -28.01, 168.32, 168.52, 0, 0, 3
 164694096, 0.3, 0.23, -28.01, -28.03, 168.32, 168.47, 0, 0, 3
 164794056, 0.31, 0.26, -28, -28.02, 168.31, 168.42, 0, 0, 3
 164894016, 0.31, 0.28, -27.98, -28, 168.31, 168.36, 0, 0, 3
 164993976, 0.31, 0.31, -27.97, -27.98, 168.32, 168.31, 0, 0, 3
 165093936, 0.3, 0.33, -27.92, -27.94, 168.32, 168.26, 0, 0, 3
 165193896, 0.28, 0.35, -27.92, -27.93, 168.32, 168.21, 0, 0, 3
 165293856, 0.27, 0.35, -27.94, -27.95, 168.33, 168.17, 0, 0, 3
 165393816, 0.25, 0.35, -27.96, -27.96, 168.33, 168.14, 0, 0, 3
 165493776, 0.24, 0.34, -27.97, -27.98, 168.33, 168.12, 0, 0, 3
 165593736, 0.23, 0.34, -27.98, -27.99, 168.33, 168.12, 0, 0, 3
 165694529, 0.23, 0.32, -27.99, -28, 168.34, 168.13, 0, 0, 3
 165794489, 0.21, 0.3, -27.95, -27.97, 168.34, 168.15, 0, 0, 3
 165894449, 0.21, 0.29, -27.94, -27.96, 168.34, 168.18, 0, 0, 3
 165994409, 0.21, 0.27, -27.95, -27.96, 168.34, 168.21, 0, 0, 3
 166094369, 0.21, 0.26, -27.98, -27.98, 168.34, 168.24, 0, 0, 3
 166194329, 0.21, 0.24, -27.99, -28.01, 168.34, 168.27, 0, 0, 3
 166294289, 0.21, 0.23, -27.99, -28.01, 168.34, 168.3, 0, 0, 3
 166394249, 0.22, 0.22, -27.99, -28.01, 168.34, 168.33, 0, 0, 3
 166494209, 0.23, 0.21, -28, -28.01, 168.33, 168.35, 0, 0, 3
 166594169, 0.24, 0.2, -28.01, -28.02, 168.33, 168.38, 0, 0, 3
 166694129, 0.25, 0.19, -28.02, -28.02, 168.33, 168.4, 0, 0, 3
 166794089, 0.26, 0.2, -28.08, -28.08, 168.33, 168.42, 0, 0, 3
 166894049, 0.28, 0.21, -28.08, -28.09, 168.32, 168.43, 0, 0, 3
 166994009, 0.29, 0.22, -28.08, -28.08, 168.32, 168.43, 0, 0, 3
 167093969, 0.29, 0.23, -28.08, -28.08, 168.32, 168.43, 0, 0, 3
 167193929, 0.29, 0.24, -28.04, -28.05, 168.32, 168.42, 0, 0, 3
 167293889, 0.29, 0.25, -28.08, -28.08, 168.32, 168.41, 0, 0, 3
 167393849, 0.29, 0.26, -28.14, -28.14, 168.32, 168.4, 0, 0, 3
 167493809, 0.28, 0.27, -28.2, -28.2, 168.32, 168.38, 0, 0, 3
 167593769, 0.28, 0.27, -28.24, -28.25, 168.32, 168.35, 0, 0, 3
 167693729, 0.28, 0.29, -28.26, -28.29, 168.32, 168.32, 0, 0, 3
 167794522, 0.28, 0.31, -28.27, -28.31, 168.32, 168.29, 0, 0, 3
 167894482, 0.27, 0.31, -28.24, -28.26, 168.32, 168.27, 0, 0, 3
 167994442, 0.26, 0.31, -28.23, -28.23, 168.33, 168.24, 0, 0, 3
 168094402, 0.26, 0.31, -28.25, -28.23, 168.33, 168.22, 0, 0, 3
 168194362, 0.26, 0.32, -28.28, -28.26, 168.33, 168.2, 0, 0, 3
 168294322, 0.26, 0.32, -28.29, -28.28, 168.33, 168.19, 0, 0, 3
 168394282, 0.26, 0.33, -28.28, -28.28, 168.33, 168.18, 0, 0, 3
 168494242, 0.25, 0.33, -28.27, -28.27, 168.33, 168.18, 0, 0, 3
 168594202, 0.25, 0.32, -28.27, -28.27, 168.33, 168.19, 0, 0, 3
 168694162, 0.24, 0.31, -28.25, -28.27, 168.33, 168.21, 0, 0, 3
 168794122, 0.24, 0.28, -28.26, -28.27, 168.33, 168.23, 0, 0, 3
 168894082, 0.24, 0.27, -28.27, -28.29, 168.33, 168.26, 0, 0, 3
 168994042, 0.25, 0.25, -28.25, -28.27, 168.33, 168.3, 0, 0, 3
 169094002, 0.25, 0.24, -28.24, -28.25, 168.33, 168.32, 0, 0, 3
 169193962, 0.26, 0.22, -28.22, -28.23, 168.33, 168.35, 0, 0, 3
 169293922, 0.27, 0.21, -28.17, -28.18, 168.32, 168.36, 0, 0, 3
 169393882, 0.28, 0.22, -28.17, -28.17, 168.32, 168.38, 0, 0, 3
 169493842, 0.29, 0.23, -28.18, -28.18, 168.32, 168.39, 0, 0, 3
 169593802, 0.3, 0.24, -28.18, -28.19, 168.31, 168.4, 0, 0, 3
 169693762, 0.31, 0.25, -28.18, -28.19, 168.31, 168.41, 0, 0, 3
 169793722, 0.31, 0.25, -28.18, -28.19, 168.31, 168.42, 0, 0, 3
 169894515, 0.31, 0.26, -28.15, -28.17, 168.31, 168.41, 0, 0, 3
 169994475, 0.32, 0.27, -28.11, -28.12, 168.31, 168.41, 0, 0, 3
 170094435, 0.32, 0.27, -28.07, -28.08, 168.31, 168.39, 0, 0, 3
 170194395, 0.31, 0.28, -28.08, -28.06, 168.31, 168.38, 0, 0, 3
 170294355, 0.31, 0.29, -28.1, -28.09, 168.31, 168.36, 0, 0, 3
 170394315, 0.31, 0.3, -28.1, -28.09, 168.31, 168.33, 0, 0, 3
 170494275, 0.31, 0.31, -28.1, -28.1, 168.31, 168.31, 0, 0, 3
 170594235, 0.31, 0.33, -28.1, -28.1, 168.31, 168.29, 0, 0, 3
 170694195, 0.31, 0.34, -28.09, -28.1, 168.32, 168.27, 0, 0, 3
 170794155, 0.29, 0.35, -28.08, -28.09, 168.32, 168.25, 0, 0, 3
 170894115, 0.28, 0.35, -28.11, -28.1, 168.32, 168.25, 0, 0, 3
 170994075, 0.27, 0.35, -28.12, -28.12, 168.32, 168.24, 0, 0, 3
 171094035, 0.27, 0.35, -28.1, -28.11, 168.33, 168.24, 0, 0, 3
 171193995, 0.26, 0.34, -28.09, -28.1, 168.33, 168.24, 0, 0, 3
 171293955, 0.25, 0.32, -28.06, -28.08, 168.33, 168.25, 0, 0, 3
 171393915, 0.25, 0.3, -28.04, -28.05, 168.33, 168.26, 0, 0, 3
 171493875, 0.24, 0.28, -28.04, -28.05, 168.33, 168.28, 0, 0, 3
 171593835, 0.24, 0.25, -28.05, -28.06, 168.33, 168.3, 0, 0, 3
 171693795, 0.24, 0.24, -28.05, -28.06, 168.33, 168.31, 0, 0, 3
 171793755, 0.25, 0.23, -28.06, -28.06, 168.33, 168.33, 0, 0, 3
 171893715, 0.26, 0.23, -28.06, -28.08, 168.32, 168.34, 0, 0, 3
 171994508, 0.27, 0.24, -28.03, -28.06, 168.32, 168.34, 0, 0, 3
 172094468, 0.28, 0.25, -28.05, -28.05, 168.32, 168.34, 0, 0, 3
 172194428, 0.29, 0.26, -28.07, -28.06, 168.32, 168.34, 0, 0, 3
 172294388, -0.7, -0.42, -27.79, -27.85, 168.57, 168.34, 0, 0, 3
 172394348, -2.54, -2.06, -27.2, -27.29, 169.01, 168.38, 0, 0, 3
 172494308, -0.85, -1.61, -23.31, -24.34, 168.47, 168.41, 0.02, 0, 3
 172594268, 2.46, 1.99, -14.71, -15.44, 168.08, 168.66, 0.02, 0.01, 3
 172694228, 2.82, 2.71, -16.34, -15.11, 168.05, 168.8, 0.03, 0.02, 3
 172794188, 2.94, 2.8, -22.09, -20.95, 167.85, 168.6, 0.03, 0.02, 3
 172894148, 2.95, 2.75, -25.85, -25.45, 167.73, 168.45, 0.06, 0.02, 3
 172994108, 2.86, 2.61, -27.82, -27.9, 167.69, 168.38, 0.06, 0.01, 3
 173094068, 2.67, 2.41, -28.84, -29.08, 167.71, 168.35, 0.12, 0.01, 3
 173194028, 2.44, 2.19, -29.34, -29.6, 167.76, 168.33, 0.12, 0.01, 3
 173293988, 2.18, 1.97, -29.39, -29.63, 167.82, 168.29, 0.12, 0.01, 3
 173393948, 1.93, 1.77, -29.22, -29.39, 167.89, 168.24, 0.12, 0, 3
 173493908, 1.69, 1.58, -28.98, -29.1, 167.95, 168.18, 0.11, 0, 3
 173593868, 1.47, 1.42, -28.8, -28.85, 168.02, 168.11, 0.11, 0, 3
 173693828, 1.26, 1.27, -28.68, -28.7, 168.07, 168.03, 0.09, 0, 3
 173793788, 1.07, 1.12, -28.54, -28.54, 168.12, 167.97, 0.09, 0, 3
 173893748, 0.89, 0.98, -28.39, -28.4, 168.17, 167.92, 0.07, 0, 3
 173993708, 0.73, 0.85, -28.26, -28.26, 168.21, 167.89, 0.07, 0, 3
 174094501, 0.57, 0.72, -27.99, -28.02, 168.25, 167.89, 0.06, 0, 3
 174194461, 0.44, 0.6, -27.9, -27.88, 168.28, 167.91, 0.06, 0, 3
 174294421, 0.32, 0.48, -27.93, -27.91, 168.31, 167.94, 0.05, 0, 3
 174394381, 0.21, 0.37, -27.97, -27.94, 168.34, 168, 0.05, 0, 3
 174494341, 0.12, 0.25, -27.99, -27.97, 168.36, 168.07, 0.04, 0, 3
 174594301, 0.05, 0.15, -28.02, -28, 168.38, 168.16, 0.04, 0, 3
 174694261, 0, 0.06, -28.05, -28.03, 168.39, 168.24, 0.03, 0, 3
 174794221, -0.04, -0.01, -28.08, -28.07, 168.4, 168.33, 0.03, 0, 3
 174894181, -0.07, -0.07, -28.13, -28.12, 168.41, 168.41, 0.03, 0, 3
 174994141, -0.09, -0.12, -28.17, -28.17, 168.42, 168.49, 0.03, 0, 3
 175094101, -0.1, -0.15, -28.21, -28.21, 168.42, 168.55, 0.02, 0, 3
 175194061, -0.1, -0.17, -28.24, -28.25, 168.42, 168.59, 0.02, 0, 3
 175294021, -0.09, -0.19, -28.28, -28.29, 168.42, 168.62, 0.02, 0, 3
 175393981, -0.08, -0.19, -28.31, -28.32, 168.41, 168.62, 0.02, 0, 3
 175493941, -0.06, -0.17, -28.32, -28.35, 168.41, 168.62, 0.02, 0, 3
 175593901, -0.03, -0.13, -28.32, -28.35, 168.4, 168.59, 0.02, 0, 3
 175693861, -0.01, -0.1, -28.36, -28.37, 168.4, 168.55, 0.01, 0, 3
 175793821, 0, -0.06, -28.35, -28.38, 168.39, 168.5, 0.01, 0, 3
 175893781, 0.02, 0, -28.29, -28.33, 168.39, 168.45, 0.01, 0, 3
 175993741, 0.05, 0.04, -28.25, -28.26, 168.38, 168.39, 0.01, 0, 3
 176093701, 0.07, 0.08, -28.26, -28.26, 168.37, 168.33, 0.01, 0, 3
 176194494, 0.1, 0.14, -28.13, -28.14, 168.37, 168.28, 0.01, 0, 3
 176294454, 0.12, 0.17, -28.19, -28.16, 168.36, 168.24, 0.01, 0, 3
 176394414, 0.13, 0.21, -28.29, -28.26, 168.36, 168.2, 0.01, 0, 3
 176494374, 0.14, 0.23, -28.34, -28.33, 168.36, 168.18, 0.01, 0, 3
 176594334, 0.16, 0.25, -28.35, -28.35, 168.35, 168.16, 0.01, 0, 3
 176694294, 0.18, 0.26, -28.35, -28.35, 168.35, 168.15, 0.01, 0, 3
 176794254, 0.19, 0.28, -28.35, -28.36, 168.34, 168.15, 0.01, 0, 3
 176894214, 0.21, 0.29, -28.35, -28.36, 168.34, 168.15, 0, 0, 3
 176994174, 0.23, 0.31, -28.34, -28.36, 168.33, 168.16, 0, 0, 3
 177094134, 0.25, 0.32, -28.33, -28.36, 168.33, 168.18, 0, 0, 3
 177194094, 0.27, 0.32, -28.31, -28.34, 168.32, 168.2, 0, 0, 3
 177294054, 0.28, 0.32, -28.31, -28.33, 168.32, 168.22, 0, 0, 3
 177394014, 0.3, 0.32, -28.32, -28.31, 168.32, 168.25, 0, 0, 3
 177493974, 0.32, 0.32, -28.33, -28.32, 168.31, 168.28, 0, 0, 3
 177593934, 0.34, 0.32, -28.34, -28.33, 168.31, 168.3, 0, 0, 3
 177693894, 0.36, 0.32, -28.34, -28.34, 168.3, 168.32, 0, 0, 3
 177793854, 0.37, 0.32, -28.42, -28.4, 168.3, 168.33, 0, 0, 3
 177893814, 0.39, 0.33, -28.41, -28.41, 168.29, 168.34, 0, 0, 3
 177993774, 0.4, 0.35, -28.37, -28.37, 168.29, 168.34, 0, 0, 3
 178093734, 0.41, 0.36, -28.31, -28.33, 168.29, 168.35, 0, 0, 3
 178194527, 0.41, 0.38, -28.25, -28.28, 168.29, 168.34, 0, 0, 3
 178294487, 0.41, 0.39, -28.01, -28.04, 168.29, 168.34, 0, 0, 3
 178394447, 0.41, 0.41, -28.01, -28, 168.29, 168.32, 0, 0, 3
 178494407, 0.4, 0.4, -28.06, -28.04, 168.29, 168.3, 0, 0, 3
 178594367, 0.4, 0.4, -28.1, -28.09, 168.29, 168.29, 0, 0, 3
 178694327, 0.39, 0.39, -28.11, -28.12, 168.29, 168.27, 0, 0, 3
 178794287, 0.4, 0.39, -28.12, -28.13, 168.29, 168.25, 0, 0, 3
 178894247, 0.4, 0.41, -28.12, -28.14, 168.29, 168.23, 0, 0, 3
 178994207, 0.39, 0.42, -28.14, -28.14, 168.29, 168.22, 0, 0, 3
 179094167, 0.38, 0.42, -28.16, -28.15, 168.3, 168.21, 0, 0, 3
 179194127, 0.37, 0.41, -28.19, -28.17, 168.3, 168.21, 0, 0, 3
 179294087, 0.35, 0.39, -28.21, -28.19, 168.3, 168.21, 0, 0, 3
 179394047, 0.35, 0.39, -28.23, -28.21, 168.3, 168.22, 0, 0, 3
 179494007, 0.34, 0.37, -28.24, -28.23, 168.31, 168.24, 0, 0, 3
 179593967, 0.34, 0.36, -28.24, -28.24, 168.31, 168.25, 0, 0, 3
 179693927, 0.33, 0.34, -28.26, -28.25, 168.31, 168.28, 0, 0, 3
 179793887, 0.32, 0.33, -28.27, -28.26, 168.31, 168.29, 0, 0, 3
 179893847, 0.32, 0.32, -28.38, -28.36, 168.31, 168.31, 0, 0, 3
 179993807, 0.32, 0.32, -28.39, -28.39, 168.31, 168.32, 0, 0, 3
 180093767, 0.31, 0.32, -28.37, -28.38, 168.31, 168.33, 0, 0, 3
 180193727, 0.31, 0.32, -28.36, -28.37, 168.31, 168.34, 0, 0, 3
 180294520, 0.29, 0.33, -28.29, -28.33, 168.32, 168.34, 0, 0, 3
 180394480, 0.28, 0.31, -28.14, -28.15, 168.32, 168.34, 0, 0, 3
 180494440, 0.27, 0.28, -28.18, -28.17, 168.32, 168.34, 0, 0, 3
 180594400, 0.27, 0.27, -28.23, -28.22, 168.32, 168.34, 0, 0, 3
 180694360, 0.28, 0.27, -28.25, -28.25, 168.32, 168.33, 0, 0, 3
 180794320, 0.28, 0.27, -28.25, -28.25, 168.32, 168.32, 0, 0, 3
 180894280, 0.28, 0.27, -28.25, -28.25, 168.32, 168.3, 0, 0, 3
 180994240, 0.29, 0.28, -28.25, -28.25, 168.32, 168.29, 0, 0, 3
 181094200, 0.29, 0.29, -28.24, -28.25, 168.32, 168.28, 0, 0, 3
 181199991, 0.29, 0.29, -27.74, -27.82, 168.32, 168.26, 0, 0, 3
 181299951, 0.29, 0.31, -27.77, -27.72, 168.32, 168.25, 0, 0, 3
 181399911, 0.29, 0.31, -28.01, -27.96, 168.32, 168.24, 0, 0, 3
 181499871, 0.29, 0.31, -28.15, -28.13, 168.32, 168.24, 0, 0, 3
 181599831, 0.28, 0.31, -28.21, -28.21, 168.32, 168.23, 0, 0, 3
 181699791, 0.29, 0.3, -28.22, -28.23, 168.32, 168.24, 0, 0, 3
 181799751, 0.29, 0.31, -28.24, -28.24, 168.32, 168.24, 0, 0, 3
 181899711, 0.3, 0.31, -28.24, -28.26, 168.32, 168.25, 0, 0, 3
 181999671, 0.3, 0.31, -28.18, -28.19, 168.32, 168.26, 0, 0, 3
 182099631, 0.31, 0.31, -28.23, -28.23, 168.31, 168.27, 0, 0, 3
 182199591, 0.31, 0.31, -28.28, -28.27, 168.31, 168.28, 0, 0, 3
 182299551, 0.31, 0.31, -28.31, -28.3, 168.31, 168.29, 0, 0, 3
 182399511, 0.32, 0.31, -28.32, -28.33, 168.31, 168.29, 0, 0, 3
 182499471, 0.32, 0.31, -28.35, -28.35, 168.31, 168.3, 0, 0, 3
 182599431, 0.32, 0.32, -28.39, -28.36, 168.31, 168.3, 0, 0, 3
 182699391, 0.32, 0.32, -28.41, -28.38, 168.31, 168.3, 0, 0, 3
 182799351, 0.32, 0.32, -28.42, -28.4, 168.31, 168.3, 0, 0, 3
 182899311, 0.32, 0.32, -28.42, -28.41, 168.31, 168.31, 0, 0, 3
 182999271, 0.32, 0.33, -28.42, -28.42, 168.31, 168.31, 0, 0, 3
 183099231, 0.31, 0.33, -28.41, -28.43, 168.31, 168.31, 0, 0, 3
 183199191, 0.31, 0.33, -28.4, -28.42, 168.31, 168.31, 0, 0, 3
 183299984, 0.3, 0.34, -28.35, -28.38, 168.32, 168.3, 0, 0, 3
 183399944, 0.29, 0.33, -28.3, -28.32, 168.32, 168.3, 0, 0, 3
 183499904, 0.29, 0.31, -28.27, -28.29, 168.32, 168.29, 0, 0, 3
 183599864, 0.29, 0.3, -28.25, -28.26, 168.32, 168.29, 0, 0, 3
 183699824, 0.3, 0.3, -28.24, -28.25, 168.32, 168.28, 0, 0, 3
 183799784, 0.31, 0.31, -28.23, -28.24, 168.31, 168.28, 0, 0, 3
 183899744, 0.31, 0.31, -28.22, -28.24, 168.31, 168.28, 0, 0, 3
 183999704, 0.31, 0.32, -28.16, -28.19, 168.31, 168.28, 0, 0, 3
 184099664, 0.32, 0.33, -27.96, -28, 168.31, 168.27, 0, 0, 3
 184199624, 0.32, 0.34, -27.64, -27.7, 168.31, 168.27, 0, 0, 3
 184299584, 0.32, 0.33, -27.17, -27.23, 168.32, 168.27, 0, 0, 3
 184399544, 0.32, 0.33, -26.62, -26.67, 168.32, 168.27, 0, 0, 3
 184499504, 0.31, 0.33, -26.01, -26.05, 168.32, 168.27, 0, 0, 3
 184599464, 0.3, 0.32, -25.36, -25.39, 168.32, 168.27, 0, 0, 3
 184699424, 0.3, 0.31, -24.68, -24.7, 168.33, 168.28, 0, 0, 3
 184799384, 0.31, 0.31, -23.95, -23.97, 168.33, 168.28, 0, 0, 3
 184899344, 0.3, 0.3, -23.2, -23.23, 168.33, 168.29, 0, 0, 3
 184999304, 0.3, 0.29, -22.41, -22.43, 168.33, 168.3, 0, 0, 3
 185099264, 0.29, 0.28, -21.55, -21.58, 168.34, 168.3, 0, 0, 3
 185199224, 0.29, 0.28, -20.63, -20.65, 168.34, 168.31, 0, 0, 3
 185300017, 0.29, 0.28, -19.66, -19.67, 168.34, 168.32, 0, 0, 3
 185399977, 0.29, 0.28, -18.62, -18.64, 168.35, 168.32, 0, 0, 3
 185499937, 0.28, 0.28, -17.53, -17.55, 168.35, 168.32, 0, 0, 3
 185599897, 0.27, 0.28, -16.38, -16.4, 168.35, 168.33, 0, 0, 3
 185699857, 0.24, 0.26, -15.16, -15.18, 168.36, 168.33, 0, 0, 3
 185799817, 0.22, 0.23, -13.88, -13.88, 168.37, 168.33, 0, 0, 3
 185899777, 0.19, 0.19, -12.57, -12.57, 168.37, 168.33, 0, 0, 3
 185999737, 0.18, 0.17, -11.22, -11.22, 168.37, 168.33, 0, 0, 3
 186099697, 0.17, 0.16, -9.76, -9.78, 168.38, 168.33, 0, 0, 3
 186199657, 0.16, 0.15, -8.27, -8.27, 168.38, 168.33, 0, 0, 3
 186299617, 0.24, 0.23, -6.76, -6.75, 168.41, 168.33, 0, 0, 3
 186399577, 0.51, 0.48, -5.2, -5.18, 168.48, 168.34, 0, 0, 3
 186499537, 0.94, 0.91, -3.59, -3.57, 168.64, 168.37, 0, 0, 3
 186599497, 1.44, 1.42, -2.05, -2, 168.89, 168.44, 0, 0.01, 3
 186699457, 1.97, 1.96, -0.75, -0.65, 169.26, 168.55, 0, 0.01, 3
 186799417, 2.5, 2.5, 0.32, 0.45, 169.76, 168.74, 0, 0.01, 3
 186899377, 3.05, 3.03, 1.28, 1.41, 170.39, 169.01, 0, 0.01, 3
 186999337, 3.63, 3.57, 2.19, 2.34, 171.19, 169.42, 0, 0.01, 3
 187099297, 4.25, 4.14, 3.04, 3.23, 172.18, 169.97, 0, 0.01, 3
 187199257, 4.9, 4.73, 3.82, 4.07, 173.38, 170.72, 0, 0.01, 3
 187299217, 5.62, 5.38, 4.51, 4.83, 174.84, 171.69, 0, 0.01, 3
 187400010, 6.41, 6.08, 5.08, 5.5, 176.59, 172.93, 0, 0.01, 3
 187499970, 7.25, 6.83, 5.54, 6.06, 178.69, 174.45, 0, 0.01, 3
 187599930, 8.16, 7.65, 5.83, 6.51, 181.19, 176.31, 0, 0.02, 3
 187699890, 9.13, 8.53, 5.9, 6.78, 184.16, 178.56, 0, 0.02, 3
 187799850, 10.1, 9.44, 5.59, 6.74, 187.62, 181.25, 0, 0.02, 3
 187899810, 12.04, 10.93, 7.1, 8.01, 191.85, 184.73, 0, 0.02, 3
 187999770, 15.8, 14.1, 11.03, 12.32, 197.09, 189.84, 0, 0.03, 3
 188099730, 19.9, 18.04, 13.76, 15.88, 202.85, 196.03, 0, 0.04, 3
 188199690, 24.15, 22.51, 12.21, 15.55, 208.23, 202, 0, 0.05, 3
 188299650, 27.28, 26.67, 5.37, 9.29, 212.87, 207.36, 0.2, 0.06, 3
 188399610, 24.92, 25.26, 4.2, 6.04, 217.7, 213.55, 0.2, 0.06, 3
 188499570, 18.12, 19.58, 1.17, 2.4, 222.31, 219.99, 0.36, 0.05, 3
 188599530, 7.84, 9.14, -2.11, -1.75, 227.21, 226.45, 0.36, 0.05, 3
 188699490, -5.1, -3.39, -4.08, -3.87, 232.48, 233.58, 0.49, 0.06, 3
 188799450, -17.45, -16.87, -1.99, -1.6, 237.16, 240.17, 0.49, 0.07, 3
 188899410, -23.63, -23.99, 0.04, 2.03, 240.86, 246.05, 0.59, 0.1, 3
 188999370, -26.72, -27.17, 1.14, 5.04, 244.14, 251.94, 0.59, 0.13, 3
 189099330, -28.27, -28.3, 1.63, 7.48, 247.09, 257.88, 0.67, 0.16, 3
 189199290, -29.06, -28.42, 1.77, 9.52, 249.71, 263.72, 0.67, 0.19, 3
 189299250, -29.47, -28.07, 1.72, 11.27, 252.02, 269.3, 0.73, 0.22, 3
 189399210, -29.69, -27.52, 1.58, 12.8, 254.01, 274.49, 0.73, 0.24, 3
 189500003, -29.81, -26.9, 1.41, 14.11, 255.72, 279.17, 0.79, 0.26, 3
 189599963, -29.82, -26.38, 2.32, 15.07, 259.07, 282.94, 0.79, 0.28, 3
 189699923, -29.81, -26.09, 2.87, 15.55, 261.54, 285.46, 0.83, 0.29, 3
 189799883, -29.85, -26.14, 2.76, 15.44, 262.6, 286.48, 0.83, 0.31, 3
 189899843, -29.92, -26.54, 1.93, 14.67, 262.21, 285.9, 0.86, 0.32, 3
 189999803, -29.96, -27.22, 1.17, 13.27, 261.7, 283.86, 0.86, 0.33, 3
 190099763, -29.98, -28.02, 0.71, 11.34, 261.52, 280.67, 0.89, 0.35, 3
 190199723, -29.99, -28.79, 0.42, 9, 261.43, 276.71, 0.89, 0.36, 3
 190299683, -29.99, -29.41, 0.22, 6.41, 261.35, 272.24, 0.91, 0.37, 3
 190399643, -29.99, -29.83, 0.11, 3.7, 261.3, 267.58, 0.91, 0.38, 3
 190499603, -27.28, -28.12, -1.06, 0.2, 261.55, 263.39, 0.93, 0.38, 3
 190599563, -20.11, -20.99, -3.07, -3.74, 261.82, 259.66, 0.93, 0.39, 3
 190699523, -7.92, -9.21, -6.3, -7.03, 261.65, 255.83, 0.94, 0.4, 3
 190799483, 6.63, 6.89, -9.04, -8.23, 260.69, 251.95, 0.94, 0.41, 3
 190899443, 17.78, 19.05, -7.55, -5.29, 259.89, 249.44, 0.95, 0.43, 3
 190999403, 23.78, 25.14, -3.86, 0.5, 260.33, 249.05, 0.95, 0.45, 3
 191099363, 26.82, 27.79, -1.97, 4.06, 260.72, 248.75, 0.96, 0.46, 3
 191199323, 28.38, 28.83, -1, 5.93, 260.96, 248.5, 0.96, 0.47, 3
 191299283, 29.17, 29.19, -0.51, 6.73, 261.09, 248.53, 0.97, 0.47, 3
 191399243, 29.57, 29.33, -0.26, 6.82, 261.17, 248.98, 0.97, 0.47, 3
 191505034, 29.78, 29.43, -0.13, 6.43, 261.2, 249.98, 0.97, 0.47, 3
 191604994, 29.89, 29.54, -0.06, 5.68, 261.22, 251.4, 0.98, 0.47, 3
 191704954, 29.94, 29.66, -0.03, 4.67, 261.23, 253.24, 0.98, 0.47, 3
 191804914, 29.97, 29.79, -0.01, 3.49, 261.24, 255.31, 0.98, 0.47, 3
 191904874, 29.98, 29.87, 0, 2.21, 261.24, 257.55, 0.98, 0.47, 3
 192004834, 29.98, 29.92, 0, 0.92, 261.24, 259.77, 0.98, 0.47, 3
 192104794, 29.99, 29.92, 0, -0.26, 261.24, 261.85, 0.98, 0.47, 3
 192204754, 29.96, 29.89, -0.02, -1.3, 261.23, 263.63, 0.99, 0.47, 3
 192304714, 25.45, 25.97, -6.21, -6.14, 259.72, 262.94, 0.99, 0.48, 3
 192404674, 18.93, 19.2, -16.93, -16.32, 258.34, 260.09, 0.99, 0.47, 3
 192504634, 7.99, 9.05, -23.48, -23.43, 259.56, 259.52, 0.99, 0.46, 3
 192604594, -3.79, -2.72, -24.92, -25.76, 262.09, 260.86, 0.99, 0.46, 3
 192704554, -16.38, -15.25, -17.96, -20.66, 263.98, 261.52, 0.99, 0.46, 3
 192804514, -23.21, -23.4, -9.22, -11.56, 263.22, 260.21, 0.99, 0.47, 3
 192904474, -26.55, -27.43, -4.71, -5.94, 262.4, 259.85, 0.99, 0.49, 3
 193004434, -28.24, -29.21, -2.4, -2.6, 261.87, 260.55, 0.99, 0.5, 3
 193104394, -29.1, -29.87, -1.22, -0.51, 261.58, 261.77, 0.99, 0.52, 3
 193204354, -29.54, -30.04, -0.62, 0.86, 261.42, 263.13, 0.99, 0.53, 3
 193304314, -29.76, -30.02, -0.32, 1.77, 261.33, 264.32, 0.99, 0.54, 3
 193404274, -29.88, -29.96, -0.16, 2.36, 261.29, 265.23, 0.99, 0.54, 3
 193504234, -29.93, -29.9, -0.08, 2.65, 261.27, 265.73, 0.99, 0.55, 3
 193605027, -29.96, -29.87, -0.04, 2.7, 261.25, 265.85, 0.99, 0.56, 3
 193704987, -26.28, -27.28, -5.08, -1.04, 262.53, 267.49, 0.99, 0.56, 3
 193804947, -21.33, -22.95, -12.54, -9.13, 263.67, 270.29, 0.98, 0.56, 3
 193904907, -12.6, -15.88, -18.25, -16.06, 263.3, 271.15, 0.98, 0.57, 3
 194004867, -3.25, -6.68, -22.14, -21.69, 261.88, 269.97, 0.96, 0.57, 3
 194104827, 8.52, 4.78, -22.09, -23.95, 259.55, 267.09, 0.96, 0.58, 3
 194204787, 19.22, 17.44, -13.54, -17.43, 258.88, 265.05, 0.93, 0.6, 3
 194304747, 24.57, 24.77, -6.93, -9.71, 259.69, 263.94, 0.93, 0.61, 3
 194404707, 27.23, 28.19, -3.54, -4.42, 260.36, 262.05, 0.91, 0.62, 3
 194504667, 28.59, 29.56, -1.8, -0.79, 260.77, 259.56, 0.91, 0.62, 3
 194604627, 29.28, 29.94, -0.92, 1.76, 260.99, 256.97, 0.91, 0.62, 3
 194704587, 29.63, 29.9, -0.47, 3.56, 261.11, 254.7, 0.91, 0.62, 3
 194804547, 29.81, 29.75, -0.24, 4.75, 261.18, 252.96, 0.91, 0.61, 3
 194904507, 29.9, 29.61, -0.12, 5.43, 261.21, 251.91, 0.91, 0.6, 3
 195004467, 29.95, 29.53, -0.06, 5.66, 261.23, 251.51, 0.91, 0.6, 3
 195104427, 29.82, 29.44, 0.27, 5.62, 261.32, 251.8, 0.91, 0.59, 3
 195204387, 28.2, 27.59, 4.5, 8.31, 262.39, 254.22, 0.91, 0.58, 3
 195304347, 21.83, 21.91, 7.04, 9.64, 262.62, 256.25, 0.91, 0.57, 3
 195404307, 13.69, 13.66, 9.02, 10.16, 262.34, 257.9, 0.91, 0.55, 3
 195504267, 3.62, 3.96, 9.92, 10.28, 261.57, 259.48, 0.91, 0.54, 3
 195604227, -6.3, -6.08, 10.63, 10.71, 260.65, 260.86, 0.91, 0.52, 3
 195705020, -16.22, -15.83, 9.83, 10.89, 259.8, 262.08, 0.91, 0.5, 3
 195804980, -23.03, -23.35, 5.22, 7.51, 260.12, 264.14, 0.89, 0.48, 3
 195904940, -26.44, -27.23, 2.66, 5.16, 260.58, 265.51, 0.89, 0.47, 3
 196004900, -28.18, -28.97, 1.36, 3.77, 260.88, 265.78, 0.87, 0.46, 3
 196104860, -29.07, -29.69, 0.69, 2.74, 261.05, 265.22, 0.87, 0.46, 3
 196204820, -29.52, -29.95, 0.35, 1.81, 261.14, 264.14, 0.86, 0.46, 3
 196304780, -29.75, -30.03, 0.18, 0.92, 261.19, 262.79, 0.86, 0.46, 3
 196404740, -29.87, -30.01, 0.09, 0.05, 261.22, 261.35, 0.85, 0.46, 3
 196504700, -29.93, -29.87, 0.04, -0.94, 261.23, 259.56, 0.85, 0.46, 3
 196604660, -29.96, -29.78, 0.02, -1.72, 261.24, 258.16, 0.83, 0.46, 3
 196704620, -29.93, -29.66, -0.05, -2.39, 261.26, 256.9, 0.83, 0.46, 3
 196804580, -27.53, -27.39, -4.11, -5.67, 262.27, 257.62, 0.8, 0.47, 3
 196904540, -18.47, -19.39, -12.37, -12.17, 263.03, 259.58, 0.8, 0.47, 3
 197004500, 0.76, -1.37, -16.17, -16.38, 260.8, 260.01, 0.75, 0.48, 3
 197104460, 15.45, 14.93, -9.87, -11.39, 259.65, 260.23, 0.75, 0.5, 3
 197204420, 22.62, 23.47, -5.06, -6.21, 260.09, 261.47, 0.8, 0.52, 3
 197304380, 26.23, 27.51, -2.58, -3.39, 260.56, 262.21, 0.8, 0.52, 3
 197404340, 28.07, 29.26, -1.31, -1.89, 260.87, 262.36, 0.78, 0.52, 3
 197504300, 29.01, 29.94, -0.67, -1.01, 261.05, 262.11, 0.78, 0.51, 3
 197604260, 29.49, 30.15, -0.34, -0.42, 261.14, 261.64, 0.76, 0.5, 3
 197704220, 29.74, 30.17, -0.17, 0.02, 261.19, 261.09, 0.76, 0.49, 3
 197805013, 29.86, 30.14, -0.08, 0.38, 261.22, 260.55, 0.74, 0.48, 3
 197904973, 29.93, 30.09, -0.04, 0.66, 261.23, 260.11, 0.74, 0.46, 3
 198004933, 29.96, 30.04, -0.02, 0.86, 261.24, 259.78, 0.72, 0.45, 3
 198104893, 29.98, 29.99, -0.01, 0.97, 261.24, 259.64, 0.72, 0.44, 3
 198204853, 31.23, 31.2, 0.47, 1.51, 263.44, 261.83, 0.71, 0.43, 3
