Time,SIM_Roll,SIM_Pitch,SIM_Yaw,SIM_Alt,SIM_Lat,SIM_Lng,SIM_Q1,SIM_Q2,SIM_Q3,SIM_Q4
 101194506, 0, 0, 0, 558.09, 33.6216408, 72.955685, 1, 0, 0, 0
 101294466, 0, 0, 0, 558.09, 33.6216408, 72.955685, 1, 0, 0, 0
 101394426, 0, 0, 0, 558.09, 33.6216408, 72.955685, 1, 0, 0, 0
 101494386, 0, 0, 0, 558.09, 33.6216408, 72.955685, 1, 0, 0, 0
 101594346, 0, 0, 0, 558.09, 33.6216408, 72.955685, 1, 0, 0, 0
 101694306, 0, 0, 0, 558.09, 33.6216408, 72.955685, 1, 0, 0, 0
 101794266, 0, 0, 0, 558.09, 33.6216408, 72.955685, 1, 0, 0, 0
 101894226, 0, 0, 0, 558.09, 33.6216408, 72.955685, 1, 0, 0, 0
 101994186, 0, 0, 0, 558.09, 33.6216408, 72.955685, 1, 0, 0, 0
 102094146, 0, 0, 0, 558.09, 33.6216408, 72.955685, 1, 0, 0, 0
 102194106, 0, 0, 0, 558.09, 33.6216408, 72.955685, 1, 0, 0, 0
 102294066, 0, 0, 0, 558.09, 33.6216408, 72.955685, 1, 0, 0, 0
 102394026, 0, 0, 0, 558.09, 33.6216408, 72.955685, 1, 0, 0, 0
 102493986, 0, 0, 0, 558.09, 33.6216408, 72.955685, 1, 0, 0, 0
 102593946, 0, 0, 0, 558.09, 33.6216408, 72.955685, 1, 0, 0, 0
 102693906, 0, 0, 0, 558.09, 33.6216408, 72.955685, 1, 0, 0, 0
 102793866, 0, 0, 0, 558.09, 33.6216408, 72.955685, 1, 0, 0, 0
 102893826, 0, 0, 0, 558.09, 33.6216408, 72.955685, 1, 0, 0, 0
 102993786, 0, 0, 0, 558.09, 33.6216408, 72.955685, 1, 0, 0, 0
 103093746, 0, 0, 0, 558.09, 33.6216408, 72.955685, 1, 0, 0, 0
 103193706, 0, 0, 0, 558.09, 33.6216408, 72.955685, 1, 0, 0, 0
 103294499, 0, 0, 0, 558.09, 33.6216408, 72.955685, 1, 0, 0, 0
 103394459, 0, 0, 0, 558.09, 33.6216408, 72.955685, 1, 0, 0, 0
 103494419, 0, 0, 0, 558.09, 33.6216408, 72.955685, 1, 0, 0, 0
 103594379, 0, 0, 0, 558.09, 33.6216408, 72.955685, 1, 0, 0, 0
 103694339, 0, 0, 0, 558.09, 33.6216408, 72.955685, 1, 0, 0, 0
 103794299, 0, 0, 0, 558.09, 33.6216408, 72.955685, 1, 0, 0, 0
 103894259, 0, 0, 0, 558.09, 33.6216408, 72.955685, 1, 0, 0, 0
 103994219, 0, 0, 0, 558.09, 33.6216408, 72.955685, 1, 0, 0, 0
 104094179, 0, 0, 0, 558.09, 33.6216408, 72.955685, 1, 0, 0, 0
 104194139, 0, 0, 0, 558.09, 33.6216408, 72.955685, 1, 0, 0, 0
 104294099, 0, 0, 0, 558.09, 33.6216408, 72.955685, 1, 0, 0, 0
 104394059, 0, 0, 0, 558.09, 33.6216408, 72.955685, 1, 0, 0, 0
 104494019, 0, 0, 0, 558.09, 33.6216408, 72.955685, 1, 0, 0, 0
 104593979, 0, 0, 0, 558.09, 33.6216408, 72.955685, 1, 0, 0, 0
 104693939, 0, 0, 0, 558.09, 33.6216408, 72.955685, 1, 0, 0, 0
 104793899, 0, 0, 0, 558.09, 33.6216408, 72.955685, 1, 0, 0, 0
 104893859, 0, 0, 0, 558.09, 33.6216408, 72.955685, 1, 0, 0, 0
 104993819, 0, 0, 0, 558.09, 33.6216408, 72.955685, 1, 0, 0, 0
 105093779, 0, 0, 0, 558.09, 33.6216408, 72.955685, 1, 0, 0, 0
 105193739, 0, 0, 0, 558.09, 33.6216408, 72.955685, 1, 0, 0, 0
 105293699, 0, 0, 0, 558.09, 33.6216408, 72.955685, 1, 0, 0, 0
 105394492, 0, 0, 0, 558.09, 33.6216408, 72.955685, 1, 0, 0, 0
 105494452, 0, 0, 0, 558.09, 33.6216408, 72.955685, 1, 0, 0, 0
 105594412, 0, 0, 360, 558.09, 33.6216408, 72.955685, 1, 0, 0, -5.135661E-11
 105694372, 0, 0, 360, 558.09, 33.6216408, 72.955685, 1, 0, 0, -3.775453E-09
 105794332, 0, 0, 360, 558.09, 33.6216408, 72.955685, 1, 0, 0, -9.673017E-09
 105894292, 0, 0, 360, 558.09, 33.6216408, 72.955685, 1, 0, 0, -3.409947E-08
 105994252, 0, 0, 360, 558.09, 33.6216408, 72.955685, 1, 0, 0, -5.982369E-08
 106094212, 0, 0, 360, 558.09, 33.6216408, 72.955685, 1, 0, 0, -9.251095E-08
 106194172, 0, 0, 360, 558.09, 33.6216408, 72.955685, 1, 0, 0, -1.506927E-07
 106294132, 0, 0, 359.99, 558.09, 33.6216408, 72.955685, 1, 0, 0, -2.264467E-07
 106394092, 0, 0, 359.99, 558.1, 33.6216408, 72.955685, 1, 0, 0, -3.0684E-07
 106494052, 0, 0, 359.99, 558.12, 33.6216408, 72.955685, 1, 0, 0, -3.757499E-07
 106594012, 0, 0, 359.99, 558.15, 33.6216408, 72.955685, 1, 0, 0, -4.624269E-07
 106693972, 0, 0, 359.99, 558.19, 33.6216408, 72.955685, 1, 0, 0, -5.584814E-07
 106793932, -0.13, -0.12, 359.99, 558.26, 33.6216408, 72.955685, 0.9999987, -0.001176059, -0.001111364, -3.103967E-06
 106893892, -0.3, -0.27, 359.99, 558.38, 33.6216408, 72.955685, 0.9999936, -0.002648217, -0.002414947, -1.690606E-05
 106993852, -0.35, -0.33, 359.99, 558.54, 33.6216408, 72.955685, 0.9999909, -0.003128335, -0.002890852, -4.225007E-05
 107093812, -0.33, -0.31, 359.99, 558.73, 33.6216408, 72.955685, 0.9999917, -0.002959256, -0.002785912, -7.631577E-05
 107193772, -0.27, -0.26, 359.98, 558.92, 33.6216408, 72.955685, 0.9999945, -0.00239674, -0.002279536, -0.0001154389
 107293732, -0.19, -0.19, 359.98, 559.11, 33.6216408, 72.955685, 0.9999971, -0.001736057, -0.001659973, -0.0001618616
 107394525, -0.13, -0.12, 359.97, 559.31, 33.6216408, 72.9556849, 0.9999987, -0.001154313, -0.001100122, -0.0002116638
 107494485, -0.07, -0.08, 359.97, 559.52, 33.6216409, 72.9556849, 0.9999995, -0.0006802315, -0.0007008249, -0.0002588237
 107594445, -0.03, -0.04, 359.96, 559.75, 33.6216409, 72.9556849, 0.9999998, -0.0002915357, -0.0003971358, -0.0003030152
 107694405, 0, -0.02, 359.96, 559.98, 33.6216409, 72.9556848, 0.9999999, -8.245467E-06, -0.0001782422, -0.0003428672
 107794365, 0.02, 0, 359.95, 560.22, 33.6216409, 72.9556848, 0.9999999, 0.0002441528, 7.804076E-05, -0.0003710751
 107894325, 0.04, 0.04, 359.95, 560.46, 33.6216411, 72.9556848, 0.9999998, 0.0003804188, 0.0003664007, -0.0003919435
 107994285, 0.06, 0.06, 359.95, 560.72, 33.6216411, 72.9556848, 0.9999996, 0.0005736804, 0.0005592522, -0.0004024671
 108094245, 0.08, 0.07, 359.95, 560.98, 33.6216411, 72.9556846, 0.9999995, 0.0007352146, 0.0006402084, -0.000405224
 108194205, 0.1, 0.08, 359.95, 561.24, 33.6216411, 72.9556846, 0.9999993, 0.0008822268, 0.0007084055, -0.000403475
 108294165, 0.11, 0.09, 359.95, 561.51, 33.6216411, 72.9556846, 0.9999991, 0.0009812987, 0.0007898633, -0.0003999741
 108394125, 0.11, 0.1, 359.95, 561.77, 33.6216412, 72.9556846, 0.999999, 0.001037325, 0.0009146012, -0.0004015451
 108494085, 0.12, 0.11, 359.95, 562.03, 33.6216412, 72.9556846, 0.9999989, 0.001111569, 0.0009596106, -0.000406392
 108594045, 0.12, 0.11, 359.95, 562.3, 33.6216412, 72.9556846, 0.9999987, 0.001129995, 0.001013809, -0.0004200511
 108694005, 0.12, 0.11, 359.94, 562.55, 33.6216412, 72.9556846, 0.9999987, 0.001132259, 0.001034899, -0.000443243
 108793965, 0.12, 0.12, 359.94, 562.81, 33.6216412, 72.9556846, 0.9999987, 0.001105694, 0.001091819, -0.0004705097
 108893925, 0.11, 0.13, 359.94, 563.07, 33.6216412, 72.9556846, 0.9999986, 0.001027956, 0.001186854, -0.0004974622
 108993885, 0.1, 0.14, 359.94, 563.32, 33.6216412, 72.9556846, 0.9999986, 0.000955831, 0.001250436, -0.0005248827
 109093845, 0.1, 0.12, 359.93, 563.57, 33.6216412, 72.9556846, 0.9999988, 0.0008918759, 0.00113189, -0.0005570862
 109193805, 0.09, 0.11, 359.93, 563.81, 33.6216412, 72.9556846, 0.999999, 0.0008068592, 0.0009606726, -0.0005809463
 109293765, 0.08, 0.09, 359.93, 564.06, 33.6216412, 72.9556846, 0.9999992, 0.0007547475, 0.0008098758, -0.0006016714
 109393725, 0.07, 0.08, 359.92, 564.3, 33.6216412, 72.9556846, 0.9999993, 0.0006114994, 0.0007228253, -0.0006229366
 109494518, 0.05, 0.07, 359.92, 564.55, 33.6216412, 72.9556846, 0.9999995, 0.0005142023, 0.0006789414, -0.0006440032
 109594478, 0.06, 0.06, 359.92, 564.79, 33.6216412, 72.9556846, 0.9999995, 0.0005290323, 0.0006042187, -0.0006593512
 109694438, 0.05, 0.06, 359.92, 565.03, 33.6216412, 72.9556846, 0.9999995, 0.0005213371, 0.0005510783, -0.0006743098
 109794398, 0.05, 0.06, 359.91, 565.27, 33.6216412, 72.9556846, 0.9999995, 0.0004487951, 0.0005515982, -0.0007076632
 109894358, 0.04, 0.06, 359.91, 565.51, 33.6216412, 72.9556846, 0.9999995, 0.0004029496, 0.0005628248, -0.0007504522
 109994318, 0.02, 0.04, 359.91, 565.75, 33.6216412, 72.9556846, 0.9999996, 0.0002011349, 0.0003904111, -0.0007854536
 110094278, 0.01, 0.03, 359.9, 566, 33.6216412, 72.9556846, 0.9999996, 0.0001385966, 0.0002893174, -0.000815736
 110194238, 0.02, 0.03, 359.9, 566.24, 33.6216412, 72.9556846, 0.9999996, 0.0002322442, 0.0002770834, -0.0008406627
 110294198, 0.02, 0.02, 359.9, 566.48, 33.6216412, 72.9556846, 0.9999996, 0.0002330173, 0.0002197445, -0.0008631538
 110394158, 0.03, 0.03, 359.89, 566.73, 33.6216412, 72.9556846, 0.9999995, 0.0003073498, 0.000308035, -0.0008790265
 110494118, 0.02, 0.03, 359.89, 566.97, 33.6216412, 72.9556846, 0.9999995, 0.0002214949, 0.0003298985, -0.0008925491
 110594078, 0.01, 0.04, 359.89, 567.21, 33.6216412, 72.9556846, 0.9999995, 0.0001102727, 0.0003625422, -0.0009044727
 110694038, 0.01, 0.03, 359.89, 567.46, 33.6216412, 72.9556846, 0.9999995, 0.0001467385, 0.0003302469, -0.000905045
 110793998, 0.02, 0.04, 359.89, 567.7, 33.6216412, 72.9556846, 0.9999995, 0.0001782984, 0.0003709304, -0.0008956777
 110893958, 0.02, 0.04, 359.89, 567.94, 33.6216412, 72.9556846, 0.9999995, 0.0002142296, 0.0004033518, -0.0008851121
 110993918, 0.02, 0.04, 359.89, 568.18, 33.6216412, 72.9556846, 0.9999995, 0.0002477245, 0.0004264733, -0.0008747779
 111093878, 0.03, 0.04, 359.9, 568.42, 33.6216411, 72.9556846, 0.9999995, 0.0002789288, 0.000406959, -0.0008655333
 111193838, 0.03, 0.03, 359.9, 568.67, 33.6216411, 72.9556846, 0.9999995, 0.0003079472, 0.0002806253, -0.0008590033
 111293798, 0.03, 0.01, 359.9, 568.9, 33.6216411, 72.9556846, 0.9999996, 0.0003349694, 0.0001000142, -0.0008608029
 111393758, 0.02, 0, 359.89, 569.14, 33.6216411, 72.9556846, 0.9999996, 0.0002438488, -2.564503E-05, -0.0008894759
 111493718, 0.01, -0.01, 359.89, 569.38, 33.6216411, 72.9556846, 0.9999995, 0.0001345679, -0.0001580713, -0.0009236623
 111594511, 0, -0.02, 359.88, 569.62, 33.6216411, 72.9556846, 0.9999995, 6.759927E-05, -0.0002005603, -0.0009624548
 111694471, 0, -0.03, 359.88, 569.86, 33.6216411, 72.9556846, 0.9999995, -1.980741E-05, -0.0002715907, -0.001005034
 111794431, 0, -0.03, 359.87, 570.1, 33.6216409, 72.9556848, 0.9999994, -6.040831E-05, -0.0002929467, -0.001053479
 111894391, 0, -0.03, 359.87, 570.34, 33.6216409, 72.9556848, 0.9999993, -6.979048E-05, -0.0002973235, -0.001104306
 111994351, 0, -0.02, 359.86, 570.58, 33.6216409, 72.9556848, 0.9999993, -3.248214E-05, -0.0002358588, -0.001154344
 112094311, 0, -0.02, 359.86, 570.81, 33.6216409, 72.9556848, 0.9999992, 2.344666E-06, -0.0001786201, -0.001204092
 112194271, -0.01, -0.03, 359.85, 571.05, 33.6216409, 72.9556848, 0.9999992, -0.000151934, -0.0002658607, -0.001246749
 112294231, -0.02, -0.04, 359.85, 571.29, 33.6216409, 72.9556848, 0.999999, -0.0002614468, -0.0003948392, -0.001280833
 112394191, -0.04, -0.05, 359.85, 571.53, 33.6216409, 72.9556848, 0.9999989, -0.0003949153, -0.0005025014, -0.001298194
 112494151, -0.05, -0.06, 359.85, 571.76, 33.6216409, 72.9556848, 0.9999989, -0.0004784635, -0.0005811928, -0.001282823
 112594111, -0.05, -0.06, 359.85, 572, 33.6216409, 72.9556848, 0.9999989, -0.0005093705, -0.0005759082, -0.001247864
 112694071, -0.06, -0.07, 359.86, 572.24, 33.6216409, 72.9556848, 0.9999989, -0.0005382016, -0.0006310294, -0.001210223
 112794031, -0.06, -0.07, 359.86, 572.48, 33.6216409, 72.9556849, 0.9999989, -0.0005650331, -0.00069137, -0.001172569
 112893991, -0.05, -0.08, 359.86, 572.72, 33.6216409, 72.9556849, 0.9999989, -0.0005075047, -0.0007477526, -0.001150606
 112993951, -0.05, -0.09, 359.86, 572.96, 33.6216409, 72.9556849, 0.9999989, -0.0004817547, -0.0008003282, -0.001164821
 113093911, -0.04, -0.08, 359.86, 573.2, 33.6216409, 72.9556849, 0.9999989, -0.0004328596, -0.0007290173, -0.001210818
 113193871, -0.04, -0.07, 359.85, 573.43, 33.6216409, 72.9556849, 0.9999989, -0.000410846, -0.0006278779, -0.001286022
 113293831, -0.05, -0.06, 359.84, 573.67, 33.6216409, 72.9556849, 0.9999988, -0.0004374058, -0.0005413907, -0.001389529
 113393791, -0.05, -0.06, 359.82, 573.91, 33.6216409, 72.9556849, 0.9999986, -0.0004512751, -0.0005501434, -0.001497595
 113493751, -0.05, -0.05, 359.81, 574.15, 33.6216409, 72.9556849, 0.9999985, -0.0004748138, -0.0004923081, -0.001597634
 113593711, -0.05, -0.05, 359.8, 574.39, 33.6216409, 72.9556849, 0.9999983, -0.0005015851, -0.0004610355, -0.001686061
 113694504, -0.05, -0.04, 359.79, 574.63, 33.6216409, 72.9556849, 0.9999983, -0.0004709395, -0.0004110292, -0.001761351
 113794464, -0.05, -0.04, 359.79, 574.87, 33.6216409, 72.9556849, 0.9999982, -0.0004962186, -0.0003810677, -0.001822505
 113894424, -0.05, -0.04, 359.78, 575.11, 33.6216409, 72.9556849, 0.9999981, -0.0005177693, -0.0003633481, -0.001860917
 113994384, -0.05, -0.03, 359.78, 575.35, 33.6216409, 72.9556849, 0.9999981, -0.0005198336, -0.0003144596, -0.001858467
 114094344, -0.05, -0.03, 359.79, 575.58, 33.6216409, 72.9556849, 0.9999982, -0.0005199985, -0.00026893, -0.001815671
 114194304, -0.06, -0.03, 359.79, 575.82, 33.6216409, 72.9556849, 0.9999983, -0.0005478514, -0.0002697833, -0.001754462
 114294264, -0.05, -0.03, 359.8, 576.06, 33.6216409, 72.9556849, 0.9999984, -0.000478012, -0.0003365668, -0.001692566
 114394224, -0.04, -0.03, 359.81, 576.3, 33.6216409, 72.9556849, 0.9999985, -0.0004235418, -0.0003265878, -0.001651437
 114494184, -0.05, -0.03, 359.81, 576.54, 33.6216409, 72.9556849, 0.9999985, -0.0004411453, -0.0003350926, -0.001637202
 114594144, -0.05, -0.03, 359.81, 576.78, 33.6216409, 72.9556849, 0.9999985, -0.0004574746, -0.0003292889, -0.001639108
 114694104, -0.05, -0.03, 359.8, 577.01, 33.6216409, 72.9556848, 0.9999985, -0.0004487584, -0.0003034578, -0.001672097
 114794064, -0.04, -0.03, 359.8, 577.25, 33.6216409, 72.9556848, 0.9999983, -0.0003996047, -0.0003165117, -0.001739157
 114894024, -0.03, -0.03, 359.78, 577.49, 33.6216409, 72.9556848, 0.9999982, -0.0003188775, -0.0003101606, -0.001841905
 114993984, -0.02, -0.03, 359.77, 577.72, 33.6216411, 72.9556848, 0.999998, -0.0002606634, -0.0003022336, -0.00196032
 115093944, -0.02, -0.03, 359.76, 577.96, 33.6216411, 72.9556848, 0.9999978, -0.0002024389, -0.0002895212, -0.002078687
 115193904, -0.02, -0.02, 359.75, 578.2, 33.6216411, 72.9556848, 0.9999976, -0.0001758314, -0.0002296254, -0.002168817
 115293864, -0.01, -0.02, 359.74, 578.44, 33.6216411, 72.9556848, 0.9999975, -0.0001498223, -0.0001858417, -0.002220772
 115393824, 0, -0.01, 359.74, 578.67, 33.6216411, 72.9556846, 0.9999975, -6.561608E-05, -9.685882E-05, -0.002235557
 115493784, 0, 0, 359.74, 578.91, 33.6216411, 72.9556846, 0.9999975, -4.649134E-05, -9.27333E-06, -0.002226662
 115593744, 0, 0, 359.74, 579.15, 33.6216411, 72.9556846, 0.9999976, 9.419881E-07, 6.411508E-05, -0.002185954
 115693704, 0, 0.01, 359.75, 579.38, 33.6216411, 72.9556846, 0.9999977, 5.727501E-05, 0.0001172655, -0.002142454
 115794497, 0.01, 0.02, 359.75, 579.62, 33.6216412, 72.9556846, 0.9999977, 0.0001305469, 0.0001970046, -0.002106896
 115894457, 0.02, 0.02, 359.76, 579.86, 33.6216412, 72.9556846, 0.9999978, 0.0001861022, 0.0002317311, -0.00208353
 115994417, 0.02, 0.02, 359.76, 580.1, 33.6216412, 72.9556846, 0.9999977, 0.0002086154, 0.0002254399, -0.002091782
 116094377, 0.02, 0.02, 359.75, 580.33, 33.6216412, 72.9556846, 0.9999977, 0.0002409118, 0.0002252245, -0.002120266
 116194337, 0.02, 0.03, 359.75, 580.57, 33.6216412, 72.9556846, 0.9999976, 0.0002533594, 0.0002636724, -0.00216672
 116294297, 0.02, 0.03, 359.74, 580.81, 33.6216412, 72.9556846, 0.9999974, 0.0002562811, 0.0002749225, -0.002214935
 116394257, 0.02, 0.03, 359.74, 581.04, 33.6216412, 72.9556846, 0.9999974, 0.0002611272, 0.0002725337, -0.002262863
 116494217, 0.02, 0.03, 359.73, 581.28, 33.6216412, 72.9556846, 0.9999973, 0.0002272557, 0.0002812541, -0.00230886
 116594177, 0.02, 0.03, 359.73, 581.52, 33.6216412, 72.9556846, 0.9999971, 0.0002183925, 0.0002766787, -0.002350271
 116694137, 0.01, 0.02, 359.72, 581.75, 33.6216412, 72.9556846, 0.9999971, 0.0001433254, 0.0002184608, -0.002384823
 116794097, 0.01, 0.02, 359.72, 581.99, 33.6216412, 72.9556846, 0.999997, 0.0001383897, 0.0002153356, -0.002414824
 116894057, 0.01, 0.02, 359.72, 582.23, 33.6216412, 72.9556846, 0.999997, 8.998822E-05, 0.0001949259, -0.002440465
 116994017, 0, 0.01, 359.71, 582.47, 33.6216412, 72.9556846, 0.999997, 3.895851E-05, 0.0001592127, -0.00246034
 117093977, 0, 0.01, 359.71, 582.72, 33.6216412, 72.9556846, 0.999997, -5.825104E-05, 0.0001133504, -0.002474538
 117193937, -0.01, 0, 359.71, 582.96, 33.6216412, 72.9556846, 0.9999969, -9.055185E-05, 8.618189E-05, -0.002488916
 117293897, 0, 0.01, 359.71, 583.21, 33.6216413, 72.9556846, 0.9999968, -2.34071E-05, 0.0001420794, -0.002501211
 117393857, 0, 0.01, 359.71, 583.45, 33.6216413, 72.9556844, 0.9999968, -8.010338E-06, 0.0001255307, -0.002511988
 117493817, 0, 0, 359.71, 583.69, 33.6216413, 72.9556844, 0.9999968, -2.761538E-05, 6.745925E-05, -0.002514058
 117593777, 0, 0.01, 359.71, 583.93, 33.6216413, 72.9556844, 0.9999968, 7.677605E-06, 0.0001059637, -0.002512219
 117693737, 0.01, 0.01, 359.71, 584.17, 33.6216413, 72.9556844, 0.9999968, 8.987266E-05, 0.0001545093, -0.002511255
 117794530, 0.01, 0.03, 359.71, 584.4, 33.6216413, 72.9556844, 0.9999967, 0.0001535775, 0.0003235751, -0.002517604
 117894490, 0.02, 0.03, 359.7, 584.64, 33.6216413, 72.9556844, 0.9999967, 0.0002493863, 0.0003240067, -0.002539463
 117994450, 0.03, 0.04, 359.7, 584.88, 33.6216413, 72.9556844, 0.9999966, 0.0003377106, 0.0003675034, -0.002564066
 118094410, 0.04, 0.03, 359.7, 585.11, 33.6216413, 72.9556844, 0.9999965, 0.0003976885, 0.000335404, -0.002598039
 118194370, 0.04, 0.03, 359.69, 585.35, 33.6216413, 72.9556844, 0.9999964, 0.0004177048, 0.0002826805, -0.002622119
 118294330, 0.05, 0.02, 359.69, 585.58, 33.6216413, 72.9556844, 0.9999964, 0.0004420925, 0.0002232548, -0.00264382
 118394290, 0.04, 0.01, 359.69, 585.82, 33.6216413, 72.9556844, 0.9999964, 0.0003829153, 0.0001703783, -0.00266647
 118494250, 0.02, 0.01, 359.69, 586.05, 33.6216413, 72.9556844, 0.9999964, 0.0002337738, 0.0001322244, -0.002668736
 118594210, 0.01, 0.01, 359.69, 586.29, 33.6216413, 72.9556844, 0.9999964, 9.473633E-05, 0.0001124501, -0.002666812
 118694170, 0.01, 0.01, 359.69, 586.52, 33.6216413, 72.9556844, 0.9999964, 0.0001510295, 0.0001365938, -0.002662587
 118794130, 0.02, 0.02, 359.69, 586.76, 33.6216413, 72.9556844, 0.9999964, 0.0002376463, 0.0001950941, -0.002664372
 118894090, 0.03, 0.02, 359.69, 586.99, 33.6216413, 72.9556844, 0.9999964, 0.0003035778, 0.0002080698, -0.002672395
 118994050, 0.03, 0.02, 359.69, 587.23, 33.6216413, 72.9556844, 0.9999964, 0.0002951193, 0.0002011682, -0.0026859
 119094010, 0.02, 0.02, 359.68, 587.47, 33.6216413, 72.9556844, 0.9999962, 0.0002445565, 0.0002083798, -0.002706474
 119193970, 0.02, 0.02, 359.68, 587.7, 33.6216413, 72.9556844, 0.9999962, 0.0002498763, 0.0001925633, -0.002731781
 119293930, 0.02, 0.02, 359.68, 587.94, 33.6216413, 72.9556844, 0.9999961, 0.0002246971, 0.0001769258, -0.00275843
 119393890, 0.02, 0.02, 359.68, 588.18, 33.6216413, 72.9556844, 0.9999961, 0.0001992592, 0.0001824177, -0.002792305
 119493850, 0.02, 0.02, 359.67, 588.41, 33.6216413, 72.9556844, 0.9999959, 0.0002083048, 0.0001883665, -0.002829602
 119593810, 0.02, 0.01, 359.67, 588.65, 33.6216413, 72.9556844, 0.9999958, 0.0002014093, 0.000167779, -0.00286995
 119693770, 0.02, 0.01, 359.66, 588.89, 33.6216413, 72.9556844, 0.9999958, 0.0001950174, 0.0001541731, -0.002899188
 119793730, 0.01, 0.02, 359.66, 589.13, 33.6216413, 72.9556844, 0.9999958, 0.0001577408, 0.0001878686, -0.002902592
 119894523, 0.01, 0.01, 359.66, 589.37, 33.6216413, 72.9556844, 0.9999958, 0.0001568284, 0.0001572976, -0.002881631
 119994483, 0.01, 0.02, 359.67, 589.6, 33.6216413, 72.9556844, 0.9999959, 0.0001685708, 0.0001785853, -0.002854722
 120094443, 0.01, 0.02, 359.67, 589.84, 33.6216413, 72.9556844, 0.9999959, 9.907041E-05, 0.0002209759, -0.002840157
 120194403, 0, 0.03, 359.67, 590.08, 33.6216413, 72.9556844, 0.9999959, 3.444744E-05, 0.0003034844, -0.002836107
 120294363, 0, 0.02, 359.67, 590.32, 33.6216413, 72.9556844, 0.9999959, -1.915231E-05, 0.0002394878, -0.002835766
 120394323, 0, 0.02, 359.67, 590.55, 33.6216413, 72.9556844, 0.9999959, -2.810196E-05, 0.0001792806, -0.002836464
 120494283, 0, 0.01, 359.67, 590.79, 33.6216413, 72.9556844, 0.9999959, 3.235885E-05, 0.0001229171, -0.002843211
 120594243, 0.01, 0, 359.66, 591.03, 33.6216413, 72.9556844, 0.9999958, 0.0001404657, 7.017086E-05, -0.002883621
 120694203, 0.01, 0.01, 359.66, 591.27, 33.6216413, 72.9556844, 0.9999956, 0.0001702778, 9.869467E-05, -0.002957894
 120794163, 0.02, 0.01, 359.65, 591.5, 33.6216413, 72.9556844, 0.9999954, 0.0002105699, 0.0001233552, -0.003039575
 120894123, 0.02, 0.01, 359.64, 591.74, 33.6216412, 72.9556844, 0.9999951, 0.0001813552, 0.0001024573, -0.003124305
 120994083, 0.03, 0.01, 359.63, 591.98, 33.6216412, 72.9556844, 0.9999949, 0.0002678683, 0.0001305768, -0.003192036
 121094043, 0.02, 0, 359.62, 592.22, 33.6216412, 72.9556844, 0.9999947, 0.0001918296, 6.869071E-05, -0.003246838
 121194003, 0.01, 0, 359.62, 592.45, 33.6216412, 72.9556844, 0.9999945, 0.0001210766, 3.796383E-05, -0.003299657
 121293963, 0, 0, 359.61, 592.69, 33.6216412, 72.9556846, 0.9999945, 6.327246E-05, -2.395503E-05, -0.003333443
 121393923, 0, 0, 359.61, 592.93, 33.6216412, 72.9556846, 0.9999945, 4.945234E-05, 4.702666E-06, -0.003332
 121493883, 0, 0, 359.62, 593.17, 33.6216412, 72.9556846, 0.9999946, 3.644843E-05, -2.02374E-05, -0.00329849
 121593843, 0, 0, 359.62, 593.4, 33.6216412, 72.9556846, 0.9999948, 1.749338E-05, -7.389341E-06, -0.003240777
 121693803, 0, 0, 359.63, 593.64, 33.6216412, 72.9556846, 0.9999949, -4.124299E-05, -4.631371E-05, -0.003180985
 121793763, -0.01, -0.01, 359.64, 593.88, 33.6216412, 72.9556846, 0.9999951, -0.0001183963, -8.761761E-05, -0.003121959
 121893723, -0.02, -0.01, 359.64, 594.11, 33.6216412, 72.9556846, 0.9999952, -0.0002016917, -0.0001261364, -0.003077977
 121994516, -0.01, -0.01, 359.65, 594.35, 33.6216412, 72.9556846, 0.9999953, -0.0001614372, -0.0001627602, -0.003049959
 122094476, -0.02, -0.02, 359.65, 594.59, 33.6216412, 72.9556846, 0.9999954, -0.0002126273, -0.0001963967, -0.003033026
 122194436, -0.03, -0.02, 359.65, 594.83, 33.6216412, 72.9556846, 0.9999953, -0.000285696, -0.0002277335, -0.003032145
 122294396, -0.03, -0.02, 359.65, 595.06, 33.6216412, 72.9556846, 0.9999953, -0.0003102435, -0.0001780145, -0.003031309
 122394356, -0.03, 0, 359.65, 595.3, 33.6216412, 72.9556846, 0.9999954, -0.0002979673, -1.997488E-05, -0.003028572
 122494316, -0.03, 0, 359.65, 595.54, 33.6216412, 72.9556846, 0.9999953, -0.0002866885, 5.558772E-05, -0.003047809
 122594276, -0.03, 0.01, 359.64, 595.77, 33.6216412, 72.9556846, 0.9999952, -0.0003057727, 0.0001023974, -0.003102995
 122694236, -0.03, 0.01, 359.63, 596.01, 33.6216412, 72.9556846, 0.9999949, -0.0003180883, 0.0001154957, -0.003171384
 122794196, -0.03, 0.01, 359.62, 596.25, 33.6216411, 72.9556846, 0.9999947, -0.0003027308, 0.0001187566, -0.003248984
 122894156, -0.03, 0.01, 359.61, 596.49, 33.6216411, 72.9556846, 0.9999943, -0.0002782998, 0.0001135448, -0.003347932
 122994116, -0.02, 0, 359.6, 596.72, 33.6216411, 72.9556846, 0.999994, -0.0002236376, 5.089766E-05, -0.003449829
 123094076, -0.02, 0, 359.59, 596.96, 33.6216411, 72.9556846, 0.9999937, -0.0002500676, -4.373213E-05, -0.003537728
 123194036, -0.02, 0, 359.58, 597.2, 33.6216411, 72.9556846, 0.9999935, -0.0002420035, -6.90516E-05, -0.003596528
 123293996, -0.01, -0.01, 359.58, 597.44, 33.6216411, 72.9556846, 0.9999934, -0.000171398, -0.0001172081, -0.003618343
 123393956, -0.01, -0.01, 359.58, 597.68, 33.6216411, 72.9556846, 0.9999934, -0.0001087508, -0.0001486419, -0.00362272
 123493916, -0.01, -0.02, 359.58, 597.91, 33.6216411, 72.9556846, 0.9999934, -8.83535E-05, -0.0001785932, -0.003617899
 123593876, 0, -0.02, 359.58, 598.15, 33.6216411, 72.9556846, 0.9999935, -8.478838E-05, -0.000177385, -0.003609708
 123693836, 0, -0.02, 359.58, 598.39, 33.6216411, 72.9556846, 0.9999935, -8.400259E-05, -0.0001908417, -0.003598638
 123793796, 0, -0.02, 359.58, 598.63, 33.6216411, 72.9556846, 0.9999936, -7.201551E-05, -0.0001759915, -0.003586771
 123893756, 0, -0.02, 359.59, 598.87, 33.6216411, 72.9556846, 0.9999936, -3.39581E-05, -0.0002063989, -0.003577719
 123993716, 0, -0.02, 359.59, 599.11, 33.6216411, 72.9556846, 0.9999936, -1.348296E-05, -0.0002205189, -0.003572481
 124094509, 0, -0.02, 359.59, 599.35, 33.6216411, 72.9556846, 0.9999936, -2.496344E-05, -0.00023135, -0.003571229
 124194469, 0, -0.02, 359.59, 599.59, 33.6216411, 72.9556846, 0.9999936, -9.189077E-06, -0.0002023447, -0.003573882
 124294429, 0, -0.01, 359.58, 599.83, 33.6216411, 72.9556846, 0.9999935, 2.821917E-05, -0.0001314785, -0.003596699
 124394389, 0, -0.01, 359.58, 600.06, 33.6216411, 72.9556846, 0.9999934, 2.525336E-05, -9.092926E-05, -0.003638581
 124494349, 0, 0, 359.57, 600.3, 33.6216411, 72.9556846, 0.9999932, 1.936804E-06, -7.354233E-05, -0.003681223
 124594309, 0, 0, 359.57, 600.54, 33.6216411, 72.9556846, 0.9999931, -1.012773E-05, -8.68725E-05, -0.003722403
 124694269, 0, 0, 359.56, 600.77, 33.6216411, 72.9556846, 0.9999929, -1.816235E-05, -8.584197E-05, -0.003759139
 124794229, 0, -0.01, 359.56, 601, 33.6216411, 72.9556846, 0.9999928, -2.085596E-05, -0.0001099007, -0.003792671
 124894189, 0, 0, 359.56, 601.22, 33.6216411, 72.9556846, 0.9999927, -1.115076E-05, -7.4163E-05, -0.003821517
 124994149, 0.01, 0, 359.55, 601.44, 33.6216411, 72.9556846, 0.9999926, 9.302351E-05, -7.787608E-05, -0.003843829
 125094109, 0.01, 0, 359.55, 601.66, 33.6216411, 72.9556846, 0.9999925, 0.000128186, -4.478215E-05, -0.003859991
 125194069, 0.01, 0, 359.55, 601.87, 33.6216411, 72.9556846, 0.9999925, 0.0001128453, -3.740316E-05, -0.003872772
 125294029, 0, 0, 359.55, 602.07, 33.6216411, 72.9556846, 0.9999924, 6.806474E-05, -1.642715E-06, -0.003884751
 125393989, 0, 0, 359.55, 602.27, 33.6216411, 72.9556846, 0.9999924, 4.09006E-05, -1.473023E-05, -0.003901091
 125493949, 0, 0, 359.55, 602.46, 33.6216411, 72.9556846, 0.9999923, 1.53913E-05, -1.164901E-05, -0.003912467
 125593909, 0, 0, 359.55, 602.65, 33.6216411, 72.9556846, 0.9999923, 3.314854E-05, -9.367156E-06, -0.003915651
 125693869, 0, 0, 359.55, 602.83, 33.6216411, 72.9556846, 0.9999923, 8.099142E-05, -2.218344E-05, -0.003914732
 125793829, 0, 0, 359.55, 603, 33.6216411, 72.9556846, 0.9999924, 7.372254E-05, 1.175819E-05, -0.003905235
 125893789, 0, 0, 359.55, 603.17, 33.6216411, 72.9556846, 0.9999924, 6.811154E-05, 1.359814E-05, -0.003899399
 125993749, 0, 0.01, 359.55, 603.34, 33.6216411, 72.9556846, 0.9999924, -2.866698E-06, 8.829492E-05, -0.003892472
 126093709, 0, 0.01, 359.55, 603.49, 33.6216411, 72.9556846, 0.9999924, -4.627377E-05, 0.0001083726, -0.003884324
 126194502, -0.01, 0, 359.55, 603.65, 33.6216411, 72.9556846, 0.9999925, -0.000153481, -2.546359E-06, -0.003874344
 126294462, -0.01, 0, 359.55, 603.8, 33.6216411, 72.9556846, 0.9999925, -0.0001273838, 1.114102E-05, -0.003864694
 126394422, 0, 0, 359.55, 603.94, 33.6216411, 72.9556846, 0.9999925, -5.495088E-06, 7.676759E-05, -0.00385992
 126494382, 0, 0, 359.55, 604.07, 33.6216411, 72.9556846, 0.9999925, -1.668327E-05, 7.138013E-05, -0.003859898
 126594342, -0.01, 0, 359.55, 604.21, 33.6216411, 72.9556846, 0.9999925, -9.342508E-05, 7.903405E-05, -0.003862637
 126694302, -0.01, 0.01, 359.55, 604.33, 33.6216411, 72.9556846, 0.9999925, -0.0001140201, 9.299077E-05, -0.003868527
 126794262, 0, 0, 359.55, 604.45, 33.6216411, 72.9556846, 0.9999925, -5.650919E-05, 1.889685E-05, -0.003878321
 126894222, 0, 0, 359.55, 604.57, 33.6216411, 72.9556846, 0.9999924, 1.806245E-05, -5.974917E-05, -0.003888637
 126994182, 0, 0, 359.55, 604.68, 33.6216411, 72.9556846, 0.9999924, 5.72616E-05, -5.414686E-05, -0.003905709
 127094142, 0, 0, 359.55, 604.79, 33.6216411, 72.9556846, 0.9999923, 7.371572E-05, -3.801649E-05, -0.003925264
 127194102, 0, 0, 359.54, 604.89, 33.6216411, 72.9556846, 0.9999922, -4.174167E-05, -3.975229E-05, -0.003950885
 127294062, -0.01, 0, 359.54, 604.98, 33.6216411, 72.9556846, 0.9999921, -8.770701E-05, -6.483808E-05, -0.003976745
 127394022, 0, 0, 359.54, 605.07, 33.6216411, 72.9556846, 0.999992, -6.038249E-05, -7.793003E-05, -0.003999475
 127493982, 0, -0.01, 359.53, 605.15, 33.6216411, 72.9556846, 0.9999919, -6.379489E-05, -0.0001101346, -0.004022311
 127593942, 0, 0, 359.53, 605.23, 33.6216411, 72.9556846, 0.9999918, -4.184328E-05, -8.182193E-05, -0.004043984
 127693902, 0, 0, 359.53, 605.31, 33.6216411, 72.9556846, 0.9999918, -6.459369E-05, 1.39171E-06, -0.00406096
 127793862, 0, 0, 359.53, 605.38, 33.6216411, 72.9556846, 0.9999917, -3.532695E-05, 5.489492E-05, -0.00408221
 127893822, 0, 0, 359.53, 605.44, 33.6216411, 72.9556846, 0.9999916, -3.315568E-05, 6.14949E-05, -0.004100465
 127993782, 0, 0, 359.52, 605.5, 33.6216411, 72.9556846, 0.9999915, -2.471264E-05, 7.164277E-05, -0.004116729
 128093742, 0, 0, 359.52, 605.55, 33.6216411, 72.9556846, 0.9999915, -7.968478E-05, -4.241481E-05, -0.004130064
 128193702, -0.01, 0, 359.52, 605.6, 33.6216411, 72.9556846, 0.9999914, -9.227687E-05, -5.440573E-06, -0.004140044
 128294495, 0, 0, 359.52, 605.64, 33.6216411, 72.9556846, 0.9999914, -6.179214E-05, -3.84923E-05, -0.004145599
 128394455, 0, 0, 359.52, 605.67, 33.6216411, 72.9556846, 0.9999914, -3.119414E-05, -5.680889E-05, -0.004151435
 128494415, 0, 0, 359.52, 605.7, 33.6216411, 72.9556846, 0.9999914, 3.063242E-05, -1.529522E-05, -0.004158932
 128594375, 0, 0, 359.52, 605.72, 33.6216411, 72.9556846, 0.9999913, 8.240417E-05, 4.391836E-05, -0.004166666
 128694335, 0.01, 0, 359.52, 605.73, 33.6216411, 72.9556846, 0.9999913, 0.0001299998, -2.894481E-05, -0.004175568
 128794295, 0.03, -0.11, 359.52, 605.74, 33.6216411, 72.9556846, 0.9999907, 0.0002845222, -0.000963127, -0.004185316
 128894255, 0.07, -0.42, 359.51, 605.73, 33.6216411, 72.9556846, 0.999984, 0.0006344535, -0.003748434, -0.004197125
 128994215, 0.14, -0.94, 359.51, 605.73, 33.6216411, 72.9556846, 0.9999565, 0.001244825, -0.008230007, -0.004208996
 129094175, 0.22, -1.54, 359.51, 605.72, 33.6216411, 72.9556846, 0.9998988, 0.001934582, -0.01344868, -0.004220528
 129194135, 0.3, -2.12, 359.5, 605.71, 33.6216412, 72.9556846, 0.9998154, 0.002618715, -0.01855694, -0.004230565
 129294095, 0.38, -2.67, 359.5, 605.71, 33.6216412, 72.9556846, 0.999712, 0.003238698, -0.02339571, -0.004235377
 129394055, 0.45, -3.18, 359.5, 605.7, 33.6216414, 72.9556846, 0.9995977, 0.003858701, -0.02778024, -0.004234036
 129494015, 0.52, -3.65, 359.49, 605.7, 33.6216414, 72.9556846, 0.9994714, 0.004482524, -0.03192135, -0.004227844
 129593975, 0.59, -4.11, 359.49, 605.71, 33.6216417, 72.9556846, 0.9993341, 0.005048785, -0.03589044, -0.004209648
 129693935, 0.67, -4.55, 359.49, 605.71, 33.621642, 72.9556846, 0.9991836, 0.005692624, -0.03977932, -0.004169872
 129793895, 0.74, -5.01, 359.49, 605.73, 33.6216424, 72.9556846, 0.9990139, 0.006329473, -0.04375262, -0.004105255
 129893855, 0.83, -5.47, 359.5, 605.75, 33.6216427, 72.9556848, 0.9988238, 0.007055813, -0.04780406, -0.003993481
 129993815, 0.91, -5.94, 359.57, 605.77, 33.6216432, 72.9556848, 0.9986159, 0.007783806, -0.05191155, -0.003317611
 130093775, 0.96, -6.43, 359.98, 605.8, 33.6216438, 72.9556849, 0.998391, 0.008363074, -0.05608264, 0.0003373907
 130193735, 0.94, -6.92, 0.92, 605.84, 33.6216444, 72.9556851, 0.9981044, 0.008682795, -0.06033031, 0.008516367
 130294528, 0.84, -7.44, 2.32, 605.88, 33.6216453, 72.9556851, 0.9976494, 0.008675438, -0.06474488, 0.02070256
 130394488, 0.69, -7.95, 4.02, 605.93, 33.6216462, 72.9556853, 0.9969411, 0.008441065, -0.06913956, 0.03545223
 130494448, 0.47, -8.5, 5.88, 605.99, 33.621647, 72.9556855, 0.9959067, 0.007948237, -0.07382713, 0.05153875
 130594408, 0.24, -9.07, 7.77, 606.05, 33.6216481, 72.9556857, 0.9945625, 0.007447926, -0.07874562, 0.06774259
 130694368, -0.02, -9.65, 9.55, 606.12, 33.6216493, 72.9556858, 0.9929913, 0.006779365, -0.08390742, 0.08295645
 130794328, -0.28, -10.25, 11.12, 606.2, 33.6216508, 72.9556862, 0.9913332, 0.006174556, -0.08915386, 0.09629046
 130894288, -0.52, -10.85, 12.39, 606.28, 33.6216522, 72.9556863, 0.9897356, 0.005641904, -0.0945014, 0.1070564
 130994248, -0.72, -11.46, 13.32, 606.38, 33.6216538, 72.9556867, 0.9883358, 0.005300436, -0.09992196, 0.1148036
 131094208, -0.86, -12.02, 13.87, 606.48, 33.6216555, 72.955687, 0.9872869, 0.005194535, -0.1048792, 0.1193236
 131194168, -0.91, -12.44, 14.04, 606.59, 33.6216575, 72.9556874, 0.9867296, 0.005348139, -0.108537, 0.1206473
 131294128, -0.9, -12.71, 13.85, 606.71, 33.6216596, 72.9556877, 0.98667, 0.005577084, -0.1108592, 0.1190022
 131394088, -0.81, -12.93, 13.36, 606.84, 33.6216618, 72.9556882, 0.9869564, 0.006073671, -0.1126947, 0.1148053
 131494048, -0.67, -13.03, 12.62, 606.98, 33.621664, 72.9556887, 0.9875654, 0.006684178, -0.113494, 0.1085773
 131594008, -0.48, -12.99, 11.71, 607.13, 33.6216666, 72.9556892, 0.9884273, 0.007402182, -0.11298, 0.1009564
 131693968, -0.27, -12.83, 10.72, 607.29, 33.6216693, 72.9556896, 0.9894059, 0.00805386, -0.1115175, 0.09260111
 131793928, -0.08, -12.63, 9.72, 607.45, 33.6216721, 72.9556901, 0.9903573, 0.0085962, -0.1097159, 0.0841488
 131893888, 0.07, -12.49, 8.78, 607.62, 33.6216749, 72.9556908, 0.9911388, 0.009018983, -0.1084306, 0.07619255
 131993848, 0.21, -12.38, 7.96, 607.8, 33.6216779, 72.9556913, 0.9917482, 0.009364746, -0.1074808, 0.06925166
 132093808, 0.31, -12.29, 7.31, 607.99, 33.621681, 72.955692, 0.9922068, 0.009572929, -0.1066546, 0.06371029
 132193768, 0.37, -12.2, 6.85, 608.19, 33.6216844, 72.9556925, 0.9925244, 0.009608454, -0.1059496, 0.05981321
 132293728, 0.36, -12.13, 6.6, 608.39, 33.6216876, 72.9556932, 0.9927227, 0.009275346, -0.1053225, 0.05764398
 132394521, 0.32, -12.05, 6.56, 608.59, 33.6216911, 72.9556939, 0.9928189, 0.008800328, -0.1046768, 0.0572362
 132494481, 0.25, -11.95, 6.71, 608.8, 33.6216946, 72.9556946, 0.9928401, 0.008329663, -0.1038213, 0.05848377
 132594441, 0.16, -11.85, 7.02, 609.02, 33.6216982, 72.9556953, 0.9927716, 0.007770808, -0.1029972, 0.06112104
 132694401, 0.05, -11.76, 7.46, 609.24, 33.6217019, 72.955696, 0.9926222, 0.00712793, -0.1022132, 0.06482854
 132794361, -0.06, -11.67, 7.99, 609.46, 33.6217056, 72.9556966, 0.9924021, 0.006514126, -0.1014787, 0.0692655
 132894321, -0.18, -11.56, 8.55, 609.69, 33.6217094, 72.9556973, 0.9921508, 0.005898567, -0.1005847, 0.07405849
 132994281, -0.3, -11.42, 9.12, 609.92, 33.6217131, 72.955698, 0.9918992, 0.005304136, -0.09944776, 0.0788547
 133094241, -0.39, -11.27, 9.64, 610.15, 33.6217171, 72.9556987, 0.9916631, 0.004841163, -0.09816632, 0.08333235
 133194201, -0.46, -11.08, 10.1, 610.38, 33.621721, 72.9556996, 0.9914846, 0.004463156, -0.09658989, 0.08722862
 133294161, -0.51, -10.88, 10.46, 610.62, 33.621725, 72.9557003, 0.9913763, 0.004201694, -0.09482589, 0.09035131
 133394121, -0.53, -10.65, 10.71, 610.86, 33.621729, 72.9557009, 0.991362, 0.004051853, -0.09284209, 0.09254883
 133494081, -0.53, -10.41, 10.85, 611.09, 33.621733, 72.9557016, 0.9914405, 0.003976284, -0.09076435, 0.09376373
 133594041, -0.5, -10.11, 10.87, 611.33, 33.6217371, 72.9557025, 0.9916471, 0.003985802, -0.08821569, 0.09401198
 133694001, -0.46, -9.87, 10.79, 611.57, 33.6217411, 72.9557032, 0.9918976, 0.00409094, -0.08605964, 0.09335969
 133793961, -0.41, -9.77, 10.62, 611.81, 33.6217452, 72.9557039, 0.9921125, 0.004270192, -0.08513168, 0.09190915
 133893921, -0.36, -9.81, 10.37, 612.05, 33.6217493, 72.9557045, 0.992271, 0.004567874, -0.08546803, 0.08984793
 133993881, -0.3, -9.95, 10.09, 612.29, 33.6217533, 72.9557054, 0.9923885, 0.005024255, -0.08662656, 0.08738183
 134093841, -0.22, -10.09, 9.77, 612.53, 33.6217575, 72.9557061, 0.9925107, 0.005514214, -0.08785006, 0.08470263
 134193801, -0.16, -10.18, 9.45, 612.77, 33.6217616, 72.9557068, 0.9926726, 0.005860021, -0.08855739, 0.08200242
 134293761, -0.11, -10.24, 9.16, 613, 33.6217657, 72.9557075, 0.9928309, 0.00615129, -0.08907083, 0.07946923
 134393721, -0.06, -10.29, 8.9, 613.24, 33.6217697, 72.9557082, 0.9929671, 0.006371565, -0.08948552, 0.07725269
 134494514, -0.02, -10.31, 8.69, 613.48, 33.6217739, 72.955709, 0.9930909, 0.00655682, -0.08963461, 0.0754526
 134594474, 0.01, -10.3, 8.54, 613.71, 33.6217782, 72.9557097, 0.9931878, 0.006791175, -0.08959015, 0.07419828
 134694434, 0.01, -10.29, 8.45, 613.95, 33.6217824, 72.9557104, 0.9932529, 0.006727943, -0.08947527, 0.0734675
 134794394, 0, -10.29, 8.43, 614.19, 33.6217865, 72.9557112, 0.993269, 0.006634306, -0.08947445, 0.07325926
 134894354, -0.01, -10.3, 8.47, 614.42, 33.6217907, 72.9557119, 0.993242, 0.006511913, -0.08955275, 0.07354125
 134994314, -0.02, -10.32, 8.55, 614.66, 33.6217949, 72.9557126, 0.9931692, 0.006463987, -0.08974577, 0.07428888
 135094274, -0.03, -10.34, 8.68, 614.89, 33.621799, 72.9557133, 0.9930735, 0.006479539, -0.08989495, 0.07537834
 135194234, -0.05, -10.34, 8.83, 615.13, 33.6218034, 72.9557141, 0.9929709, 0.006451819, -0.08991013, 0.07670376
 135294194, -0.08, -10.33, 9, 615.36, 33.6218075, 72.9557148, 0.9928699, 0.006301511, -0.08981566, 0.07812133
 135394154, -0.1, -10.29, 9.17, 615.6, 33.6218117, 72.9557155, 0.9927828, 0.006259256, -0.08952697, 0.0795494
 135494114, -0.12, -10.29, 9.32, 615.83, 33.621816, 72.9557164, 0.9926751, 0.006206638, -0.08954775, 0.08086278
 135594074, -0.13, -10.3, 9.45, 616.07, 33.6218202, 72.9557171, 0.9925749, 0.006234117, -0.08963384, 0.08198812
 135694034, -0.12, -10.26, 9.55, 616.3, 33.6218245, 72.9557178, 0.9925317, 0.006366208, -0.08927228, 0.08288994
 135793994, -0.1, -10.21, 9.62, 616.54, 33.6218287, 72.9557186, 0.992523, 0.006519073, -0.08879585, 0.08349261
 135893954, -0.1, -10.16, 9.65, 616.77, 33.621833, 72.9557193, 0.992538, 0.006570372, -0.08838358, 0.083746
 135993914, -0.08, -10.11, 9.64, 617.01, 33.6218373, 72.95572, 0.9925858, 0.006689709, -0.0879177, 0.08366069
 136093874, -0.06, -10.09, 9.59, 617.24, 33.6218417, 72.9557209, 0.9926329, 0.006782775, -0.0877588, 0.08326014
 136193834, -0.04, -10.07, 9.51, 617.48, 33.6218458, 72.9557215, 0.9927064, 0.006869632, -0.08753704, 0.08260849
 136293794, -0.03, -10.04, 9.41, 617.72, 33.6218502, 72.9557224, 0.9927973, 0.006921679, -0.08730563, 0.08175225
 136393754, 0, -10.02, 9.3, 617.95, 33.6218545, 72.9557231, 0.9928925, 0.007009503, -0.0871281, 0.08077145
 136493714, 0, -10.01, 9.17, 618.19, 33.6218588, 72.9557239, 0.9929872, 0.007057947, -0.08701084, 0.07972295
 136594507, 0.02, -9.96, 9.05, 618.42, 33.6218631, 72.9557246, 0.9931074, 0.007115847, -0.08659372, 0.07866713
 136694467, 0.04, -9.92, 8.93, 618.66, 33.6218674, 72.9557253, 0.993216, 0.007159533, -0.0862354, 0.07767921
 136794427, 0.06, -9.88, 8.83, 618.9, 33.6218716, 72.9557262, 0.9933215, 0.007185997, -0.08581582, 0.07678704
 136894387, 0.06, -9.86, 8.74, 619.13, 33.6218759, 72.955727, 0.9933959, 0.007131509, -0.08566295, 0.0759975
 136994347, 0.06, -9.85, 8.66, 619.37, 33.6218802, 72.9557277, 0.9934499, 0.007095371, -0.08563784, 0.0753206
 137094307, 0.06, -9.85, 8.6, 619.6, 33.6218844, 72.9557284, 0.993493, 0.007010363, -0.08559541, 0.07480545
 137194267, 0.05, -9.84, 8.57, 619.84, 33.6218887, 72.9557293, 0.9935225, 0.006913472, -0.08553964, 0.07448706
 137294227, 0.05, -9.83, 8.55, 620.07, 33.621893, 72.9557301, 0.9935408, 0.006830024, -0.08544585, 0.07435809
 137394187, 0.04, -9.81, 8.55, 620.31, 33.6218972, 72.9557308, 0.9935566, 0.006755829, -0.08524064, 0.07438844
 137494147, 0.02, -9.79, 8.57, 620.55, 33.6219015, 72.9557315, 0.9935584, 0.006640043, -0.08510816, 0.07452641
 137594107, 0.01, -9.81, 8.6, 620.78, 33.6219058, 72.9557324, 0.9935234, 0.006587968, -0.08532122, 0.07475384
 137694067, 0, -9.82, 8.63, 621.02, 33.62191, 72.9557332, 0.9934932, 0.006526165, -0.08542169, 0.07504514
 137794027, 0, -9.82, 8.67, 621.25, 33.6219143, 72.9557339, 0.9934735, 0.006454356, -0.08537249, 0.07536768
 137893987, 0, -9.82, 8.71, 621.49, 33.6219185, 72.9557346, 0.9934468, 0.006482632, -0.08538472, 0.07570308
 137993947, 0, -9.8, 8.74, 621.73, 33.6219228, 72.9557355, 0.9934419, 0.006540231, -0.08517504, 0.07599756
 138093907, 0, -9.76, 8.77, 621.96, 33.621927, 72.9557361, 0.993453, 0.006531847, -0.084843, 0.07622415
 138193867, 0, -9.75, 8.78, 622.2, 33.6219313, 72.955737, 0.9934474, 0.006553714, -0.08479018, 0.0763536
 138293827, 0, -9.77, 8.79, 622.43, 33.6219355, 72.9557378, 0.9934295, 0.006530748, -0.08498479, 0.07637218
 138393787, 0, -9.79, 8.78, 622.67, 33.6219398, 72.9557386, 0.9934233, 0.00648588, -0.08512944, 0.07629596
 138493747, 0, -9.79, 8.76, 622.91, 33.621944, 72.9557392, 0.9934323, 0.006481778, -0.08516391, 0.07613992
 138593707, 0, -9.8, 8.73, 623.14, 33.6219482, 72.9557401, 0.9934483, 0.006517144, -0.0851735, 0.07591806
 138694500, 0, -9.77, 8.7, 623.38, 33.6219525, 72.9557409, 0.9934875, 0.006421832, -0.08497322, 0.07563728
 138794460, 0, -9.75, 8.67, 623.62, 33.6219567, 72.9557416, 0.9935249, 0.006349306, -0.08481047, 0.07533386
 138894420, 0, -9.72, 8.63, 623.86, 33.621961, 72.9557423, 0.9935728, 0.006313505, -0.08452727, 0.07502314
 138994380, 0, -9.71, 8.6, 624.09, 33.6219652, 72.9557432, 0.9936011, 0.006356752, -0.08446606, 0.07471278
 139094340, 0, -9.73, 8.56, 624.33, 33.6219694, 72.955744, 0.9936141, 0.006411556, -0.08458301, 0.07440189
 139194300, 0.01, -9.74, 8.52, 624.57, 33.6219737, 72.9557447, 0.9936277, 0.006463916, -0.08469101, 0.07409267
 139294260, 0.02, -9.75, 8.49, 624.8, 33.6219779, 72.9557454, 0.9936418, 0.006513944, -0.08478966, 0.07378524
 139394220, 0.02, -9.76, 8.45, 625.04, 33.621982, 72.9557463, 0.9936566, 0.006480032, -0.08488572, 0.07347749
 139494180, 0.01, -9.77, 8.42, 625.28, 33.6219864, 72.9557471, 0.9936693, 0.00643166, -0.08497477, 0.07320655
 139594140, 0.01, -9.78, 8.39, 625.52, 33.6219905, 72.9557478, 0.9936798, 0.006378973, -0.08505677, 0.07297396
 139694100, 0.01, -9.81, 8.37, 625.76, 33.6219947, 72.9557485, 0.9936733, 0.00635919, -0.0852975, 0.07278316
 139794060, 0, -9.83, 8.36, 625.99, 33.6219989, 72.9557494, 0.9936686, 0.006324435, -0.08547506, 0.0726411
 139894020, 0, -9.82, 8.35, 626.23, 33.6220032, 72.9557502, 0.99368, 0.006252029, -0.08542611, 0.07254922
 139993980, 0, -9.81, 8.34, 626.47, 33.6220074, 72.9557509, 0.993692, 0.006231528, -0.08532418, 0.07250705
 140093940, 0, -9.77, 8.34, 626.71, 33.6220117, 72.9557516, 0.9937236, 0.00625344, -0.08495747, 0.0725019
 140193900, 0.01, -9.74, 8.34, 626.95, 33.6220159, 72.9557525, 0.9937409, 0.006333774, -0.08474024, 0.07251233
 140293860, 0.02, -9.76, 8.34, 627.18, 33.6220201, 72.9557532, 0.9937285, 0.006430048, -0.08486512, 0.07252821
 140393820, 0.03, -9.78, 8.34, 627.42, 33.6220244, 72.955754, 0.9937085, 0.006524025, -0.08507675, 0.07254523
 140493780, 0.02, -9.81, 8.34, 627.66, 33.6220286, 72.9557547, 0.9936861, 0.00647436, -0.08534053, 0.07254719
 140593740, 0.02, -9.84, 8.34, 627.9, 33.6220328, 72.9557555, 0.9936655, 0.00642705, -0.08558161, 0.0725497
 140693700, 0.01, -9.87, 8.35, 628.14, 33.622037, 72.9557562, 0.9936468, 0.006383682, -0.08579886, 0.07255252
 140794493, 0, -9.84, 8.35, 628.38, 33.6220413, 72.9557571, 0.9936683, 0.006297315, -0.08556209, 0.07254457
 140894453, 0, -9.83, 8.34, 628.61, 33.6220455, 72.9557578, 0.993678, 0.00619703, -0.08547553, 0.07252312
 140994413, -0.01, -9.81, 8.34, 628.85, 33.6220497, 72.9557586, 0.9936913, 0.006103354, -0.08535297, 0.07249224
 141094373, -0.02, -9.84, 8.34, 629.09, 33.622054, 72.9557593, 0.9936715, 0.006045497, -0.08561625, 0.07245871
 141194333, -0.03, -9.88, 8.34, 629.33, 33.6220582, 72.95576, 0.9936418, 0.006002262, -0.08598848, 0.07242865
 141294293, -0.03, -9.93, 8.33, 629.56, 33.6220624, 72.9557609, 0.9936126, 0.006024844, -0.08634659, 0.07240163
 141394253, -0.01, -9.96, 8.33, 629.8, 33.6220665, 72.9557617, 0.9935859, 0.006184195, -0.08666353, 0.07237591
 141494213, -0.01, -10.01, 8.32, 630.04, 33.6220709, 72.9557624, 0.9935582, 0.006216595, -0.08702417, 0.07231985
 141594173, -0.01, -10.04, 8.31, 630.28, 33.622075, 72.9557631, 0.9935416, 0.006214914, -0.08729399, 0.07222414
 141694133, -0.01, -10.05, 8.3, 630.51, 33.6220792, 72.9557638, 0.9935396, 0.006217348, -0.08741768, 0.07210074
 141794093, 0, -10.08, 8.28, 630.75, 33.6220835, 72.9557647, 0.9935237, 0.006318666, -0.08770899, 0.07195853
 141894053, 0.01, -10.09, 8.26, 630.99, 33.6220877, 72.9557655, 0.9935349, 0.006503067, -0.08770442, 0.07179199
 141994013, 0.03, -10.07, 8.24, 631.23, 33.622092, 72.9557662, 0.9935572, 0.006644277, -0.08758204, 0.07161983
 142093973, 0.04, -10.06, 8.22, 631.46, 33.6220962, 72.955767, 0.9935753, 0.00668795, -0.08750846, 0.07145439
 142193933, 0.05, -10.03, 8.2, 631.7, 33.6221005, 72.9557677, 0.9936095, 0.006737153, -0.08722343, 0.07132142
 142293893, 0.05, -10.02, 8.19, 631.94, 33.6221047, 72.9557684, 0.993628, 0.006700805, -0.0871213, 0.07119241
 142393853, 0.05, -10.01, 8.17, 632.17, 33.622109, 72.9557693, 0.993643, 0.00668725, -0.08704422, 0.07107825
 142493813, 0.05, -10, 8.17, 632.41, 33.6221132, 72.9557701, 0.9936542, 0.006691657, -0.08697277, 0.07100983
 142593773, 0.05, -10, 8.16, 632.65, 33.6221175, 72.9557708, 0.9936619, 0.006681179, -0.0869086, 0.07098017
 142693733, 0.05, -9.99, 8.16, 632.89, 33.6221218, 72.9557715, 0.9936664, 0.006664264, -0.0868506, 0.07099015
 142794526, 0.04, -9.98, 8.17, 633.12, 33.622126, 72.9557724, 0.9936684, 0.006624366, -0.08679281, 0.07103757
 142894486, 0.04, -9.94, 8.18, 633.36, 33.6221303, 72.9557731, 0.9936967, 0.006598574, -0.0864071, 0.07111357
 142994446, 0.04, -9.91, 8.18, 633.6, 33.6221346, 72.9557739, 0.993715, 0.006598397, -0.08614583, 0.07117486
 143094406, 0.05, -9.89, 8.19, 633.83, 33.6221388, 72.9557746, 0.9937265, 0.006605124, -0.08598126, 0.07121278
 143194366, 0.05, -9.89, 8.19, 634.07, 33.6221431, 72.9557753, 0.993726, 0.006599999, -0.08598985, 0.07120937
 143294326, 0.04, -9.88, 8.18, 634.31, 33.6221474, 72.9557762, 0.9937361, 0.006563769, -0.08590814, 0.07117012
 143394286, 0.04, -9.86, 8.18, 634.55, 33.6221516, 72.955777, 0.9937577, 0.006501287, -0.08571181, 0.07111232
 143494246, 0.03, -9.84, 8.17, 634.78, 33.6221559, 72.9557777, 0.9937774, 0.006443302, -0.08554446, 0.07104336
 143594206, 0.04, -9.82, 8.16, 635.02, 33.6221601, 72.9557784, 0.9937972, 0.006446653, -0.08538587, 0.07095698
 143694166, 0.04, -9.81, 8.15, 635.26, 33.6221644, 72.9557793, 0.993812, 0.006445816, -0.08530731, 0.07084353
 143794126, 0.04, -9.81, 8.13, 635.49, 33.6221688, 72.9557799, 0.9938204, 0.006454106, -0.08532603, 0.07070168
 143894086, 0.04, -9.83, 8.11, 635.73, 33.6221729, 72.9557808, 0.9938152, 0.00643427, -0.08550216, 0.0705647
 143994046, 0.03, -9.82, 8.1, 635.97, 33.6221773, 72.9557816, 0.9938322, 0.006376233, -0.08539455, 0.07046115
 144094006, 0.04, -9.81, 8.1, 636.21, 33.6221814, 72.9557823, 0.9938463, 0.006402733, -0.0852783, 0.07040015
 144193966, 0.05, -9.8, 8.09, 636.45, 33.6221857, 72.955783, 0.9938524, 0.006482041, -0.08521365, 0.07038452
 144293926, 0.05, -9.77, 8.09, 636.68, 33.6221899, 72.9557839, 0.9938709, 0.006508637, -0.08498725, 0.07039535
 144393886, 0.05, -9.77, 8.09, 636.92, 33.6221942, 72.9557846, 0.9938703, 0.006538944, -0.08498227, 0.0704072
 144493846, 0.05, -9.79, 8.1, 637.16, 33.6221984, 72.9557854, 0.9938546, 0.006532133, -0.08515946, 0.07041445
 144593806, 0.05, -9.8, 8.1, 637.4, 33.6222026, 72.9557861, 0.9938464, 0.006512487, -0.08525138, 0.07042101
 144693766, 0.05, -9.81, 8.1, 637.64, 33.6222069, 72.9557868, 0.9938418, 0.006512202, -0.0853033, 0.07042409
 144793726, 0.05, -9.81, 8.1, 637.88, 33.6222111, 72.9557877, 0.9938403, 0.006486753, -0.08532566, 0.07041944
 144894519, 0.05, -9.81, 8.09, 638.12, 33.6222154, 72.9557885, 0.993845, 0.006505016, -0.08527883, 0.07040786
 144994479, 0.05, -9.78, 8.09, 638.35, 33.6222196, 72.9557892, 0.993865, 0.006528259, -0.08506133, 0.07038644
 145094439, 0.06, -9.77, 8.09, 638.59, 33.6222239, 72.9557899, 0.993876, 0.006540522, -0.08495808, 0.0703542
 145194399, 0.06, -9.79, 8.08, 638.83, 33.6222281, 72.9557908, 0.9938665, 0.006574052, -0.08510163, 0.07031276
 145294359, 0.06, -9.81, 8.07, 639.07, 33.6222324, 72.9557915, 0.9938557, 0.006609589, -0.08528215, 0.07024289
 145394319, 0.06, -9.82, 8.06, 639.31, 33.6222367, 72.9557923, 0.9938527, 0.006574524, -0.08539774, 0.07014854
 145494279, 0.06, -9.82, 8.05, 639.55, 33.6222409, 72.955793, 0.9938572, 0.006575845, -0.08541909, 0.07005809
 145594239, 0.06, -9.83, 8.04, 639.78, 33.6222452, 72.9557938, 0.9938599, 0.006569146, -0.08545965, 0.06997198
 145694199, 0.06, -9.83, 8.04, 640.02, 33.6222494, 72.9557945, 0.9938654, 0.006539333, -0.08546247, 0.06989255
 145794159, 0.05, -9.83, 8.03, 640.26, 33.6222536, 72.9557954, 0.9938684, 0.006513882, -0.08548701, 0.06982268
 145894119, 0.05, -9.85, 8.02, 640.5, 33.6222579, 72.9557961, 0.9938595, 0.006486793, -0.0856395, 0.0697652
 145994079, 0.05, -9.87, 8.02, 640.74, 33.6222621, 72.9557969, 0.9938441, 0.006486012, -0.08584575, 0.06973057
 146094039, 0.05, -9.87, 8.02, 640.97, 33.6222663, 72.9557976, 0.9938455, 0.006462126, -0.08582806, 0.06973463
 146193999, 0.04, -9.87, 8.02, 641.21, 33.6222706, 72.9557983, 0.9938459, 0.006434168, -0.0857875, 0.06978062
 146293959, 0.05, -9.85, 8.03, 641.45, 33.6222748, 72.9557992, 0.993849, 0.006466706, -0.08568878, 0.06985625
 146393919, 0.05, -9.83, 8.04, 641.69, 33.6222791, 72.9558, 0.9938654, 0.006483384, -0.08544151, 0.06992312
 146493879, 0.05, -9.85, 8.04, 641.93, 33.6222833, 72.9558007, 0.9938447, 0.006490888, -0.0856483, 0.06996322
 146593839, 0.05, -9.89, 8.05, 642.17, 33.6222875, 72.9558014, 0.9938109, 0.00651677, -0.08603242, 0.0699711
 146693799, 0.05, -9.93, 8.04, 642.4, 33.6222918, 72.9558021, 0.9937848, 0.006516898, -0.08635911, 0.06993781
 146793759, 0.05, -9.96, 8.04, 642.64, 33.622296, 72.955803, 0.9937683, 0.006580007, -0.08658501, 0.06988794
 146893719, 0.05, -9.98, 8.03, 642.88, 33.6223002, 72.9558038, 0.9937561, 0.00657104, -0.08678102, 0.0698185
 146994512, 0.06, -9.98, 8.02, 643.12, 33.6223045, 72.9558045, 0.9937592, 0.006624783, -0.08679941, 0.06974629
 147094472, 0.06, -9.98, 8.01, 643.36, 33.6223088, 72.9558053, 0.993767, 0.006652343, -0.08677074, 0.06966947
 147194432, 0.07, -9.97, 8, 643.59, 33.622313, 72.9558061, 0.993781, 0.006679324, -0.08666789, 0.06959485
 147294392, 0.07, -9.97, 7.99, 643.83, 33.6223173, 72.9558069, 0.9937863, 0.006687652, -0.0866631, 0.06952434
 147394352, 0.07, -9.97, 7.98, 644.07, 33.6223215, 72.9558076, 0.9937872, 0.006681154, -0.08670744, 0.06945694
 147494312, 0.06, -9.97, 7.98, 644.31, 33.6223258, 72.9558084, 0.9937952, 0.006642873, -0.08666421, 0.06939955
 147594272, 0.06, -9.95, 7.97, 644.54, 33.62233, 72.9558091, 0.9938096, 0.006577879, -0.08653661, 0.06935856
 147694232, 0.05, -9.94, 7.97, 644.78, 33.6223343, 72.9558098, 0.9938227, 0.006518745, -0.08642112, 0.06932031
 147794192, 0.05, -9.93, 7.97, 645.02, 33.6223385, 72.9558107, 0.9938349, 0.006465041, -0.08631564, 0.06928258
 147894152, 0.05, -9.91, 7.96, 645.26, 33.6223428, 72.9558115, 0.9938456, 0.006475979, -0.08621523, 0.06925204
 147994112, 0.06, -9.92, 7.96, 645.49, 33.622347, 72.9558122, 0.9938408, 0.006598391, -0.08627907, 0.06923082
 148094072, 0.07, -9.93, 7.96, 645.73, 33.6223513, 72.9558129, 0.9938403, 0.006636817, -0.08629822, 0.06921005
 148194032, 0.07, -9.91, 7.95, 645.97, 33.6223555, 72.9558138, 0.9938531, 0.006639266, -0.08616055, 0.06919827
 148293992, 0.07, -9.9, 7.95, 646.21, 33.6223598, 72.9558145, 0.9938601, 0.006653644, -0.08607247, 0.06920475
 148393952, 0.07, -9.88, 7.96, 646.45, 33.6223641, 72.9558153, 0.993873, 0.006622181, -0.08589842, 0.06923903
 148493912, 0.06, -9.86, 7.96, 646.68, 33.6223683, 72.955816, 0.9938884, 0.00651957, -0.08570048, 0.06927308
 148593872, 0.05, -9.86, 7.97, 646.92, 33.6223726, 72.9558167, 0.9938818, 0.006467971, -0.08575927, 0.06930045
 148693832, 0.05, -9.87, 7.97, 647.16, 33.6223768, 72.9558176, 0.9938747, 0.006422365, -0.08582743, 0.0693206
 148793792, 0.04, -9.87, 7.97, 647.4, 33.6223811, 72.9558184, 0.9938743, 0.006378864, -0.08583724, 0.069319
 148893752, 0.04, -9.86, 7.97, 647.64, 33.6223853, 72.9558191, 0.9938797, 0.006376797, -0.08578509, 0.0693058
 148993712, 0.06, -9.86, 7.97, 647.88, 33.6223896, 72.9558199, 0.9938839, 0.006524571, -0.08572239, 0.06930964
 149094505, 0.06, -9.79, 7.97, 648.12, 33.6223939, 72.9558206, 0.9939383, 0.006526929, -0.08509521, 0.06930254
 149194465, 0.06, -9.56, 7.96, 648.36, 33.6223981, 72.9558213, 0.9941093, 0.006394974, -0.08308867, 0.06929726
 149294425, 0.06, -9.12, 7.96, 648.59, 33.6224024, 72.9558222, 0.9944224, 0.006129258, -0.07928032, 0.06929035
 149394385, 0.06, -8.59, 7.96, 648.83, 33.6224066, 72.955823, 0.9947775, 0.005793315, -0.07472371, 0.06928591
 149494345, 0.07, -8.03, 7.96, 649.07, 33.6224108, 72.9558237, 0.9951358, 0.005469516, -0.06982154, 0.06928115
 149594305, 0.07, -7.45, 7.95, 649.3, 33.6224149, 72.9558244, 0.9954789, 0.00511911, -0.0647927, 0.06926332
 149694265, 0.06, -6.86, 7.95, 649.54, 33.6224191, 72.9558251, 0.9957994, 0.004746806, -0.0597305, 0.06923307
 149794225, 0.07, -6.27, 7.94, 649.77, 33.6224232, 72.955826, 0.9961022, 0.004404063, -0.05452207, 0.06919917
 149894185, 0.07, -5.66, 7.93, 649.99, 33.6224273, 72.9558267, 0.9963824, 0.004046452, -0.0492202, 0.06915987
 149994145, 0.07, -5.02, 7.93, 650.22, 33.6224312, 72.9558273, 0.9966446, 0.003684084, -0.04369117, 0.06911633
 150094105, 0.09, -4.33, 7.92, 650.44, 33.6224351, 72.955828, 0.996893, 0.0034226, -0.03768691, 0.06908174
 150194065, 0.17, -3.42, 7.92, 650.65, 33.622439, 72.9558287, 0.9971609, 0.003621849, -0.02970855, 0.06909655
 150294025, 0.34, -2.24, 7.92, 650.86, 33.6224427, 72.9558294, 0.9974065, 0.004352218, -0.01933656, 0.06919102
 150393985, 0.56, -0.88, 7.95, 651.06, 33.6224463, 72.9558302, 0.9975454, 0.005475421, -0.007390082, 0.06941581
 150493945, 0.8, 0.55, 8.01, 651.26, 33.6224498, 72.9558308, 0.9975213, 0.006713289, 0.005305317, 0.06984279
 150593905, 1.05, 2.03, 8.11, 651.45, 33.6224531, 72.9558315, 0.9973062, 0.00795123, 0.01834571, 0.07057236
 150693865, 1.31, 3.54, 8.27, 651.63, 33.6224564, 72.9558321, 0.9968779, 0.009179654, 0.03168709, 0.07173611
 150793825, 1.58, 5.11, 8.5, 651.8, 33.6224595, 72.9558328, 0.9962018, 0.01051341, 0.0455158, 0.07348379
 150893785, 1.9, 6.73, 8.84, 651.97, 33.6224623, 72.9558334, 0.9952385, 0.01198262, 0.05984981, 0.07599206
 150993745, 2.25, 8.4, 9.3, 652.12, 33.6224651, 72.955834, 0.9939461, 0.01357476, 0.07463983, 0.0794717
 151093705, 2.64, 10.12, 9.93, 652.26, 33.6224675, 72.9558346, 0.9922734, 0.01526085, 0.08984049, 0.08419818
 151194498, 3.14, 11.87, 10.77, 652.39, 33.6224698, 72.9558352, 0.9901332, 0.01748709, 0.1054986, 0.0905569
 151294458, 3.75, 13.52, 11.89, 652.51, 33.6224718, 72.9558359, 0.9875661, 0.02018162, 0.120463, 0.09896725
 151394418, 4.5, 14.98, 13.37, 652.62, 33.6224735, 72.9558365, 0.984555, 0.02351703, 0.1339411, 0.1102642
 151494378, 5.45, 16.2, 15.38, 652.72, 33.622475, 72.9558371, 0.9808906, 0.02787103, 0.1458504, 0.1257159
 151594338, 6.72, 17.18, 18.18, 652.8, 33.6224762, 72.9558377, 0.9760587, 0.0336593, 0.1564398, 0.1473197
 151694298, 8.34, 17.77, 21.96, 652.87, 33.6224769, 72.9558383, 0.969478, 0.04119572, 0.1649374, 0.1766665
 151794258, 10.3, 17.85, 26.73, 652.92, 33.6224775, 72.9558389, 0.9604546, 0.05054212, 0.1708672, 0.2139552
 151894218, 12.54, 17.39, 32.43, 652.97, 33.6224779, 72.9558395, 0.9480876, 0.06176382, 0.1744853, 0.2585925
 151994178, 14.98, 16.38, 38.94, 653, 33.6224779, 72.9558402, 0.9314187, 0.07456487, 0.1761928, 0.3096051
 152094138, 17.42, 14.75, 46.07, 653.02, 33.6224777, 72.9558407, 0.9097095, 0.08855487, 0.1755949, 0.3657229
 152194098, 19.69, 12.5, 53.66, 653.03, 33.6224771, 72.9558414, 0.8823447, 0.1032249, 0.1725067, 0.4255044
 152294058, 21.58, 9.66, 61.56, 653.03, 33.6224761, 72.9558421, 0.8489826, 0.1179515, 0.1666338, 0.4873902
 152394018, 23.02, 6.36, 69.65, 653.02, 33.6224748, 72.9558428, 0.8094312, 0.1325193, 0.1585011, 0.54967
 152493978, 23.95, 2.74, 77.85, 653, 33.6224732, 72.9558436, 0.7639076, 0.1466596, 0.1485453, 0.6106312
 152593938, 24.29, -1.04, 86.08, 652.97, 33.6224714, 72.9558444, 0.7131178, 0.1598939, 0.1371122, 0.6686533
 152693898, 24.02, -4.82, 94.27, 652.93, 33.6224692, 72.955845, 0.6583393, 0.1716412, 0.1243996, 0.7222558
 152793858, 23.09, -8.39, 102.34, 652.89, 33.6224668, 72.9558459, 0.6012257, 0.1810241, 0.1106116, 0.7704043
 152893818, 21.56, -11.56, 110.23, 652.83, 33.622464, 72.9558468, 0.5434936, 0.1876486, 0.09609904, 0.8125071
 152993778, 19.62, -14.28, 117.83, 652.78, 33.622461, 72.9558476, 0.486634, 0.1922566, 0.08157384, 0.848275
 153093738, 17.42, -16.55, 125.05, 652.71, 33.6224578, 72.9558485, 0.4319355, 0.1954106, 0.06732454, 0.8779031
 153193698, 15.1, -18.42, 131.81, 652.64, 33.6224542, 72.9558495, 0.3802039, 0.1978304, 0.0536632, 0.9019027
 153294491, 12.71, -19.94, 138.17, 652.57, 33.6224505, 72.9558504, 0.3314722, 0.1996649, 0.04044948, 0.9212078
 153394451, 10.38, -21.16, 144.02, 652.49, 33.6224464, 72.9558512, 0.2865212, 0.2014209, 0.02811873, 0.9362396
 153494411, 8.11, -22.15, 149.46, 652.4, 33.6224422, 72.9558523, 0.2446768, 0.2031725, 0.01649917, 0.9479357
 153594371, 5.92, -22.97, 154.55, 652.32, 33.6224379, 72.9558533, 0.2054527, 0.2051325, 0.005610701, 0.9569108
 153694331, 3.79, -23.61, 159.4, 652.22, 33.6224334, 72.9558543, 0.1682181, 0.2070049, -0.004677159, 0.9637581
 153794291, 1.71, -24.1, 164.1, 652.13, 33.6224287, 72.9558553, 0.1321341, 0.2087703, -0.01434592, 0.968891
 153894251, -0.3, -24.44, 168.69, 652.04, 33.6224238, 72.9558564, 0.0967884, 0.2104417, -0.02340208, 0.9725218
 153994211, -2.12, -24.67, 173, 651.94, 33.6224188, 72.9558576, 0.06356216, 0.212118, -0.03114709, 0.9746772
 154094171, -3.61, -24.79, 176.72, 651.84, 33.6224136, 72.9558588, 0.03465219, 0.2136608, -0.03688674, 0.975596
 154194131, -4.69, -24.87, 179.64, 651.73, 33.6224081, 72.95586, 0.01183037, 0.2150824, -0.04063402, 0.9756785
 154294091, -5.38, -24.99, 181.66, 651.63, 33.6224027, 72.9558613, -0.003967843, 0.2168348, -0.04271195, 0.9752654
 154394051, -5.69, -25.13, 182.74, 651.52, 33.6223971, 72.9558626, -0.01253166, 0.2184123, -0.04328522, 0.9748155
 154494011, -5.64, -25.33, 182.94, 651.41, 33.6223914, 72.9558639, -0.01420127, 0.2201633, -0.04243004, 0.9744363
 154593971, -5.28, -25.6, 182.32, 651.3, 33.6223855, 72.9558655, -0.009575973, 0.2222639, -0.04041845, 0.9741014
 154693931, -4.61, -25.9, 180.99, 651.18, 33.6223794, 72.9558669, 0.0005364181, 0.2243194, -0.03729248, 0.9738017
 154793891, -3.71, -26.27, 179.07, 651.07, 33.6223733, 72.9558684, 0.01521614, 0.2269312, -0.0333995, 0.973219
 154893851, -2.62, -26.65, 176.68, 650.95, 33.6223669, 72.9558699, 0.03346071, 0.229736, -0.02896993, 0.9722461
 154993811, -1.41, -27, 173.95, 650.83, 33.6223607, 72.9558716, 0.05417689, 0.2325008, -0.02428928, 0.9707823
 155093771, -0.15, -27.28, 171.04, 650.71, 33.6223541, 72.9558732, 0.07616279, 0.2350434, -0.01973536, 0.9687953
 155193731, 1.04, -27.49, 168.15, 650.59, 33.6223476, 72.9558748, 0.09807605, 0.2372582, -0.01573425, 0.966355
 155294524, 2.1, -27.62, 165.43, 650.46, 33.6223409, 72.9558763, 0.118744, 0.2390565, -0.01259826, 0.9636354
 155394484, 2.93, -27.66, 163.09, 650.33, 33.622334, 72.955878, 0.1366579, 0.2400195, -0.01056803, 0.9610429
 155494444, 3.51, -27.66, 161.23, 650.21, 33.6223272, 72.9558796, 0.1510319, 0.240646, -0.009606598, 0.9587422
 155594404, 3.82, -27.67, 159.92, 650.08, 33.6223203, 72.9558813, 0.161241, 0.2409971, -0.0097081, 0.9569888
 155694364, 3.89, -27.71, 159.22, 649.95, 33.6223132, 72.9558828, 0.1669713, 0.2413881, -0.01073185, 0.955896
 155794324, 3.71, -27.78, 159.1, 649.82, 33.622306, 72.9558845, 0.1682746, 0.2416914, -0.0125586, 0.9555686
 155894284, 3.3, -27.83, 159.53, 649.69, 33.6222988, 72.9558862, 0.1655135, 0.241595, -0.01513544, 0.9560376
 155994244, 2.7, -27.88, 160.43, 649.56, 33.6222915, 72.9558878, 0.1592105, 0.2412658, -0.01833769, 0.9571345
 156094204, 1.96, -27.89, 161.73, 649.42, 33.6222841, 72.9558895, 0.1499721, 0.2405867, -0.02183333, 0.958723
