Time,AHR2_Roll,AHR2_Pitch,AHR2_Yaw,AHR2_Alt,AHR2_Lat,AHR2_Lng,AHR2_Q1,AHR2_Q2,AHR2_Q3,AHR2_Q4
 705920852, 0.1, 0.09, 349.48, 558.04, 33.6216406, 72.9556851, 0.9957947, 0.0009719132, 0.0007351309, -0.09160482
 706020812, 0.1, 0.09, 349.48, 558.04, 33.6216406, 72.9556851, 0.9957948, 0.0009798635, 0.00073993, -0.09160352
 706120772, 0.1, 0.09, 349.48, 558.04, 33.6216406, 72.9556851, 0.9957947, 0.001018683, 0.0007659676, -0.09160381
 706221565, 0.11, 0.1, 349.48, 558.04, 33.6216406, 72.9556851, 0.9957945, 0.001047182, 0.0007873261, -0.09160526
 706321525, 0.11, 0.1, 349.48, 558.04, 33.6216406, 72.9556851, 0.9957945, 0.001044526, 0.0007876414, -0.09160503
 706421485, 0.11, 0.1, 349.48, 558.04, 33.6216406, 72.9556851, 0.9957944, 0.001043709, 0.0007853393, -0.09160682
 706521445, 0.11, 0.1, 349.48, 558.04, 33.6216406, 72.9556851, 0.9957947, 0.001041998, 0.0007848187, -0.09160455
 706621405, 0.11, 0.1, 349.48, 558.04, 33.6216406, 72.9556851, 0.9957947, 0.00103999, 0.0007817509, -0.09160395
 706721365, 0.11, 0.1, 349.48, 558.04, 33.6216406, 72.9556851, 0.9957948, 0.001038742, 0.0007832156, -0.09160276
 706821325, 0.11, 0.09, 349.48, 558.04, 33.6216406, 72.9556851, 0.9957948, 0.001035899, 0.0007804811, -0.09160218
 706921285, 0.1, 0.09, 349.48, 558.04, 33.6216406, 72.9556851, 0.9957948, 0.001034259, 0.000777322, -0.09160275
 707021245, 0.1, 0.09, 349.48, 558.04, 33.6216406, 72.9556851, 0.9957948, 0.001030823, 0.000775159, -0.09160298
 707121205, 0.1, 0.09, 349.48, 558.04, 33.6216406, 72.9556851, 0.9957951, 0.001027552, 0.0007714487, -0.09160019
 707221165, 0.1, 0.09, 349.48, 558.04, 33.6216406, 72.9556851, 0.9957954, 0.001022378, 0.0007686311, -0.09159629
 707321125, 0.1, 0.09, 349.48, 558.04, 33.6216406, 72.9556851, 0.9957955, 0.001022578, 0.0007684088, -0.09159555
 707421085, 0.1, 0.09, 349.48, 558.04, 33.6216406, 72.9556851, 0.9957958, 0.001019621, 0.0007679957, -0.09159229
 707521045, 0.1, 0.09, 349.49, 558.04, 33.6216406, 72.9556851, 0.9957961, 0.001017675, 0.0007666236, -0.09158918
 707621005, 0.1, 0.09, 349.49, 558.04, 33.6216406, 72.9556851, 0.9957961, 0.001018272, 0.0007657135, -0.09158824
 707720965, 0.1, 0.09, 349.49, 558.04, 33.6216406, 72.9556851, 0.9957961, 0.001016315, 0.0007632172, -0.09158849
 707820925, 0.1, 0.09, 349.49, 558.04, 33.6216406, 72.9556851, 0.9957964, 0.001012753, 0.0007605344, -0.09158546
 707920885, 0.1, 0.09, 349.49, 558.04, 33.6216406, 72.9556851, 0.9957963, 0.001012909, 0.0007556377, -0.09158713
 708020845, 0.1, 0.09, 349.49, 558.04, 33.6216406, 72.9556851, 0.9957964, 0.001011779, 0.0007546702, -0.09158634
 708120805, 0.1, 0.09, 349.49, 558.04, 33.6216406, 72.9556851, 0.9957963, 0.001011458, 0.0007551412, -0.09158681
 708220765, 0.1, 0.09, 349.49, 558.04, 33.6216406, 72.9556851, 0.9957964, 0.00101338, 0.0007566371, -0.09158588
 708321558, 0.1, 0.09, 349.49, 558.04, 33.6216406, 72.9556851, 0.9957967, 0.001011236, 0.0007544178, -0.09158287
 708421518, 0.1, 0.09, 349.49, 558.04, 33.6216406, 72.9556851, 0.9957972, 0.001013195, 0.0007515442, -0.09157776
 708521478, 0.1, 0.09, 349.49, 558.04, 33.6216406, 72.9556851, 0.9957971, 0.001014769, 0.0007510871, -0.0915782
 708621438, 0.1, 0.09, 349.49, 558.04, 33.6216406, 72.9556851, 0.9957972, 0.001015504, 0.0007516581, -0.09157659
 708721398, 0.1, 0.09, 349.49, 558.04, 33.6216406, 72.9556851, 0.9957972, 0.001014327, 0.0007510103, -0.09157678
 708821358, 0.1, 0.09, 349.49, 558.04, 33.6216406, 72.9556851, 0.9957973, 0.001011866, 0.0007490237, -0.09157536
 708921318, 0.1, 0.09, 349.49, 558.04, 33.6216406, 72.9556851, 0.9957976, 0.0010125, 0.000748929, -0.0915722
 709021278, 0.1, 0.09, 349.49, 558.04, 33.6216406, 72.9556851, 0.9957977, 0.001010752, 0.0007452716, -0.0915718
 709121238, 0.1, 0.09, 349.49, 558.04, 33.6216406, 72.9556851, 0.9957977, 0.00100994, 0.0007432276, -0.09157182
 709221198, 0.1, 0.09, 349.49, 558.04, 33.6216406, 72.9556851, 0.9957976, 0.001007337, 0.0007447234, -0.09157261
 709321158, 0.1, 0.09, 349.49, 558.04, 33.6216406, 72.9556851, 0.9957977, 0.0010063, 0.0007434419, -0.09157176
 709421118, 0.1, 0.09, 349.49, 558.04, 33.6216406, 72.9556851, 0.9957979, 0.001006375, 0.00074301, -0.09156986
 709521078, 0.1, 0.09, 349.49, 558.04, 33.6216406, 72.9556851, 0.9957979, 0.001008345, 0.0007410193, -0.09156887
 709621038, 0.1, 0.09, 349.49, 558.04, 33.6216406, 72.9556851, 0.9957979, 0.001008788, 0.0007394832, -0.09156973
 709720998, 0.1, 0.09, 349.49, 558.04, 33.6216406, 72.9556851, 0.995798, 0.001006945, 0.0007399574, -0.09156888
 709820958, 0.1, 0.09, 349.49, 558.04, 33.6216406, 72.9556851, 0.9957983, 0.00100815, 0.0007399179, -0.09156577
 709920918, 0.1, 0.09, 349.49, 558.04, 33.6216406, 72.9556851, 0.9957983, 0.001008956, 0.000741645, -0.09156565
 710020878, 0.1, 0.09, 349.49, 558.04, 33.6216406, 72.9556851, 0.9957985, 0.001008794, 0.0007406569, -0.0915636
 710120838, 0.1, 0.09, 349.49, 558.04, 33.6216406, 72.9556851, 0.9957985, 0.001009018, 0.0007396484, -0.09156264
 710220798, 0.1, 0.09, 349.49, 558.04, 33.6216406, 72.9556851, 0.9957988, 0.001008827, 0.0007403663, -0.09156
 710321591, 0.1, 0.09, 349.49, 558.05, 33.6216406, 72.9556851, 0.9957989, 0.001010494, 0.0007409708, -0.09155797
 710421551, 0.1, 0.09, 349.49, 558.08, 33.6216406, 72.9556851, 0.9957991, 0.001010239, 0.0007422984, -0.09155678
 710521511, 0.1, 0.09, 349.49, 558.1, 33.6216406, 72.9556851, 0.9957994, 0.001010886, 0.0007452149, -0.09155335
 710621471, 0.1, 0.09, 349.49, 558.15, 33.6216406, 72.9556851, 0.9957998, 0.001011309, 0.0007468077, -0.09154849
 710721431, 0, 0, 349.49, 558.21, 33.6216406, 72.9556851, 0.9958006, 7.848783E-05, -9.391544E-05, -0.09154912
 710821391, -0.11, -0.14, 349.49, 558.34, 33.6216406, 72.9556851, 0.9957975, -0.001132066, -0.001204274, -0.09156708
 710921351, -0.14, -0.19, 349.48, 558.5, 33.6216406, 72.9556851, 0.9957943, -0.001443888, -0.001553408, -0.09159306
 711021311, -0.12, -0.16, 349.48, 558.69, 33.6216406, 72.9556851, 0.9957925, -0.001229677, -0.001360103, -0.09161828
 711121271, -0.07, -0.1, 349.48, 558.88, 33.6216406, 72.9556851, 0.9957908, -0.0007415049, -0.0008809612, -0.09164863
 711221231, -0.01, -0.04, 349.47, 559.07, 33.6216406, 72.9556851, 0.995788, -0.0002062487, -0.000375542, -0.09168398
 711321191, 0.03, 0.01, 349.47, 559.28, 33.6216406, 72.9556851, 0.9957846, 0.0003288426, 0.0001315814, -0.09172122
 711421151, 0.07, 0.05, 349.47, 559.49, 33.6216406, 72.955685, 0.9957811, 0.0006935591, 0.0004588537, -0.09175745
 711521111, 0.1, 0.08, 349.46, 559.72, 33.6216406, 72.955685, 0.9957768, 0.001011264, 0.0006849508, -0.0917994
 711621071, 0.14, 0.11, 349.46, 559.95, 33.6216406, 72.955685, 0.9957727, 0.001312852, 0.000912153, -0.09183744
 711721031, 0.15, 0.13, 349.45, 560.2, 33.6216406, 72.955685, 0.9957688, 0.001451488, 0.001006319, -0.09187644
 711820991, 0.18, 0.15, 349.45, 560.45, 33.6216406, 72.9556849, 0.9957659, 0.001696942, 0.001177776, -0.09190238
 711920951, 0.2, 0.17, 349.45, 560.71, 33.6216406, 72.9556849, 0.9957639, 0.001910377, 0.001345865, -0.09191714
 712020911, 0.2, 0.18, 349.45, 560.98, 33.6216406, 72.9556849, 0.9957632, 0.001935312, 0.001401505, -0.09192387
 712120871, 0.2, 0.18, 349.45, 561.25, 33.6216406, 72.9556849, 0.9957629, 0.001951424, 0.001415499, -0.09192631
 712220831, 0.2, 0.18, 349.45, 561.53, 33.6216407, 72.9556848, 0.9957632, 0.001967033, 0.001426457, -0.09192272
 712320791, 0.21, 0.18, 349.45, 561.81, 33.6216407, 72.9556848, 0.9957639, 0.001995949, 0.001432659, -0.09191465
 712421584, 0.21, 0.18, 349.45, 562.08, 33.6216407, 72.9556848, 0.9957651, 0.002001064, 0.001456673, -0.0919011
 712521544, 0.21, 0.18, 349.45, 562.35, 33.6216407, 72.9556848, 0.9957653, 0.00198718, 0.00145685, -0.09189959
 712621504, 0.2, 0.18, 349.45, 562.62, 33.6216407, 72.9556848, 0.9957648, 0.001944339, 0.001428813, -0.09190612
 712721464, 0.2, 0.17, 349.45, 562.89, 33.6216407, 72.9556848, 0.9957635, 0.001921742, 0.001363538, -0.09192108
 712821424, 0.19, 0.16, 349.44, 563.14, 33.6216407, 72.9556848, 0.9957618, 0.001788601, 0.00127008, -0.09194332
 712921384, 0.18, 0.16, 349.44, 563.39, 33.6216407, 72.9556848, 0.9957588, 0.001751206, 0.00125606, -0.09197717
 713021344, 0.17, 0.14, 349.44, 563.63, 33.6216407, 72.9556848, 0.9957558, 0.001622109, 0.001157446, -0.092013
 713121304, 0.15, 0.13, 349.43, 563.86, 33.6216407, 72.9556848, 0.995752, 0.001470926, 0.001065985, -0.09205849
 713221264, 0.14, 0.11, 349.43, 564.08, 33.6216407, 72.9556848, 0.9957479, 0.00138265, 0.000917008, -0.09210498
 713321224, 0.14, 0.11, 349.42, 564.3, 33.6216407, 72.9556848, 0.9957439, 0.001359989, 0.0008650337, -0.09214952
 713421184, 0.12, 0.1, 349.42, 564.51, 33.6216407, 72.9556848, 0.9957401, 0.0012071, 0.000807751, -0.09219296
 713521144, 0.11, 0.09, 349.41, 564.72, 33.6216407, 72.9556848, 0.9957356, 0.001100857, 0.0007399097, -0.09224289
 713621104, 0.11, 0.09, 349.4, 564.91, 33.6216407, 72.9556848, 0.9957314, 0.001093492, 0.0006956509, -0.09228984
 713721064, 0.11, 0.08, 349.4, 565.11, 33.6216407, 72.9556848, 0.9957271, 0.00108739, 0.0006606047, -0.09233574
 713821024, 0.11, 0.08, 349.39, 565.29, 33.6216407, 72.9556848, 0.9957231, 0.001029775, 0.0006308801, -0.09237983
 713920984, 0.1, 0.08, 349.39, 565.47, 33.6216407, 72.9556848, 0.9957191, 0.000939208, 0.0006462765, -0.09242383
 714020944, 0.08, 0.07, 349.39, 565.63, 33.6216407, 72.9556848, 0.9957163, 0.0008441202, 0.0006175779, -0.09245493
 714120904, 0.08, 0.06, 349.38, 565.8, 33.6216407, 72.9556848, 0.9957143, 0.0007867638, 0.0004991123, -0.09247767
 714220864, 0.08, 0.06, 349.38, 565.97, 33.6216407, 72.9556848, 0.9957131, 0.000769055, 0.0005064379, -0.09249101
 714320824, 0.08, 0.08, 349.38, 566.12, 33.6216407, 72.9556848, 0.9957131, 0.0008146893, 0.0006500196, -0.09249016
 714420784, 0.09, 0.1, 349.38, 566.27, 33.6216407, 72.9556848, 0.9957137, 0.0008725279, 0.0008123689, -0.09248196
 714521577, 0.08, 0.1, 349.38, 566.41, 33.6216407, 72.9556848, 0.9957151, 0.0008369612, 0.0008168637, -0.09246696
 714621537, 0.07, 0.1, 349.39, 566.54, 33.6216407, 72.9556848, 0.9957165, 0.0007250227, 0.0008102913, -0.09245276
 714721497, 0.09, 0.09, 349.39, 566.68, 33.6216407, 72.9556848, 0.9957173, 0.0008751187, 0.0007811941, -0.09244301
 714821457, 0.1, 0.09, 349.39, 566.81, 33.6216407, 72.9556849, 0.9957183, 0.001005959, 0.0007418799, -0.09243112
 714921417, 0.1, 0.08, 349.39, 566.93, 33.6216407, 72.9556849, 0.9957188, 0.0009421669, 0.0006683954, -0.09242694
 715021377, 0.09, 0.07, 349.39, 567.05, 33.6216407, 72.9556849, 0.9957189, 0.000896243, 0.0006003926, -0.092427
 715121337, 0.09, 0.07, 349.39, 567.15, 33.6216407, 72.9556849, 0.995719, 0.0008459619, 0.000603113, -0.09242628
 715221297, 0.09, 0.07, 349.39, 567.26, 33.6216407, 72.9556849, 0.9957181, 0.0008536271, 0.0005876655, -0.09243635
 715321257, 0.09, 0.07, 349.39, 567.36, 33.6216407, 72.9556849, 0.9957169, 0.0008554996, 0.0005682716, -0.0924485
 715421217, 0.1, 0.07, 349.38, 567.46, 33.6216407, 72.9556849, 0.9957154, 0.0009328625, 0.0005819775, -0.09246389
 715521177, 0.1, 0.09, 349.38, 567.55, 33.6216407, 72.9556849, 0.9957132, 0.001030354, 0.0007210615, -0.09248552
 715621137, 0.1, 0.09, 349.38, 567.65, 33.6216407, 72.9556849, 0.9957107, 0.001028787, 0.000767392, -0.09251244
 715721097, 0.1, 0.09, 349.37, 567.76, 33.6216407, 72.9556849, 0.9957077, 0.001014302, 0.0007542034, -0.09254551
 715821057, 0.1, 0.09, 349.37, 567.88, 33.6216407, 72.9556849, 0.9957044, 0.0009974664, 0.0007438224, -0.09258089
 715921017, 0.1, 0.09, 349.37, 568, 33.6216407, 72.9556849, 0.9957012, 0.0009688465, 0.0007367716, -0.09261549
 716020977, 0.1, 0.09, 349.36, 568.14, 33.6216407, 72.9556849, 0.995698, 0.0009718146, 0.000716592, -0.09265006
 716120937, 0.1, 0.09, 349.36, 568.3, 33.6216407, 72.9556849, 0.9956949, 0.001033221, 0.0007591263, -0.0926827
 716220897, 0.1, 0.09, 349.36, 568.47, 33.6216407, 72.9556849, 0.9956918, 0.0009614876, 0.0007575295, -0.09271574
 716320857, 0.09, 0.09, 349.35, 568.64, 33.6216407, 72.9556849, 0.9956888, 0.0009125416, 0.0007602295, -0.09274919
 716420817, 0.09, 0.09, 349.35, 568.84, 33.6216407, 72.9556849, 0.995687, 0.0008980352, 0.000786556, -0.09276842
 716520777, 0.1, 0.1, 349.35, 569.03, 33.6216407, 72.9556849, 0.9956853, 0.001006759, 0.0008683209, -0.092785
 716621570, 0.1, 0.1, 349.35, 569.24, 33.6216407, 72.9556849, 0.995684, 0.0009978156, 0.0008706036, -0.09279882
 716721530, 0.1, 0.11, 349.34, 569.46, 33.6216407, 72.9556849, 0.9956824, 0.001001442, 0.0008770217, -0.09281665
 716821490, 0.1, 0.11, 349.34, 569.7, 33.6216407, 72.9556849, 0.9956816, 0.0009953439, 0.0009160024, -0.09282489
 716921450, 0.1, 0.11, 349.34, 569.94, 33.6216407, 72.9556849, 0.9956808, 0.001048175, 0.0009119732, -0.09283271
 717021410, 0.11, 0.1, 349.34, 570.19, 33.6216407, 72.9556849, 0.9956798, 0.001047669, 0.0008512588, -0.0928434
 717121370, 0.11, 0.1, 349.34, 570.46, 33.6216407, 72.9556849, 0.9956787, 0.001083296, 0.0008477391, -0.09285515
 717221330, 0.11, 0.1, 349.34, 570.72, 33.6216407, 72.9556849, 0.9956771, 0.001103757, 0.0008099877, -0.09287214
 717321290, 0.12, 0.1, 349.33, 570.98, 33.6216407, 72.9556849, 0.995675, 0.001129885, 0.0008198806, -0.09289396
 717421250, 0.11, 0.1, 349.33, 571.24, 33.6216407, 72.9556849, 0.9956732, 0.001105585, 0.0007924958, -0.09291461
 717521210, 0.12, 0.1, 349.33, 571.51, 33.6216407, 72.9556849, 0.995671, 0.001128034, 0.0007799377, -0.09293751
 717621170, 0.12, 0.09, 349.33, 571.77, 33.6216407, 72.955685, 0.9956698, 0.001140166, 0.0007274279, -0.09295075
 717721130, 0.11, 0.1, 349.33, 572.03, 33.6216407, 72.955685, 0.9956681, 0.001075527, 0.0007817139, -0.09297008
 717821090, 0.11, 0.1, 349.32, 572.28, 33.6216407, 72.955685, 0.9956664, 0.001045591, 0.0008011197, -0.09298678
 717921050, 0.1, 0.1, 349.32, 572.54, 33.6216407, 72.955685, 0.9956641, 0.001036845, 0.0008372603, -0.09301174
 718021010, 0.09, 0.1, 349.32, 572.8, 33.6216407, 72.955685, 0.995661, 0.0009473181, 0.0008483817, -0.09304668
 718120970, 0.09, 0.1, 349.31, 573.06, 33.6216407, 72.955685, 0.9956577, 0.0008905032, 0.000810199, -0.09308257
 718220930, 0.08, 0.1, 349.31, 573.31, 33.6216407, 72.955685, 0.9956539, 0.0008379558, 0.0008603228, -0.09312315
 718320890, 0.08, 0.1, 349.3, 573.57, 33.6216407, 72.955685, 0.9956498, 0.0008652474, 0.0008234314, -0.0931669
 718420850, 0.08, 0.09, 349.3, 573.81, 33.6216407, 72.955685, 0.9956461, 0.0008327703, 0.0007958681, -0.09320723
 718520810, 0.08, 0.09, 349.29, 574.07, 33.6216407, 72.955685, 0.9956425, 0.0008421948, 0.0007578637, -0.09324521
 718620770, 0.09, 0.09, 349.29, 574.32, 33.6216407, 72.955685, 0.9956397, 0.0008663024, 0.0007729668, -0.09327484
 718721563, 0.08, 0.09, 349.29, 574.57, 33.6216407, 72.955685, 0.9956378, 0.0008290836, 0.0007802287, -0.09329534
 718821523, 0.08, 0.09, 349.29, 574.82, 33.6216407, 72.955685, 0.9956359, 0.0007992992, 0.0007837353, -0.09331576
 718921483, 0.07, 0.08, 349.28, 575.07, 33.6216407, 72.955685, 0.9956336, 0.0007596202, 0.0007132699, -0.09334185
 719021443, 0.07, 0.08, 349.28, 575.32, 33.6216407, 72.955685, 0.9956313, 0.0007283878, 0.0006475847, -0.09336727
 719121403, 0.07, 0.07, 349.28, 575.57, 33.6216407, 72.955685, 0.995629, 0.0007018879, 0.0005872678, -0.09339257
 719221363, 0.07, 0.08, 349.27, 575.82, 33.6216407, 72.955685, 0.9956263, 0.0006939161, 0.00067706, -0.09342086
 719321323, 0.08, 0.09, 349.27, 576.06, 33.6216407, 72.955685, 0.9956241, 0.000776274, 0.0007990532, -0.09344243
 719421283, 0.08, 0.1, 349.27, 576.31, 33.6216407, 72.955685, 0.9956219, 0.0007904433, 0.0008454351, -0.09346507
 719521243, 0.08, 0.1, 349.27, 576.56, 33.6216407, 72.955685, 0.9956198, 0.0008220333, 0.000839756, -0.09348684
 719621203, 0.08, 0.1, 349.26, 576.81, 33.6216407, 72.955685, 0.9956183, 0.0008187322, 0.0008379386, -0.09350342
 719721163, 0.08, 0.1, 349.26, 577.06, 33.6216407, 72.955685, 0.9956167, 0.00084585, 0.0008101633, -0.09352061
 719821123, 0.08, 0.09, 349.26, 577.31, 33.6216407, 72.955685, 0.995616, 0.0008145153, 0.0007897925, -0.09352794
 719921083, 0.09, 0.09, 349.26, 577.56, 33.6216407, 72.955685, 0.9956147, 0.0008693554, 0.0007906142, -0.09354141
 720021043, 0.08, 0.09, 349.26, 577.8, 33.6216407, 72.955685, 0.9956139, 0.0008341048, 0.0007560296, -0.09355006
 720121003, 0.09, 0.09, 349.26, 578.05, 33.6216407, 72.955685, 0.9956131, 0.0008625999, 0.0007488675, -0.09355911
 720220963, 0.09, 0.09, 349.26, 578.31, 33.6216407, 72.955685, 0.9956118, 0.000865047, 0.0007306407, -0.09357299
 720320923, 0.09, 0.09, 349.25, 578.56, 33.6216407, 72.955685, 0.9956101, 0.0009018021, 0.0007242452, -0.09359078
 720420883, 0.09, 0.09, 349.25, 578.8, 33.6216407, 72.955685, 0.9956079, 0.0009043864, 0.0007070422, -0.09361444
 720520843, 0.1, 0.09, 349.25, 579.05, 33.6216407, 72.955685, 0.9956049, 0.0009506764, 0.000701173, -0.0936453
 720620803, 0.09, 0.09, 349.24, 579.3, 33.6216407, 72.955685, 0.995602, 0.0009166956, 0.0007039289, -0.09367724
 720720763, 0.09, 0.08, 349.24, 579.55, 33.6216407, 72.955685, 0.9955985, 0.0009205978, 0.0006882653, -0.09371408
 720821556, 0.09, 0.08, 349.24, 579.8, 33.6216407, 72.955685, 0.9955944, 0.0008888911, 0.0007045566, -0.0937579
 720921516, 0.09, 0.09, 349.23, 580.04, 33.6216407, 72.955685, 0.9955901, 0.0009058006, 0.0007086453, -0.09380316
 721021476, 0.09, 0.08, 349.23, 580.3, 33.6216407, 72.955685, 0.9955859, 0.0009260048, 0.0006758953, -0.09384797
 721121436, 0.09, 0.09, 349.22, 580.55, 33.6216407, 72.955685, 0.9955817, 0.000929933, 0.0007092662, -0.09389116
 721221396, 0.09, 0.09, 349.21, 580.8, 33.6216407, 72.955685, 0.9955773, 0.000922276, 0.0007058805, -0.09393829
 721321356, 0.09, 0.08, 349.21, 581.04, 33.6216407, 72.955685, 0.9955735, 0.0009160755, 0.0006839607, -0.09397898
 721421316, 0.09, 0.08, 349.21, 581.29, 33.6216406, 72.955685, 0.9955702, 0.0008925353, 0.0006835013, -0.09401435
 721521276, 0.09, 0.08, 349.2, 581.55, 33.6216406, 72.955685, 0.9955675, 0.0009100172, 0.0006521791, -0.09404303
 721621236, 0.09, 0.08, 349.2, 581.8, 33.6216406, 72.955685, 0.9955654, 0.0008922368, 0.000620843, -0.09406599
 721721196, 0.1, 0.07, 349.2, 582.04, 33.6216406, 72.955685, 0.9955636, 0.0009433702, 0.0005726513, -0.09408435
 721821156, 0.09, 0.07, 349.2, 582.29, 33.6216406, 72.955685, 0.9955622, 0.0009158209, 0.0005376722, -0.09409963
 721921116, 0.09, 0.06, 349.19, 582.54, 33.6216406, 72.955685, 0.9955611, 0.0009131876, 0.0004872154, -0.09411139
 722021076, 0.09, 0.06, 349.2, 582.79, 33.6216406, 72.955685, 0.9955621, 0.0008851776, 0.0004548802, -0.09410103
 722121036, 0.09, 0.06, 349.2, 583.04, 33.6216406, 72.955685, 0.9955644, 0.0008894768, 0.0004515662, -0.09407724
 722220996, 0.09, 0.06, 349.2, 583.28, 33.6216406, 72.955685, 0.995566, 0.0008795295, 0.0004592735, -0.09406121
 722320956, 0.09, 0.06, 349.2, 583.54, 33.6216406, 72.955685, 0.9955661, 0.0008828216, 0.0004475211, -0.09405918
 722420916, 0.09, 0.05, 349.2, 583.79, 33.6216406, 72.955685, 0.9955661, 0.000905347, 0.000428762, -0.09405926
 722520876, 0.1, 0.06, 349.2, 584.03, 33.6216406, 72.955685, 0.9955648, 0.0009372348, 0.0004935742, -0.09407248
 722620836, 0.1, 0.06, 349.2, 584.28, 33.6216406, 72.955685, 0.9955625, 0.0009280081, 0.0005070671, -0.09409653
 722720796, 0.1, 0.06, 349.19, 584.54, 33.6216406, 72.955685, 0.9955572, 0.0009324455, 0.0004934002, -0.09415196
 722821589, 0.1, 0.06, 349.18, 584.79, 33.6216406, 72.955685, 0.9955524, 0.0009242957, 0.0004728148, -0.09420379
 722921549, 0.1, 0.07, 349.18, 585.03, 33.6216406, 72.955685, 0.995548, 0.0009723593, 0.0005289773, -0.09425006
 723021509, 0.1, 0.07, 349.17, 585.28, 33.6216406, 72.955685, 0.9955442, 0.000955814, 0.0005824494, -0.09428938
 723121469, 0.1, 0.08, 349.17, 585.53, 33.6216406, 72.955685, 0.9955404, 0.0009606854, 0.0006744619, -0.09432854
 723221429, 0.1, 0.09, 349.17, 585.78, 33.6216406, 72.955685, 0.9955369, 0.0009659167, 0.0007576897, -0.09436573
 723321389, 0.1, 0.1, 349.16, 586.04, 33.6216406, 72.955685, 0.9955333, 0.0009674479, 0.0008406703, -0.0944026
 723421349, 0.1, 0.1, 349.16, 586.28, 33.6216406, 72.955685, 0.9955298, 0.0009608774, 0.0008053348, -0.09443904
 723521309, 0.1, 0.08, 349.15, 586.53, 33.6216406, 72.955685, 0.9955264, 0.0009413628, 0.0006439949, -0.09447698
 723621269, 0.09, 0.06, 349.15, 586.78, 33.6216406, 72.955685, 0.995523, 0.0008888287, 0.0004943348, -0.09451376
 723721229, 0.09, 0.05, 349.15, 587.03, 33.6216406, 72.955685, 0.9955216, 0.0008819031, 0.0004002671, -0.09452975
 723821189, 0.08, 0.05, 349.15, 587.28, 33.6216406, 72.955685, 0.9955215, 0.0008177509, 0.0003867452, -0.09453107
 723921149, 0.09, 0.06, 349.15, 587.52, 33.6216406, 72.955685, 0.9955235, 0.0008441102, 0.0005002559, -0.09450956
 724021109, 0.08, 0.06, 349.15, 587.78, 33.6216406, 72.955685, 0.995527, 0.0008356969, 0.0005088565, -0.09447278
 724121069, 0.09, 0.07, 349.15, 588.03, 33.6216406, 72.955685, 0.995528, 0.0008602436, 0.0005719484, -0.0944616
 724221029, 0.09, 0.07, 349.15, 588.28, 33.6216406, 72.955685, 0.9955272, 0.0008636879, 0.000568804, -0.09446947
 724320989, 0.09, 0.08, 349.15, 588.53, 33.6216406, 72.955685, 0.9955248, 0.0008637909, 0.0006248976, -0.09449499
 724420949, 0.09, 0.08, 349.14, 588.78, 33.6216406, 72.955685, 0.9955196, 0.0009166124, 0.0006335996, -0.09454933
 724520909, 0.1, 0.07, 349.14, 589.04, 33.6216406, 72.955685, 0.9955138, 0.0009619302, 0.0005763688, -0.09460975
 724620869, 0.1, 0.07, 349.13, 589.28, 33.6216406, 72.9556849, 0.9955081, 0.0009828414, 0.0005264998, -0.09467036
 724720829, 0.08, 0.06, 349.12, 589.53, 33.6216406, 72.9556849, 0.9955031, 0.0008298203, 0.0004928507, -0.09472445
 724820789, 0.07, 0.06, 349.12, 589.78, 33.6216406, 72.9556849, 0.9954978, 0.0006888088, 0.0004617825, -0.09478053
 724921582, 0.08, 0.07, 349.11, 590.03, 33.6216406, 72.9556849, 0.9954935, 0.0007645538, 0.0006098886, -0.09482458
 725021542, 0.09, 0.09, 349.11, 590.28, 33.6216406, 72.9556849, 0.9954895, 0.0008891373, 0.0007885948, -0.09486446
 725121502, 0.11, 0.11, 349.1, 590.54, 33.6216406, 72.9556849, 0.9954848, 0.001136433, 0.0009333935, -0.0949095
 725221462, 0.14, 0.12, 349.1, 590.79, 33.6216406, 72.9556849, 0.995482, 0.001392669, 0.0009295474, -0.09493624
 725321422, 0.16, 0.12, 349.1, 591.04, 33.6216406, 72.9556849, 0.9954816, 0.001509642, 0.0009337568, -0.09493799
 725421382, 0.16, 0.11, 349.1, 591.28, 33.6216406, 72.9556849, 0.9954841, 0.001534013, 0.0008705168, -0.09491169
 725521342, 0.15, 0.11, 349.11, 591.53, 33.6216406, 72.9556849, 0.9954878, 0.001401512, 0.000834185, -0.09487502
 725621302, 0.13, 0.1, 349.11, 591.78, 33.6216406, 72.9556849, 0.9954916, 0.0012803, 0.0008168335, -0.09483779
 725721262, 0.13, 0.1, 349.12, 592.04, 33.6216406, 72.9556849, 0.995495, 0.001231765, 0.0008320471, -0.09480321
 725821222, 0.12, 0.1, 349.12, 592.29, 33.6216406, 72.9556849, 0.9954985, 0.00116569, 0.0008375623, -0.09476697
 725921182, 0.11, 0.1, 349.12, 592.54, 33.6216406, 72.9556849, 0.9955019, 0.001095658, 0.0007773856, -0.09473194
 726021142, 0.1, 0.09, 349.13, 592.78, 33.6216406, 72.9556849, 0.9955056, 0.001029321, 0.0007195461, -0.09469437
 726121102, 0.1, 0.08, 349.13, 593.03, 33.6216406, 72.9556849, 0.995509, 0.001017221, 0.0006560683, -0.09465989
 726221062, 0.11, 0.07, 349.14, 593.28, 33.6216406, 72.9556849, 0.9955122, 0.001098846, 0.0005789438, -0.09462535
 726321022, 0.12, 0.07, 349.14, 593.54, 33.6216406, 72.9556849, 0.9955134, 0.001182343, 0.0005645239, -0.09461194
 726420982, 0.13, 0.07, 349.13, 593.79, 33.6216406, 72.9556849, 0.9955111, 0.00119868, 0.0005710998, -0.09463587
 726520942, 0.11, 0.07, 349.13, 594.03, 33.6216406, 72.9556849, 0.9955058, 0.00103879, 0.0005976537, -0.09469311
 726620902, 0.09, 0.08, 349.12, 594.28, 33.6216406, 72.9556849, 0.9954987, 0.0008914125, 0.0006491156, -0.09476906
 726720862, 0.09, 0.08, 349.11, 594.53, 33.6216406, 72.9556849, 0.9954917, 0.000926875, 0.0006821225, -0.09484141
 726820822, 0.1, 0.08, 349.1, 594.78, 33.6216407, 72.9556849, 0.9954854, 0.001000712, 0.0006705784, -0.09490683
 726920782, 0.1, 0.09, 349.1, 595.03, 33.6216407, 72.9556849, 0.9954789, 0.001005816, 0.0007157775, -0.09497502
 727021575, 0.1, 0.09, 349.09, 595.28, 33.6216407, 72.9556849, 0.9954712, 0.00098976, 0.0007119728, -0.09505618
 727121535, 0.1, 0.09, 349.08, 595.53, 33.6216407, 72.9556849, 0.9954636, 0.001019661, 0.0007490854, -0.09513515
 727221495, 0.11, 0.1, 349.07, 595.78, 33.6216407, 72.9556849, 0.9954577, 0.001059134, 0.0008555103, -0.09519474
 727321455, 0.1, 0.12, 349.06, 596.03, 33.6216407, 72.9556849, 0.9954529, 0.001027066, 0.0009537453, -0.09524482
 727421415, 0.1, 0.11, 349.06, 596.28, 33.6216407, 72.9556849, 0.9954479, 0.0009914776, 0.0009337022, -0.09529791
 727521375, 0.1, 0.1, 349.05, 596.54, 33.6216407, 72.9556849, 0.9954434, 0.001002308, 0.0008229659, -0.09534516
 727621335, 0.1, 0.1, 349.05, 596.78, 33.6216407, 72.9556849, 0.9954411, 0.0009853758, 0.0007890954, -0.09537038
 727721295, 0.1, 0.1, 349.05, 597.03, 33.6216407, 72.9556849, 0.9954398, 0.0009985444, 0.0007952343, -0.09538329
 727821255, 0.1, 0.1, 349.05, 597.28, 33.6216407, 72.9556849, 0.9954414, 0.0009963365, 0.0008053901, -0.09536702
 727921215, 0.1, 0.1, 349.06, 597.53, 33.6216407, 72.9556849, 0.995446, 0.0009903816, 0.0008517388, -0.09531866
 728021175, 0.1, 0.1, 349.06, 597.77, 33.6216407, 72.9556849, 0.9954512, 0.0009586408, 0.0008396716, -0.09526485
 728121135, 0.1, 0.11, 349.07, 598.02, 33.6216407, 72.9556849, 0.9954548, 0.000979026, 0.0008729396, -0.09522612
 728221095, 0.1, 0.1, 349.07, 598.27, 33.6216407, 72.9556849, 0.9954554, 0.0009760736, 0.0008675592, -0.09521998
 728321055, 0.1, 0.11, 349.07, 598.52, 33.6216407, 72.9556849, 0.9954541, 0.0009781002, 0.0008751918, -0.09523389
 728421015, 0.09, 0.1, 349.06, 598.78, 33.6216407, 72.9556849, 0.9954521, 0.0009458538, 0.0008365524, -0.09525517
 728520975, 0.1, 0.1, 349.06, 599.02, 33.6216407, 72.9556849, 0.9954494, 0.000972454, 0.000842448, -0.09528336
 728620935, 0.09, 0.1, 349.06, 599.27, 33.6216407, 72.9556849, 0.9954455, 0.0009492884, 0.0008174212, -0.09532444
 728720895, 0.1, 0.1, 349.05, 599.53, 33.6216407, 72.9556849, 0.9954407, 0.001031586, 0.0008370209, -0.09537312
 728820855, 0.1, 0.1, 349.04, 599.78, 33.6216407, 72.9556849, 0.995436, 0.001000284, 0.0008207612, -0.09542322
 728920815, 0.1, 0.1, 349.04, 600.03, 33.6216407, 72.9556849, 0.9954315, 0.0009773917, 0.0008678577, -0.0954696
 729020775, 0.09, 0.1, 349.03, 600.28, 33.6216407, 72.9556849, 0.9954273, 0.0009464612, 0.0008549261, -0.09551448
 729121568, 0.09, 0.1, 349.03, 600.52, 33.6216407, 72.9556849, 0.995423, 0.0009084429, 0.000825682, -0.09555912
 729221528, 0.09, 0.1, 349.02, 600.77, 33.6216407, 72.9556849, 0.9954202, 0.0009054152, 0.0008399383, -0.09558852
 729321488, 0.09, 0.1, 349.02, 601.02, 33.6216407, 72.9556849, 0.9954188, 0.0009415357, 0.00084872, -0.09560189
 729421448, 0.1, 0.1, 349.02, 601.27, 33.6216407, 72.9556849, 0.9954196, 0.0009565387, 0.0008309597, -0.09559388
 729521408, 0.1, 0.09, 349.02, 601.51, 33.6216407, 72.9556849, 0.9954191, 0.0009983993, 0.0007779473, -0.09559926
 729621368, 0.1, 0.09, 349.02, 601.77, 33.6216407, 72.9556849, 0.995415, 0.0009948455, 0.0007435057, -0.09564192
 729721328, 0.1, 0.09, 349.01, 602.02, 33.6216407, 72.9556849, 0.9954097, 0.0009960302, 0.0007560736, -0.09569709
 729821288, 0.1, 0.09, 349.01, 602.27, 33.6216407, 72.9556849, 0.9954054, 0.0009589355, 0.0007262019, -0.09574313
 729921248, 0.1, 0.09, 349, 602.51, 33.6216407, 72.9556849, 0.9954013, 0.0009702122, 0.0007515833, -0.09578569
 730021208, 0.1, 0.09, 349, 602.77, 33.6216407, 72.9556849, 0.9953976, 0.001011256, 0.0007771972, -0.09582248
 730121168, 0.1, 0.1, 348.99, 603.01, 33.6216407, 72.9556849, 0.9953944, 0.0009990912, 0.00079022, -0.09585595
 730221128, 0.09, 0.09, 348.99, 603.24, 33.6216407, 72.9556849, 0.9953919, 0.0009200218, 0.000741854, -0.09588365
 730321088, 0.1, 0.09, 348.99, 603.47, 33.6216407, 72.9556849, 0.9953893, 0.0009647821, 0.000766598, -0.09590992
 730421048, 0.1, 0.09, 348.99, 603.7, 33.6216407, 72.9556849, 0.9953871, 0.0009988626, 0.0007574518, -0.09593161
 730521008, 0.1, 0.09, 348.98, 603.92, 33.6216407, 72.9556849, 0.9953858, 0.001034629, 0.0007552805, -0.09594485
 730620968, 0.1, 0.1, 348.98, 604.14, 33.6216407, 72.9556849, 0.9953848, 0.0009693379, 0.0007950336, -0.09595559
 730720928, 0.1, 0.1, 348.98, 604.34, 33.6216407, 72.9556849, 0.9953839, 0.001023997, 0.0008405217, -0.09596487
 730820888, 0.11, 0.1, 348.98, 604.55, 33.6216407, 72.9556849, 0.9953832, 0.001062941, 0.0007797562, -0.09597179
 730920848, 0.11, 0.1, 348.98, 604.75, 33.6216407, 72.9556849, 0.9953827, 0.001041002, 0.0007848028, -0.09597684
 731020808, 0.1, 0.09, 348.98, 604.94, 33.6216407, 72.9556849, 0.995382, 0.0009901319, 0.0007668705, -0.0959848
 731120768, 0.1, 0.1, 348.98, 605.12, 33.6216407, 72.9556849, 0.9953811, 0.001035757, 0.0008162016, -0.09599385
 731221561, 0.11, 0.1, 348.98, 605.3, 33.6216407, 72.9556849, 0.99538, 0.00104658, 0.0008209368, -0.09600428
 731321521, 0.11, 0.1, 348.98, 605.47, 33.6216407, 72.9556849, 0.995379, 0.001082522, 0.0008353883, -0.09601451
 731421481, 0.11, 0.1, 348.97, 605.64, 33.6216407, 72.9556849, 0.9953777, 0.00107309, 0.0008380901, -0.09602855
 731521441, 0.11, 0.1, 348.97, 605.79, 33.6216407, 72.9556849, 0.9953758, 0.001076723, 0.0007972954, -0.09604859
 731621401, 0.11, 0.09, 348.97, 605.95, 33.6216407, 72.9556849, 0.9953736, 0.001040041, 0.0007288149, -0.09607206
 731721361, 0.1, 0.09, 348.96, 606.1, 33.6216407, 72.9556849, 0.9953692, 0.0009965475, 0.0007628535, -0.09611785
 731821321, 0.09, 0.1, 348.96, 606.25, 33.6216407, 72.9556849, 0.9953641, 0.0009461686, 0.0008059728, -0.09617081
 731921281, 0.1, 0.1, 348.95, 606.39, 33.6216407, 72.9556849, 0.9953594, 0.0009562987, 0.0008115097, -0.09621872
 732021241, 0.1, 0.1, 348.95, 606.52, 33.6216407, 72.9556849, 0.9953545, 0.0009695802, 0.0007971264, -0.09626947
 732121201, 0.1, 0.09, 348.94, 606.65, 33.6216407, 72.9556849, 0.9953507, 0.0009574549, 0.0007273505, -0.09630989
 732221161, 0.09, 0.08, 348.94, 606.77, 33.6216407, 72.9556849, 0.9953478, 0.0009099456, 0.0006361742, -0.09634042
 732321121, 0.09, 0.08, 348.94, 606.89, 33.6216407, 72.9556849, 0.9953452, 0.0009016242, 0.0006719572, -0.09636674
 732421081, 0.09, 0.09, 348.93, 607, 33.6216407, 72.955685, 0.9953434, 0.0008943021, 0.0007086532, -0.0963854
 732521041, 0.09, 0.08, 348.93, 607.11, 33.6216407, 72.955685, 0.9953433, 0.0009010358, 0.0007013807, -0.09638759
 732621001, 0.08, 0.08, 348.93, 607.21, 33.6216407, 72.955685, 0.9953434, 0.0008388379, 0.0006674611, -0.09638645
 732720961, 0.07, 0.07, 348.93, 607.31, 33.6216407, 72.955685, 0.9953438, 0.0007402843, 0.0006273348, -0.09638327
 732820921, 0.07, 0.08, 348.93, 607.39, 33.6216406, 72.955685, 0.9953442, 0.0007414302, 0.0006639821, -0.09637887
 732920881, 0.07, 0.08, 348.93, 607.47, 33.6216406, 72.955685, 0.9953444, 0.000764018, 0.0006881568, -0.09637696
 733020841, 0.07, 0.09, 348.93, 607.56, 33.6216406, 72.955685, 0.9953449, 0.0007259982, 0.0007721198, -0.09637124
 733120801, 0.08, 0.09, 348.94, 607.63, 33.6216406, 72.955685, 0.9953455, 0.0007965458, 0.0007517547, -0.09636474
 733220761, 0.08, 0.08, 348.94, 607.69, 33.6216406, 72.955685, 0.9953462, 0.0008439885, 0.0006374783, -0.09635772
 733321554, 0.09, 0.06, 348.94, 607.76, 33.6216406, 72.955685, 0.9953468, 0.0008610267, 0.0004749913, -0.09635241
 733421514, 0.1, 0.06, 348.94, 607.81, 33.6216406, 72.955685, 0.9953465, 0.0009275499, 0.0004707296, -0.09635529
 733521474, 0.09, 0.06, 348.93, 607.86, 33.6216406, 72.955685, 0.9953453, 0.0008767794, 0.0004480959, -0.09636831
 733621434, 0.08, 0.06, 348.93, 607.91, 33.6216406, 72.955685, 0.9953438, 0.0008149794, 0.0004607724, -0.09638404
 733721394, 0.07, 0.05, 348.93, 607.95, 33.6216406, 72.955685, 0.9953423, 0.0007197179, 0.0004269715, -0.09640097
 733821354, 0.08, 0.05, 348.93, 607.98, 33.6216406, 72.955685, 0.9953405, 0.00074281, 0.0004207291, -0.0964189
 733921314, 0.07, 0.05, 348.93, 608, 33.6216406, 72.955685, 0.9953383, 0.0007331143, 0.0004450686, -0.09644129
 734021274, 0.07, 0.04, 348.92, 608.01, 33.6216406, 72.955685, 0.9953362, 0.000657203, 0.0002970333, -0.09646487
 734121234, 0.09, -0.01, 348.92, 608.02, 33.6216406, 72.955685, 0.995333, 0.000821611, -0.000217768, -0.09649632
 734221194, 0.17, -0.23, 348.92, 608.02, 33.6216406, 72.955685, 0.9953268, 0.00134485, -0.002202187, -0.09652911
 734321154, 0.33, -0.66, 348.91, 608.01, 33.6216406, 72.955685, 0.995306, 0.002352358, -0.006055803, -0.09655993
 734421114, 0.52, -1.21, 348.9, 608.01, 33.6216406, 72.955685, 0.9952574, 0.003548872, -0.01098927, -0.09658793
 734521074, 0.72, -1.78, 348.89, 608, 33.6216406, 72.955685, 0.9951804, 0.004827344, -0.01610255, -0.09660923
 734621034, 0.91, -2.32, 348.88, 607.99, 33.6216406, 72.955685, 0.9950831, 0.00598332, -0.02093503, -0.09662093
 734720994, 1.09, -2.81, 348.88, 607.99, 33.6216407, 72.955685, 0.9949722, 0.007123821, -0.02538935, -0.09661709
 734820954, 1.25, -3.28, 348.87, 607.98, 33.6216408, 72.955685, 0.9948496, 0.008116294, -0.02960821, -0.09660145
 734920914, 1.42, -3.73, 348.86, 607.99, 33.6216409, 72.955685, 0.9947153, 0.009231295, -0.0336223, -0.0965702
 735020874, 1.57, -4.18, 348.85, 607.99, 33.6216412, 72.955685, 0.9945667, 0.01013516, -0.03763899, -0.09652784
 735120834, 1.75, -4.61, 348.85, 608, 33.6216415, 72.955685, 0.9944068, 0.01130209, -0.04154649, -0.09644405
 735220794, 1.92, -5.05, 348.84, 608.02, 33.621642, 72.955685, 0.9942331, 0.0123838, -0.04549216, -0.09632026
 735321587, 2.09, -5.5, 348.86, 608.04, 33.6216423, 72.9556851, 0.9940581, 0.01355128, -0.04953894, -0.09597246
 735421547, 2.23, -5.95, 349.12, 608.07, 33.621643, 72.9556853, 0.9940631, 0.01450323, -0.05355088, -0.09359724
 735521507, 2.31, -6.44, 350.05, 608.11, 33.6216435, 72.9556853, 0.994552, 0.0152408, -0.05778359, -0.08541122
 735621467, 2.25, -7, 352.01, 608.15, 33.6216444, 72.9556854, 0.9955976, 0.01533376, -0.06234103, -0.06829226
 735721427, 2.04, -7.6, 354.91, 608.2, 33.621645, 72.9556855, 0.9967064, 0.01487439, -0.06705821, -0.04310837
 735821387, 1.69, -8.24, 358.44, 608.26, 33.6216461, 72.9556857, 0.9972237, 0.01379825, -0.07209667, -0.01250741
 735921347, 1.23, -8.89, 2.31, 608.32, 33.621647, 72.9556859, 0.9967095, 0.01226779, -0.07733369, 0.02095628
 736021307, 0.66, -9.53, 6.26, 608.39, 33.6216483, 72.9556862, 0.9950068, 0.01028617, -0.08266687, 0.05497113
 736121267, 0.04, -10.14, 10.05, 608.47, 33.6216494, 72.9556864, 0.9922497, 0.008137206, -0.08804379, 0.08730781
 736221227, -0.58, -10.73, 13.42, 608.55, 33.6216511, 72.9556867, 0.9888286, 0.005915872, -0.09349243, 0.1159405
 736321187, -1.16, -11.3, 16.2, 608.65, 33.6216524, 72.9556869, 0.985285, 0.003916991, -0.09896857, 0.1392963
 736421147, -1.64, -11.84, 18.25, 608.75, 33.6216543, 72.9556873, 0.9821964, 0.002265418, -0.104163, 0.1563176
 736521107, -1.97, -12.29, 19.5, 608.87, 33.6216559, 72.9556875, 0.9800491, 0.001239824, -0.1084074, 0.1665836
 736621067, -2.13, -12.58, 19.97, 608.99, 33.6216582, 72.9556879, 0.9790977, 0.0007374797, -0.1111529, 0.1703295
 736721027, -2.11, -12.79, 19.71, 609.13, 33.6216601, 72.9556883, 0.9792929, 0.0009773936, -0.112883, 0.1680532
 736820987, -1.94, -12.94, 18.81, 609.27, 33.6216627, 72.9556888, 0.9804395, 0.001802147, -0.1139065, 0.1605007
 736920947, -1.61, -12.95, 17.38, 609.42, 33.6216649, 72.9556892, 0.982349, 0.003187231, -0.1136383, 0.1485478
 737020907, -1.2, -12.84, 15.55, 609.58, 33.6216678, 72.9556898, 0.9846836, 0.004808161, -0.1122651, 0.1333103
 737120867, -0.73, -12.71, 13.47, 609.76, 33.6216703, 72.9556903, 0.9870509, 0.006625909, -0.1107058, 0.1158913
 737220827, -0.27, -12.58, 11.29, 609.94, 33.6216734, 72.9556908, 0.9891757, 0.008376799, -0.1092694, 0.09757801
 737320787, 0.15, -12.45, 9.18, 610.13, 33.6216762, 72.9556913, 0.9909011, 0.0100496, -0.1079846, 0.07970852
 737421580, 0.53, -12.32, 7.24, 610.32, 33.6216795, 72.9556919, 0.9921972, 0.01143431, -0.106816, 0.06327955
 737521540, 0.83, -12.19, 5.63, 610.52, 33.6216825, 72.9556925, 0.9930769, 0.01243734, -0.1057119, 0.04968382
 737621500, 1.02, -12.1, 4.43, 610.74, 33.6216861, 72.9556933, 0.9936083, 0.01292429, -0.1049904, 0.03940136
 737721460, 1.12, -12, 3.66, 610.95, 33.6216893, 72.9556939, 0.9939253, 0.01308453, -0.1042192, 0.03285654
 737821420, 1.12, -11.89, 3.35, 611.16, 33.6216929, 72.9556945, 0.9941109, 0.01280878, -0.1032979, 0.03014771
 737921380, 1.05, -11.82, 3.47, 611.38, 33.6216964, 72.9556952, 0.9941543, 0.0122489, -0.1026681, 0.03108625
 738021340, 0.9, -11.75, 3.97, 611.62, 33.6217002, 72.9556959, 0.994086, 0.01138269, -0.1020752, 0.0352727
 738121300, 0.7, -11.66, 4.78, 611.86, 33.6217037, 72.9556966, 0.9939133, 0.01032841, -0.1012703, 0.04211888
 738221260, 0.46, -11.56, 5.81, 612.09, 33.6217077, 72.9556973, 0.9935995, 0.009159518, -0.1004178, 0.05091653
 738321220, 0.21, -11.42, 6.99, 612.33, 33.6217114, 72.955698, 0.9931634, 0.007978182, -0.09927328, 0.0608899
 738421180, -0.01, -11.28, 8.21, 612.57, 33.6217153, 72.9556987, 0.9926041, 0.006872095, -0.0980443, 0.07125507
 738521140, -0.23, -11.09, 9.38, 612.82, 33.6217192, 72.9556995, 0.9919906, 0.005912107, -0.0965141, 0.08126917
 738621100, -0.4, -10.92, 10.44, 613.06, 33.6217233, 72.9557002, 0.9913527, 0.005144635, -0.09511756, 0.09025498
 738721060, -0.52, -10.69, 11.32, 613.32, 33.6217272, 72.9557009, 0.9908219, 0.004678881, -0.09320699, 0.09778842
 738821020, -0.59, -10.42, 11.97, 613.57, 33.6217314, 72.9557017, 0.9904607, 0.004371391, -0.09092031, 0.1034507
 738920980, -0.6, -10.13, 12.39, 613.82, 33.6217353, 72.9557024, 0.9903104, 0.004305425, -0.08834635, 0.1070589
 739020940, -0.57, -9.83, 12.55, 614.07, 33.6217394, 72.9557031, 0.9903746, 0.004412625, -0.08576474, 0.1085499
 739120900, -0.51, -9.69, 12.48, 614.32, 33.6217435, 72.9557039, 0.9905432, 0.004696596, -0.08447756, 0.1080069
 739220860, -0.45, -9.75, 12.21, 614.57, 33.6217476, 72.9557046, 0.9907479, 0.00514615, -0.08500274, 0.1056721
 739320820, -0.37, -9.91, 11.76, 614.83, 33.6217517, 72.9557054, 0.9910316, 0.005586211, -0.08633544, 0.1018397
 739420780, -0.28, -10.07, 11.19, 615.08, 33.6217559, 72.955706, 0.9914087, 0.006099549, -0.08764126, 0.09690479
 739521573, -0.16, -10.18, 10.52, 615.32, 33.62176, 72.9557068, 0.991868, 0.006689828, -0.08848713, 0.09123123
 739621533, -0.05, -10.24, 9.84, 615.57, 33.6217641, 72.9557075, 0.9923393, 0.007200368, -0.08899826, 0.08538248
 739721493, 0.06, -10.3, 9.17, 615.82, 33.6217682, 72.9557083, 0.9927654, 0.007703389, -0.08947034, 0.07970288
 739821453, 0.15, -10.35, 8.57, 616.06, 33.6217724, 72.955709, 0.9931293, 0.008068193, -0.08985402, 0.074534
 739921413, 0.23, -10.36, 8.06, 616.32, 33.6217765, 72.9557097, 0.9934359, 0.00840842, -0.08994032, 0.07018021
 740021373, 0.3, -10.38, 7.67, 616.56, 33.6217807, 72.9557105, 0.9936475, 0.008662796, -0.09011336, 0.06685153
 740121333, 0.32, -10.39, 7.41, 616.81, 33.6217849, 72.9557112, 0.993787, 0.008695618, -0.09017343, 0.06465725
 740221293, 0.33, -10.38, 7.3, 617.05, 33.6217891, 72.9557119, 0.9938574, 0.008645244, -0.09009951, 0.06367664
 740321253, 0.31, -10.36, 7.32, 617.3, 33.6217933, 72.9557126, 0.9938586, 0.008498157, -0.08997139, 0.0638601
 740421213, 0.26, -10.33, 7.46, 617.54, 33.6217977, 72.9557134, 0.9938043, 0.008173287, -0.08973949, 0.0650607
 740521173, 0.22, -10.3, 7.7, 617.79, 33.6218019, 72.9557141, 0.9936953, 0.007984079, -0.08944487, 0.06712414
 740621133, 0.17, -10.26, 8.02, 618.04, 33.6218061, 72.9557149, 0.9935421, 0.007743718, -0.08911604, 0.06980237
 740721093, 0.11, -10.24, 8.38, 618.29, 33.6218104, 72.9557156, 0.9933387, 0.007532743, -0.08894885, 0.07286659
 740821053, 0.07, -10.2, 8.75, 618.54, 33.6218146, 72.9557164, 0.9931245, 0.00742107, -0.08866364, 0.076075
 740921013, 0.02, -10.16, 9.11, 618.78, 33.6218189, 72.9557172, 0.9929158, 0.007255451, -0.08830233, 0.07917274
 741020973, -0.02, -10.11, 9.44, 619.03, 33.6218232, 72.9557179, 0.9927293, 0.007070343, -0.08786596, 0.08196451
 741120933, -0.04, -10.02, 9.71, 619.27, 33.6218275, 72.9557186, 0.9925994, 0.007032599, -0.08712605, 0.08429749
 741220893, -0.04, -9.98, 9.91, 619.53, 33.6218318, 72.9557195, 0.9924833, 0.007089521, -0.08675521, 0.08602454
 741320853, -0.05, -9.95, 10.03, 619.77, 33.6218361, 72.9557202, 0.9924154, 0.007096384, -0.08645798, 0.08709978
 741420813, -0.05, -9.91, 10.08, 620.02, 33.6218403, 72.955721, 0.9924091, 0.007153936, -0.08613602, 0.08748588
 741520773, -0.03, -9.87, 10.04, 620.27, 33.6218446, 72.9557217, 0.9924623, 0.007261171, -0.08578497, 0.08721707
 741621566, 0, -9.82, 9.94, 620.51, 33.6218489, 72.9557225, 0.9925771, 0.007430715, -0.08531947, 0.08634926
 741721526, 0.03, -9.77, 9.78, 620.76, 33.6218532, 72.9557233, 0.9927322, 0.007607517, -0.08485927, 0.08499295
 741821486, 0.06, -9.76, 9.58, 621.02, 33.6218576, 72.9557241, 0.9928854, 0.007671219, -0.08478492, 0.08325381
 741921446, 0.1, -9.73, 9.35, 621.26, 33.6218619, 72.9557249, 0.9930742, 0.007833187, -0.0844576, 0.08129652
 742021406, 0.13, -9.7, 9.11, 621.51, 33.6218661, 72.9557256, 0.9932591, 0.007925786, -0.08421655, 0.07925291
 742121366, 0.15, -9.69, 8.87, 621.75, 33.6218703, 72.9557264, 0.9934201, 0.007924166, -0.08417507, 0.0772549
 742221326, 0.18, -9.7, 8.66, 622, 33.6218747, 72.9557271, 0.99356, 0.007958678, -0.08419395, 0.07541005
 742321286, 0.19, -9.7, 8.48, 622.25, 33.6218789, 72.9557279, 0.9936773, 0.00794293, -0.08420102, 0.07384075
 742421246, 0.22, -9.7, 8.33, 622.49, 33.6218832, 72.9557286, 0.9937677, 0.008059969, -0.0841989, 0.07260397
 742521206, 0.23, -9.67, 8.23, 622.75, 33.6218875, 72.9557294, 0.9938475, 0.008127522, -0.08399746, 0.07173113
 742621166, 0.24, -9.66, 8.18, 622.99, 33.6218917, 72.9557302, 0.9938922, 0.008119231, -0.08388012, 0.07124994
 742721126, 0.23, -9.66, 8.16, 623.24, 33.621896, 72.955731, 0.9939022, 0.008056349, -0.08385752, 0.07114367
 742821086, 0.22, -9.68, 8.19, 623.49, 33.6219002, 72.9557317, 0.9938666, 0.007975054, -0.08409059, 0.07137483
 742921046, 0.2, -9.67, 8.25, 623.74, 33.6219045, 72.9557325, 0.9938349, 0.007862118, -0.08402072, 0.07190864
 743021006, 0.18, -9.65, 8.34, 623.98, 33.6219087, 72.9557332, 0.9937964, 0.007733157, -0.08384995, 0.07265002
 743120966, 0.15, -9.64, 8.45, 624.23, 33.6219129, 72.955734, 0.9937396, 0.007550257, -0.08377497, 0.07352825
 743220926, 0.12, -9.63, 8.56, 624.49, 33.6219172, 72.9557348, 0.9936802, 0.007387074, -0.0836643, 0.07446653
 743320886, 0.11, -9.64, 8.66, 624.73, 33.6219214, 72.9557356, 0.9936035, 0.007360765, -0.0837483, 0.07539355
 743420846, 0.1, -9.65, 8.76, 624.98, 33.6219257, 72.9557364, 0.9935327, 0.00734413, -0.08383699, 0.07622459
 743520806, 0.09, -9.66, 8.84, 625.23, 33.6219299, 72.9557372, 0.993467, 0.007333606, -0.08395443, 0.07694896
 743620766, 0.07, -9.68, 8.91, 625.48, 33.6219342, 72.9557379, 0.9934115, 0.007242265, -0.08410241, 0.07751016
 743721559, 0.07, -9.66, 8.95, 625.72, 33.6219384, 72.9557387, 0.9933977, 0.007227226, -0.08394022, 0.07786381
 743821519, 0.07, -9.67, 8.96, 625.97, 33.6219427, 72.9557394, 0.9933847, 0.007265612, -0.08399004, 0.07797254
 743921479, 0.07, -9.68, 8.95, 626.23, 33.6219469, 72.9557402, 0.993386, 0.007278844, -0.08410908, 0.07782721
 744021439, 0.08, -9.67, 8.91, 626.47, 33.6219512, 72.9557409, 0.993418, 0.007259085, -0.08405729, 0.07747535
 744121399, 0.09, -9.66, 8.85, 626.72, 33.6219554, 72.9557417, 0.9934683, 0.00733858, -0.08392158, 0.07696766
 744221359, 0.11, -9.66, 8.77, 626.96, 33.6219596, 72.9557425, 0.9935163, 0.007423269, -0.0839103, 0.07635
 744321319, 0.12, -9.68, 8.69, 627.22, 33.6219638, 72.9557433, 0.9935507, 0.007503876, -0.08412932, 0.07565092
 744421279, 0.12, -9.71, 8.61, 627.47, 33.6219681, 72.955744, 0.9935865, 0.007481394, -0.08437996, 0.07489916
 744521239, 0.13, -9.73, 8.52, 627.71, 33.6219723, 72.9557448, 0.9936298, 0.00752017, -0.08450458, 0.07417709
 744621199, 0.15, -9.74, 8.45, 627.96, 33.6219766, 72.9557456, 0.9936669, 0.007600475, -0.08461475, 0.0735437
 744721159, 0.16, -9.74, 8.38, 628.2, 33.6219808, 72.9557464, 0.993706, 0.007621775, -0.08463543, 0.07298663
 744821119, 0.15, -9.76, 8.33, 628.45, 33.621985, 72.9557471, 0.9937271, 0.007551021, -0.08480281, 0.07251164
 744921079, 0.14, -9.78, 8.29, 628.7, 33.6219892, 72.9557479, 0.9937365, 0.007465593, -0.08499578, 0.07216514
 745021039, 0.14, -9.78, 8.27, 628.95, 33.6219935, 72.9557486, 0.993753, 0.007418458, -0.08497403, 0.07196771
 745120999, 0.14, -9.77, 8.26, 629.19, 33.6219977, 72.9557494, 0.9937614, 0.00740987, -0.08492838, 0.07190764
 745220959, 0.14, -9.77, 8.27, 629.44, 33.6220019, 72.9557501, 0.9937594, 0.007375832, -0.08490737, 0.0719627
 745320919, 0.14, -9.74, 8.28, 629.69, 33.6220062, 72.9557509, 0.9937715, 0.00738349, -0.08463223, 0.07211838
 745420879, 0.13, -9.75, 8.31, 629.94, 33.6220103, 72.9557517, 0.9937528, 0.007368282, -0.08468047, 0.07232112
 745520839, 0.13, -9.76, 8.33, 630.18, 33.6220146, 72.9557525, 0.9937273, 0.007357189, -0.08479419, 0.07253836
 745620799, 0.13, -9.76, 8.36, 630.43, 33.6220188, 72.9557532, 0.9937079, 0.007340162, -0.08483779, 0.07275497
 745721592, 0.12, -9.77, 8.38, 630.68, 33.622023, 72.955754, 0.9936882, 0.00732838, -0.08488157, 0.07297411
 745821552, 0.12, -9.75, 8.41, 630.92, 33.6220273, 72.9557548, 0.9936873, 0.007299353, -0.08470425, 0.07319504
 745921512, 0.11, -9.74, 8.43, 631.18, 33.6220315, 72.9557556, 0.9936808, 0.007280989, -0.08460782, 0.07339595
 746021472, 0.11, -9.76, 8.45, 631.43, 33.6220358, 72.9557563, 0.9936565, 0.007272093, -0.08476513, 0.07354491
 746121432, 0.11, -9.76, 8.46, 631.67, 33.62204, 72.9557571, 0.9936488, 0.00730263, -0.08476668, 0.07364424
 746221392, 0.11, -9.77, 8.47, 631.93, 33.6220443, 72.9557578, 0.9936324, 0.007280881, -0.0849307, 0.07367793
 746321352, 0.11, -9.79, 8.46, 632.18, 33.6220485, 72.9557586, 0.9936208, 0.007334109, -0.08507528, 0.07366209
 746421312, 0.12, -9.8, 8.46, 632.42, 33.6220527, 72.9557594, 0.9936185, 0.00739218, -0.08515482, 0.07359567
 746521272, 0.13, -9.81, 8.45, 632.67, 33.6220569, 72.9557602, 0.9936188, 0.00745049, -0.0852195, 0.07351081
 746621232, 0.13, -9.81, 8.43, 632.92, 33.6220612, 72.9557609, 0.9936228, 0.007504779, -0.0852611, 0.07340305
 746721192, 0.14, -9.81, 8.42, 633.16, 33.6220654, 72.9557617, 0.9936336, 0.007555774, -0.08525704, 0.07325607
 746821152, 0.14, -9.82, 8.39, 633.41, 33.6220697, 72.9557624, 0.9936432, 0.00756697, -0.0853036, 0.07306966
 746921112, 0.13, -9.83, 8.37, 633.66, 33.6220739, 72.9557632, 0.9936528, 0.007467326, -0.08538874, 0.07284965
 747021072, 0.13, -9.84, 8.34, 633.9, 33.6220782, 72.9557639, 0.9936619, 0.007378228, -0.08549236, 0.07261242
 747121032, 0.13, -9.83, 8.32, 634.16, 33.6220824, 72.9557647, 0.9936855, 0.007383726, -0.08541308, 0.0723828
 747220992, 0.13, -9.82, 8.29, 634.41, 33.6220867, 72.9557654, 0.9937098, 0.007373535, -0.08532334, 0.0721554
 747320952, 0.14, -9.8, 8.27, 634.65, 33.6220909, 72.9557662, 0.9937375, 0.007414032, -0.08516367, 0.07195915
 747420912, 0.15, -9.76, 8.25, 634.9, 33.6220952, 72.955767, 0.9937785, 0.007436084, -0.08482852, 0.07178535
 747520872, 0.15, -9.75, 8.22, 635.16, 33.6220994, 72.9557678, 0.9938043, 0.00743269, -0.08467603, 0.07160893
 747620832, 0.16, -9.75, 8.2, 635.41, 33.6221037, 72.9557685, 0.9938167, 0.007499358, -0.08466423, 0.07144342
 747720792, 0.17, -9.76, 8.19, 635.65, 33.6221079, 72.9557693, 0.9938157, 0.007555248, -0.08480401, 0.07128572
 747821585, 0.17, -9.78, 8.17, 635.9, 33.6221122, 72.95577, 0.9938135, 0.007556797, -0.08493187, 0.0711627
 747921545, 0.17, -9.74, 8.16, 636.15, 33.6221164, 72.9557708, 0.9938461, 0.007581929, -0.08461115, 0.07108776
 748021505, 0.17, -9.73, 8.16, 636.39, 33.6221206, 72.9557715, 0.9938579, 0.007591632, -0.08452139, 0.07102813
 748121465, 0.18, -9.73, 8.15, 636.64, 33.6221248, 72.9557723, 0.99386, 0.00762375, -0.08454162, 0.07097092
 748221425, 0.19, -9.73, 8.14, 636.89, 33.6221291, 72.9557731, 0.9938619, 0.007680871, -0.08455699, 0.07091954
 748321385, 0.19, -9.74, 8.14, 637.15, 33.6221334, 72.9557739, 0.9938636, 0.007680637, -0.08457386, 0.07087562
 748421345, 0.18, -9.74, 8.13, 637.39, 33.6221376, 72.9557746, 0.9938604, 0.007646114, -0.08463515, 0.07085238
 748521305, 0.18, -9.76, 8.14, 637.64, 33.6221419, 72.9557754, 0.9938459, 0.007637396, -0.08479603, 0.0708629
 748621265, 0.17, -9.78, 8.14, 637.89, 33.6221461, 72.9557761, 0.9938304, 0.007601, -0.08494128, 0.07091063
 748721225, 0.17, -9.79, 8.15, 638.13, 33.6221503, 72.9557769, 0.9938127, 0.007596782, -0.08507353, 0.07100039
 748821185, 0.16, -9.81, 8.17, 638.38, 33.6221546, 72.9557777, 0.9937921, 0.007564109, -0.08521426, 0.07112334
 748921145, 0.16, -9.81, 8.18, 638.64, 33.6221589, 72.9557785, 0.9937807, 0.007564934, -0.08524485, 0.07124703
 749021105, 0.16, -9.83, 8.19, 638.88, 33.6221631, 72.9557792, 0.9937569, 0.007562259, -0.085441, 0.07134327
 749121065, 0.16, -9.83, 8.2, 639.13, 33.6221674, 72.95578, 0.9937558, 0.007545429, -0.08539496, 0.0714149
 749221025, 0.16, -9.82, 8.2, 639.38, 33.6221716, 72.9557807, 0.9937646, 0.007534475, -0.08527689, 0.07143499
 749320985, 0.16, -9.8, 8.2, 639.62, 33.6221758, 72.9557815, 0.9937816, 0.007546499, -0.08511074, 0.07139546
 749420945, 0.16, -9.77, 8.18, 639.87, 33.6221801, 72.9557822, 0.9938095, 0.007539053, -0.08489215, 0.0712689
 749520905, 0.17, -9.75, 8.16, 640.12, 33.6221843, 72.955783, 0.9938344, 0.00755741, -0.08473551, 0.07110537
 749620865, 0.17, -9.76, 8.15, 640.38, 33.6221886, 72.9557838, 0.9938422, 0.00754198, -0.08478661, 0.07093632
 749720825, 0.17, -9.76, 8.13, 640.63, 33.6221928, 72.9557846, 0.9938519, 0.007540578, -0.08480894, 0.07077423
 749820785, 0.17, -9.76, 8.11, 640.87, 33.6221971, 72.9557853, 0.993862, 0.007554689, -0.08480809, 0.07063203
 749921578, 0.18, -9.74, 8.1, 641.12, 33.6222014, 72.9557861, 0.9938839, 0.007620429, -0.08462509, 0.07053559
 750021538, 0.18, -9.71, 8.09, 641.37, 33.6222056, 72.9557868, 0.9939089, 0.007575555, -0.08438323, 0.07047801
 750121498, 0.18, -9.71, 8.09, 641.62, 33.6222098, 72.9557876, 0.9939108, 0.007557229, -0.08437839, 0.07045878
 750221458, 0.17, -9.72, 8.09, 641.86, 33.6222141, 72.9557883, 0.9939045, 0.007532075, -0.08443595, 0.07048175
 750321418, 0.17, -9.7, 8.1, 642.12, 33.6222184, 72.9557891, 0.9939153, 0.007534493, -0.08425511, 0.07054505
 750421378, 0.17, -9.71, 8.1, 642.37, 33.6222226, 72.9557899, 0.9939056, 0.007508096, -0.08433627, 0.07058796
 750521338, 0.17, -9.72, 8.11, 642.62, 33.6222269, 72.9557907, 0.9938962, 0.007512963, -0.08443833, 0.07059684
 750621298, 0.17, -9.73, 8.1, 642.87, 33.6222311, 72.9557914, 0.9938928, 0.007506633, -0.08450077, 0.07057086
 750721258, 0.17, -9.73, 8.1, 643.12, 33.6222353, 72.9557922, 0.993891, 0.007538693, -0.08454699, 0.0705384
 750821218, 0.17, -9.73, 8.09, 643.36, 33.6222396, 72.9557929, 0.9938921, 0.007527958, -0.08456573, 0.07050122
 750921178, 0.17, -9.73, 8.09, 643.62, 33.6222438, 72.9557937, 0.9938994, 0.007539935, -0.08452924, 0.07044084
 751021138, 0.17, -9.73, 8.08, 643.87, 33.6222481, 72.9557945, 0.993905, 0.007528666, -0.08453667, 0.07035404
 751121098, 0.18, -9.76, 8.07, 644.12, 33.6222523, 72.9557953, 0.9938918, 0.007573063, -0.08475537, 0.07027259
 751221058, 0.18, -9.77, 8.06, 644.37, 33.6222565, 72.955796, 0.9938853, 0.007611037, -0.08489028, 0.07019753
 751321018, 0.19, -9.77, 8.05, 644.62, 33.6222607, 72.9557968, 0.9938936, 0.007637225, -0.08484871, 0.07012796
 751420978, 0.19, -9.76, 8.04, 644.86, 33.622265, 72.9557975, 0.9939055, 0.007655913, -0.08476285, 0.07006034
 751520938, 0.18, -9.73, 8.04, 645.12, 33.6222692, 72.9557983, 0.9939275, 0.00759312, -0.08456641, 0.06999289
 751620898, 0.18, -9.74, 8.03, 645.37, 33.6222735, 72.955799, 0.9939294, 0.007520557, -0.08457753, 0.06995984
 751720858, 0.18, -9.77, 8.03, 645.62, 33.6222777, 72.9557998, 0.9939007, 0.007546642, -0.08491332, 0.06995917
 751820818, 0.18, -9.82, 8.03, 645.87, 33.622282, 72.9558006, 0.9938676, 0.007600139, -0.08528894, 0.0699667
 751920778, 0.18, -9.85, 8.03, 646.12, 33.6222862, 72.9558014, 0.9938441, 0.007628792, -0.08555038, 0.06997743
 752021571, 0.18, -9.86, 8.04, 646.38, 33.6222905, 72.9558021, 0.993834, 0.007643012, -0.08563153, 0.07002074
 752121531, 0.18, -9.86, 8.05, 646.63, 33.6222947, 72.9558029, 0.9938279, 0.007639428, -0.08565208, 0.07008182
 752221491, 0.18, -9.87, 8.05, 646.88, 33.622299, 72.9558036, 0.9938159, 0.007656505, -0.08575457, 0.07012559
 752321451, 0.18, -9.88, 8.05, 647.13, 33.6223033, 72.9558044, 0.9938123, 0.007628009, -0.08579273, 0.0701334
 752421411, 0.18, -9.86, 8.05, 647.37, 33.6223075, 72.9558051, 0.9938233, 0.007603351, -0.08567753, 0.07012
 752521371, 0.18, -9.88, 8.05, 647.63, 33.6223118, 72.9558059, 0.9938142, 0.007691357, -0.08579911, 0.07009032
 752621331, 0.19, -9.9, 8.04, 647.88, 33.622316, 72.9558066, 0.9938009, 0.007778987, -0.08597708, 0.07005244
 752721291, 0.2, -9.92, 8.04, 648.13, 33.6223203, 72.9558074, 0.9937893, 0.007861647, -0.08613589, 0.07001142
 752821251, 0.21, -9.93, 8.03, 648.38, 33.6223245, 72.9558082, 0.9937792, 0.007940012, -0.08627738, 0.06997087
 752921211, 0.22, -9.94, 8.03, 648.63, 33.6223288, 72.955809, 0.9937766, 0.007999809, -0.0863369, 0.06992964
 753021171, 0.22, -9.92, 8.02, 648.88, 33.622333, 72.9558097, 0.9937958, 0.007999092, -0.08615548, 0.06987944
 753121131, 0.22, -9.9, 8.01, 649.12, 33.6223373, 72.9558105, 0.9938154, 0.007947053, -0.08598378, 0.0698183
 753221091, 0.19, -9.91, 8.01, 649.38, 33.6223416, 72.9558113, 0.9938124, 0.007750731, -0.08610684, 0.06973093
 753321051, 0.18, -9.89, 7.99, 649.63, 33.6223459, 72.9558121, 0.993834, 0.007622417, -0.08595315, 0.069627
 753421011, 0.18, -9.87, 7.98, 649.88, 33.6223501, 72.9558128, 0.9938618, 0.007554138, -0.08574116, 0.0694989
 753520971, 0.17, -9.85, 7.97, 650.13, 33.6223544, 72.9558136, 0.9938819, 0.007531836, -0.08559869, 0.06938848
 753620931, 0.18, -9.81, 7.96, 650.38, 33.6223586, 72.9558143, 0.993917, 0.00756307, -0.08524702, 0.06931561
 753720891, 0.19, -9.79, 7.95, 650.64, 33.6223629, 72.9558151, 0.993938, 0.007638522, -0.08504748, 0.06925118
 753820851, 0.2, -9.8, 7.94, 650.87, 33.6223672, 72.9558159, 0.9939362, 0.007721859, -0.08511029, 0.06919119
 753920811, 0.21, -9.81, 7.93, 651.14, 33.6223715, 72.9558167, 0.9939297, 0.007806143, -0.08522753, 0.06913149
 754020771, 0.22, -9.81, 7.93, 651.38, 33.6223757, 72.9558174, 0.9939339, 0.007867166, -0.08521824, 0.06907581
 754121564, 0.22, -9.78, 7.92, 651.63, 33.62238, 72.9558182, 0.9939576, 0.007866069, -0.08497815, 0.06902981
 754221524, 0.21, -9.77, 7.92, 651.88, 33.6223842, 72.9558189, 0.9939705, 0.007786647, -0.08486402, 0.06899314
 754321484, 0.2, -9.77, 7.92, 652.13, 33.6223885, 72.9558197, 0.9939687, 0.007660793, -0.08490502, 0.06898324
 754421444, 0.19, -9.74, 7.92, 652.39, 33.6223928, 72.9558205, 0.9939944, 0.007517856, -0.08459928, 0.0690041
 754521404, 0.17, -9.58, 7.93, 652.63, 33.6223971, 72.9558213, 0.9941095, 0.007309682, -0.08320642, 0.06906261
 754621364, 0.17, -9.22, 7.94, 652.88, 33.6224013, 72.955822, 0.9943587, 0.007067503, -0.08012889, 0.06914005
 754721324, 0.17, -8.72, 7.94, 653.13, 33.6224056, 72.9558228, 0.994698, 0.006785074, -0.0757392, 0.06923462
 754821284, 0.17, -8.14, 7.95, 653.38, 33.6224099, 72.9558236, 0.9950623, 0.006439892, -0.07073408, 0.06932675
 754921244, 0.17, -7.54, 7.96, 653.62, 33.6224141, 72.9558244, 0.9954161, 0.006131856, -0.06551298, 0.06940591
 755021204, 0.17, -6.94, 7.96, 653.88, 33.6224182, 72.9558251, 0.9957417, 0.005772779, -0.06033734, 0.06945845
 755121164, 0.18, -6.33, 7.97, 654.12, 33.6224224, 72.9558258, 0.996048, 0.005425829, -0.0550492, 0.06948753
 755221124, 0.18, -5.73, 7.97, 654.36, 33.6224264, 72.9558266, 0.9963265, 0.005053924, -0.0497893, 0.06949128
 755321084, 0.18, -5.12, 7.96, 654.59, 33.6224305, 72.9558273, 0.9965812, 0.004740912, -0.04444935, 0.0694815
 755421044, 0.2, -4.42, 7.96, 654.82, 33.6224344, 72.9558279, 0.9968345, 0.004432365, -0.03843312, 0.06945661
 755521004, 0.26, -3.55, 7.96, 655.05, 33.6224384, 72.9558287, 0.997099, 0.004470305, -0.03082324, 0.06945053
 755620964, 0.41, -2.42, 7.96, 655.27, 33.622442, 72.9558294, 0.9973506, 0.005084438, -0.02088007, 0.06949752
 755720924, 0.62, -1.06, 7.98, 655.48, 33.6224459, 72.9558301, 0.9975132, 0.006121211, -0.008911996, 0.06964627
 755820884, 0.86, 0.35, 8.02, 655.69, 33.6224493, 72.9558307, 0.9975157, 0.007290743, 0.003659206, 0.06997081
 755920844, 1.11, 1.84, 8.11, 655.89, 33.6224529, 72.9558313, 0.9973294, 0.008589859, 0.01678109, 0.07055994
 756020804, 1.37, 3.38, 8.25, 656.09, 33.622456, 72.9558319, 0.9969282, 0.009855869, 0.03030682, 0.07154385
 756120764, 1.65, 4.97, 8.46, 656.27, 33.6224594, 72.9558326, 0.996276, 0.01121938, 0.04438401, 0.07306369
 756221557, 1.96, 6.63, 8.76, 656.44, 33.6224621, 72.9558332, 0.9953329, 0.01261075, 0.05899817, 0.07531632
 756321517, 2.29, 8.32, 9.19, 656.61, 33.6224652, 72.9558339, 0.9940717, 0.01409155, 0.07393888, 0.07845913
 756421477, 2.68, 10.05, 9.76, 656.76, 33.6224674, 72.9558345, 0.9924405, 0.01576389, 0.08924975, 0.08275179
 756521437, 3.16, 11.81, 10.54, 656.9, 33.6224701, 72.9558351, 0.9903636, 0.01789091, 0.1050097, 0.08850337
 756621397, 3.75, 13.54, 11.56, 657.03, 33.6224717, 72.9558358, 0.9878284, 0.02052085, 0.1205193, 0.09617223
 756721357, 4.48, 15.09, 12.93, 657.15, 33.6224739, 72.9558364, 0.9848513, 0.02371982, 0.1348033, 0.106458
 756821317, 5.38, 16.4, 14.77, 657.25, 33.622475, 72.9558369, 0.9813383, 0.02780511, 0.147291, 0.1204472
 756921277, 6.56, 17.46, 17.31, 657.33, 33.6224768, 72.9558375, 0.976844, 0.03314358, 0.1584065, 0.1399453
 757021237, 8.11, 18.18, 20.8, 657.42, 33.6224772, 72.9558382, 0.9707917, 0.04024265, 0.1676186, 0.1668772
 757121197, 10.01, 18.4, 25.31, 657.48, 33.6224784, 72.9558388, 0.9625262, 0.04920186, 0.1743207, 0.2018287
 757221157, 12.22, 18.06, 30.76, 657.53, 33.6224783, 72.9558394, 0.9512291, 0.06000838, 0.1784253, 0.2443904
 757321117, 14.66, 17.18, 37.03, 657.56, 33.6224789, 72.95584, 0.9359612, 0.07257373, 0.1805896, 0.2934231
 757421077, 17.17, 15.69, 44.01, 657.6, 33.6224781, 72.9558407, 0.9158025, 0.08653093, 0.1805666, 0.3481578
 757521037, 19.52, 13.54, 51.48, 657.61, 33.6224781, 72.9558414, 0.8902037, 0.1011982, 0.1778148, 0.4070358
 757620997, 21.55, 10.78, 59.28, 657.61, 33.6224768, 72.9558422, 0.8586957, 0.116119, 0.1722869, 0.4684818
 757720957, 23.13, 7.51, 67.34, 657.6, 33.6224762, 72.9558429, 0.8208438, 0.1308988, 0.1643663, 0.5310977
 757820917, 24.17, 3.89, 75.49, 657.59, 33.6224742, 72.9558435, 0.777093, 0.1451503, 0.1544077, 0.5926349
 757920877, 24.68, 0.07, 83.69, 657.55, 33.6224729, 72.9558442, 0.7277857, 0.1588316, 0.1431139, 0.6516279
 758020837, 24.58, -3.79, 91.86, 657.52, 33.6224702, 72.9558451, 0.674112, 0.1712339, 0.1304375, 0.7065679
 758120797, 23.81, -7.48, 99.94, 657.47, 33.6224684, 72.9558459, 0.6176409, 0.1813102, 0.1165975, 0.7563408
 758221590, 22.37, -10.84, 107.93, 657.42, 33.6224651, 72.9558468, 0.5596331, 0.1886009, 0.1017067, 0.8005599
 758321550, 20.45, -13.69, 115.62, 657.37, 33.6224626, 72.9558476, 0.5026011, 0.1932292, 0.08672336, 0.8381729
 758421510, 18.28, -16.08, 122.94, 657.29, 33.6224588, 72.9558485, 0.447363, 0.1965235, 0.07222697, 0.8694988
 758521470, 15.96, -18.06, 129.82, 657.22, 33.6224559, 72.9558494, 0.3949122, 0.1989272, 0.05831928, 0.8950258
 758621430, 13.55, -19.65, 136.25, 657.15, 33.6224517, 72.9558503, 0.3458295, 0.2006202, 0.04479263, 0.9155037
 758721390, 11.19, -20.96, 142.21, 657.06, 33.6224482, 72.9558512, 0.3000938, 0.2023723, 0.03215444, 0.9316412
 758821350, 8.89, -22.02, 147.75, 656.98, 33.6224436, 72.9558523, 0.2575429, 0.2041368, 0.02022643, 0.9442408
 758921310, 6.66, -22.88, 152.93, 656.89, 33.6224396, 72.9558532, 0.2177245, 0.2058651, 0.009052138, 0.9540092
