Time,ATT_DesRoll,ATT_Roll,ATT_DesPitch,ATT_Pitch,ATT_DesYaw,ATT_Yaw,ATT_ErrRP,ATT_ErrYaw,ATT_AEKF
 705920852, 0, 0.06, 0, 0.08, 350.35, 350.36, 0, 0, 3
 706020812, 0, 0.06, 0, 0.08, 350.35, 350.36, 0, 0, 3
 706120772, 0, 0.06, 0, 0.08, 350.35, 350.36, 0, 0, 3
 706221565, 0, 0.06, 0, 0.08, 350.35, 350.36, 0, 0, 3
 706321525, 0, 0.06, 0, 0.08, 350.35, 350.36, 0, 0, 3
 706421485, 0, 0.06, 0, 0.08, 350.35, 350.36, 0, 0, 3
 706521445, 0, 0.06, 0, 0.08, 350.35, 350.36, 0, 0, 3
 706621405, 0, 0.06, 0, 0.08, 350.36, 350.37, 0, 0, 3
 706721365, 0, 0.06, 0, 0.08, 350.36, 350.37, 0, 0, 3
 706821325, 0, 0.06, 0, 0.08, 350.36, 350.37, 0, 0, 3
 706921285, 0, 0.06, 0, 0.08, 350.36, 350.37, 0, 0, 3
 707021245, 0, 0.06, 0, 0.08, 350.36, 350.37, 0, 0, 3
 707121205, 0, 0.06, 0, 0.08, 350.36, 350.37, 0, 0, 3
 707221165, 0, 0.06, 0, 0.08, 350.36, 350.37, 0, 0, 3
 707321125, 0, 0.06, 0, 0.08, 350.36, 350.37, 0, 0, 3
 707421085, 0, 0.06, 0, 0.08, 350.36, 350.37, 0, 0, 3
 707521045, 0, 0.06, 0, 0.08, 350.37, 350.38, 0, 0, 3
 707621005, 0, 0.06, 0, 0.08, 350.37, 350.38, 0, 0, 3
 707720965, 0, 0.06, 0, 0.08, 350.37, 350.38, 0, 0, 3
 707820925, 0, 0.06, 0, 0.08, 350.37, 350.38, 0, 0, 3
 707920885, 0, 0.06, 0, 0.08, 350.37, 350.38, 0, 0, 3
 708020845, 0, 0.06, 0, 0.08, 350.37, 350.38, 0, 0, 3
 708120805, 0, 0.06, 0, 0.08, 350.37, 350.38, 0, 0, 3
 708220765, 0, 0.06, 0, 0.08, 350.37, 350.38, 0, 0, 3
 708321558, 0, 0.06, 0, 0.08, 350.37, 350.38, 0, 0, 3
 708421518, 0, 0.06, 0, 0.08, 350.38, 350.39, 0, 0, 3
 708521478, 0, 0.06, 0, 0.08, 350.38, 350.39, 0, 0, 3
 708621438, 0, 0.06, 0, 0.08, 350.38, 350.39, 0, 0, 3
 708721398, 0, 0.06, 0, 0.08, 350.38, 350.39, 0, 0, 3
 708821358, 0, 0.06, 0, 0.08, 350.38, 350.39, 0, 0, 3
 708921318, 0, 0.06, 0, 0.08, 350.38, 350.39, 0, 0, 3
 709021278, 0, 0.06, 0, 0.08, 350.38, 350.39, 0, 0, 3
 709121238, 0, 0.06, 0, 0.08, 350.38, 350.39, 0, 0, 3
 709221198, 0, 0.06, 0, 0.08, 350.38, 350.39, 0, 0, 3
 709321158, 0, 0.06, 0, 0.08, 350.38, 350.39, 0, 0, 3
 709421118, 0, 0.06, 0, 0.08, 350.39, 350.4, 0, 0, 3
 709521078, -0.04, 0.06, -0.04, 0.08, 350.39, 350.4, 0, 0, 3
 709621038, -0.12, 0.06, -0.12, 0.08, 350.39, 350.4, 0, 0, 3
 709720998, -0.15, 0.06, -0.15, 0.08, 350.39, 350.4, 0, 0, 3
 709820958, -0.16, 0.06, -0.17, 0.08, 350.39, 350.4, 0, 0, 3
 709920918, -0.16, 0.06, -0.17, 0.08, 350.39, 350.4, 0, 0, 3
 710020878, -0.16, 0.07, -0.17, 0.08, 350.39, 350.4, 0, 0, 3
 710120838, -0.16, 0.06, -0.16, 0.08, 350.39, 350.4, 0, 0, 3
 710220798, -0.15, 0.07, -0.16, 0.08, 350.39, 350.4, 0, 0, 3
 710321591, -0.15, 0.07, -0.15, 0.08, 350.39, 350.4, 0, 0, 3
 710421551, -0.15, 0.07, -0.15, 0.08, 350.39, 350.41, 0, 0, 3
 710521511, -0.15, 0.07, -0.15, 0.08, 350.39, 350.41, 0, 0, 3
 710621471, -0.15, 0.07, -0.16, 0.08, 350.39, 350.41, 0, 0, 3
 710721431, -0.15, -0.02, -0.16, -0.01, 350.39, 350.41, 0, 0, 3
 710821391, -0.13, -0.15, -0.13, -0.15, 350.39, 350.41, 0, 0, 3
 710921351, -0.07, -0.18, -0.07, -0.19, 350.39, 350.41, 0, 0, 3
 711021311, 0, -0.16, 0, -0.17, 350.39, 350.4, 0, 0, 3
 711121271, 0.06, -0.11, 0.08, -0.11, 350.39, 350.4, 0, 0, 3
 711221231, 0.12, -0.05, 0.15, -0.04, 350.39, 350.4, 0, 0, 3
 711321191, 0.17, 0, 0.2, 0.01, 350.39, 350.39, 0, 0, 3
 711421151, 0.2, 0.04, 0.23, 0.05, 350.39, 350.39, 0, 0, 3
 711521111, 0.22, 0.07, 0.25, 0.08, 350.39, 350.39, 0, 0, 3
 711621071, 0.23, 0.1, 0.26, 0.11, 350.39, 350.38, 0, 0, 3
 711721031, 0.25, 0.11, 0.27, 0.12, 350.39, 350.38, 0, 0, 3
 711820991, 0.26, 0.14, 0.27, 0.14, 350.39, 350.38, 0, 0, 3
 711920951, 0.26, 0.16, 0.28, 0.16, 350.39, 350.38, 0, 0, 3
 712020911, 0.26, 0.16, 0.27, 0.17, 350.39, 350.38, 0, 0, 3
 712120871, 0.26, 0.16, 0.27, 0.17, 349.34, 349.33, 0, 0, 3
 712220831, 0.25, 0.17, 0.26, 0.17, 349.34, 349.34, 0, 0, 3
 712320791, 0.25, 0.17, 0.26, 0.17, 349.34, 349.35, 0, 0, 3
 712421584, 0.24, 0.17, 0.25, 0.18, 349.34, 349.36, 0, 0, 3
 712521544, 0.24, 0.17, 0.25, 0.18, 349.34, 349.36, 0, 0, 3
 712621504, 0.23, 0.17, 0.23, 0.18, 349.34, 349.36, 0, 0, 3
 712721464, 0.22, 0.17, 0.23, 0.17, 349.34, 349.36, 0, 0, 3
 712821424, 0.2, 0.16, 0.21, 0.16, 349.34, 349.36, 0, 0, 3
 712921384, 0.19, 0.15, 0.2, 0.16, 349.34, 349.36, 0, 0, 3
 713021344, 0.17, 0.14, 0.18, 0.15, 349.34, 349.36, 0, 0, 3
 713121304, 0.16, 0.13, 0.17, 0.14, 349.34, 349.35, 0, 0, 3
 713221264, 0.15, 0.12, 0.16, 0.12, 349.34, 349.35, 0, 0, 3
 713321224, 0.14, 0.12, 0.15, 0.11, 349.34, 349.35, 0, 0, 3
 713421184, 0.13, 0.1, 0.14, 0.11, 349.34, 349.34, 0, 0, 3
 713521144, 0.12, 0.09, 0.13, 0.1, 349.34, 349.34, 0, 0, 3
 713621104, 0.11, 0.09, 0.12, 0.1, 349.34, 349.34, 0, 0, 3
 713721064, 0.11, 0.09, 0.12, 0.09, 349.34, 349.33, 0, 0, 3
 713821024, 0.09, 0.09, 0.11, 0.09, 349.34, 349.33, 0, 0, 3
 713920984, 0.09, 0.08, 0.11, 0.09, 349.34, 349.33, 0, 0, 3
 714020944, 0.08, 0.06, 0.11, 0.09, 349.34, 349.33, 0, 0, 3
 714120904, 0.08, 0.06, 0.1, 0.07, 349.34, 349.33, 0, 0, 3
 714220864, 0.08, 0.06, 0.1, 0.07, 349.34, 349.33, 0, 0, 3
 714320824, 0.08, 0.06, 0.11, 0.09, 349.34, 349.33, 0, 0, 3
 714420784, 0.08, 0.07, 0.11, 0.11, 349.34, 349.33, 0, 0, 3
 714521577, 0.08, 0.06, 0.1, 0.1, 349.34, 349.33, 0, 0, 3
 714621537, 0.08, 0.05, 0.1, 0.1, 349.34, 349.34, 0, 0, 3
 714721497, 0.09, 0.07, 0.1, 0.1, 349.34, 349.34, 0, 0, 3
 714821457, 0.09, 0.08, 0.09, 0.1, 349.34, 349.34, 0, 0, 3
 714921417, 0.09, 0.07, 0.09, 0.09, 349.34, 349.35, 0, 0, 3
 715021377, 0.09, 0.07, 0.09, 0.08, 349.34, 349.35, 0, 0, 3
 715121337, 0.09, 0.06, 0.09, 0.08, 349.34, 349.35, 0, 0, 3
 715221297, 0.09, 0.06, 0.09, 0.08, 349.34, 349.35, 0, 0, 3
 715321257, 0.09, 0.06, 0.09, 0.07, 349.34, 349.35, 0, 0, 3
 715421217, 0.09, 0.07, 0.09, 0.08, 349.34, 349.35, 0, 0, 3
 715521177, 0.09, 0.08, 0.11, 0.09, 349.34, 349.35, 0, 0, 3
 715621137, 0.09, 0.08, 0.11, 0.1, 349.34, 349.35, 0, 0, 3
 715721097, 0.09, 0.08, 0.11, 0.09, 349.34, 349.35, 0, 0, 3
 715821057, 0.08, 0.08, 0.1, 0.09, 349.34, 349.35, 0, 0, 3
 715921017, 0.08, 0.07, 0.1, 0.09, 349.34, 349.35, 0, 0, 3
 716020977, 0.08, 0.07, 0.1, 0.09, 349.34, 349.34, 0, 0, 3
 716120937, 0.08, 0.08, 0.11, 0.09, 349.34, 349.34, 0, 0, 3
 716220897, 0.08, 0.07, 0.11, 0.09, 349.34, 349.34, 0, 0, 3
 716320857, 0.08, 0.07, 0.11, 0.09, 349.34, 349.34, 0, 0, 3
 716420817, 0.08, 0.06, 0.11, 0.09, 349.34, 349.34, 0, 0, 3
 716520777, 0.09, 0.08, 0.12, 0.1, 349.34, 349.34, 0, 0, 3
 716621570, 0.08, 0.08, 0.11, 0.11, 349.34, 349.34, 0, 0, 3
 716721530, 0.09, 0.08, 0.11, 0.11, 349.34, 349.34, 0, 0, 3
 716821490, 0.09, 0.07, 0.11, 0.11, 349.34, 349.34, 0, 0, 3
 716921450, 0.09, 0.08, 0.11, 0.11, 349.34, 349.34, 0, 0, 3
 717021410, 0.09, 0.08, 0.1, 0.1, 349.34, 349.34, 0, 0, 3
 717121370, 0.1, 0.08, 0.11, 0.1, 349.34, 349.35, 0, 0, 3
 717221330, 0.09, 0.09, 0.1, 0.1, 349.34, 349.35, 0, 0, 3
 717321290, 0.1, 0.09, 0.11, 0.1, 349.34, 349.35, 0, 0, 3
 717421250, 0.1, 0.09, 0.11, 0.1, 349.34, 349.35, 0, 0, 3
 717521210, 0.1, 0.09, 0.11, 0.1, 349.34, 349.35, 0, 0, 3
 717621170, 0.1, 0.09, 0.11, 0.09, 349.34, 349.35, 0, 0, 3
 717721130, 0.1, 0.09, 0.11, 0.1, 349.34, 349.35, 0, 0, 3
 717821090, 0.09, 0.08, 0.11, 0.1, 349.34, 349.35, 0, 0, 3
 717921050, 0.09, 0.08, 0.11, 0.1, 349.34, 349.35, 0, 0, 3
 718021010, 0.08, 0.07, 0.11, 0.1, 349.34, 349.35, 0, 0, 3
 718120970, 0.07, 0.07, 0.11, 0.1, 349.34, 349.35, 0, 0, 3
 718220930, 0.07, 0.06, 0.11, 0.1, 349.34, 349.35, 0, 0, 3
 718320890, 0.07, 0.06, 0.11, 0.1, 349.34, 349.34, 0, 0, 3
 718420850, 0.06, 0.06, 0.1, 0.1, 349.34, 349.34, 0, 0, 3
 718520810, 0.06, 0.06, 0.1, 0.09, 349.34, 349.34, 0, 0, 3
 718620770, 0.06, 0.07, 0.1, 0.09, 349.34, 349.34, 0, 0, 3
 718721563, 0.06, 0.06, 0.1, 0.1, 349.34, 349.34, 0, 0, 3
 718821523, 0.05, 0.06, 0.1, 0.1, 349.34, 349.34, 0, 0, 3
 718921483, 0.05, 0.05, 0.1, 0.09, 349.34, 349.34, 0, 0, 3
 719021443, 0.05, 0.05, 0.1, 0.08, 349.34, 349.34, 0, 0, 3
 719121403, 0.06, 0.05, 0.11, 0.07, 349.34, 349.34, 0, 0, 3
 719221363, 0.06, 0.05, 0.11, 0.08, 349.34, 349.34, 0, 0, 3
 719321323, 0.07, 0.06, 0.11, 0.1, 349.34, 349.34, 0, 0, 3
 719421283, 0.07, 0.06, 0.11, 0.1, 349.34, 349.34, 0, 0, 3
 719521243, 0.07, 0.06, 0.11, 0.1, 349.34, 349.34, 0, 0, 3
 719621203, 0.07, 0.06, 0.1, 0.1, 349.34, 349.34, 0, 0, 3
 719721163, 0.08, 0.07, 0.1, 0.1, 349.34, 349.34, 0, 0, 3
 719821123, 0.07, 0.06, 0.1, 0.1, 349.34, 349.35, 0, 0, 3
 719921083, 0.08, 0.07, 0.1, 0.1, 349.34, 349.35, 0, 0, 3
 720021043, 0.08, 0.07, 0.09, 0.09, 349.34, 349.35, 0, 0, 3
 720121003, 0.08, 0.07, 0.1, 0.09, 349.34, 349.35, 0, 0, 3
 720220963, 0.08, 0.07, 0.09, 0.09, 349.34, 349.35, 0, 0, 3
 720320923, 0.09, 0.07, 0.09, 0.09, 349.34, 349.35, 0, 0, 3
 720420883, 0.09, 0.07, 0.09, 0.09, 349.34, 349.35, 0, 0, 3
 720520843, 0.09, 0.08, 0.09, 0.09, 349.34, 349.35, 0, 0, 3
 720620803, 0.09, 0.08, 0.09, 0.09, 349.34, 349.35, 0, 0, 3
 720720763, 0.09, 0.08, 0.09, 0.09, 349.34, 349.35, 0, 0, 3
 720821556, 0.09, 0.07, 0.09, 0.09, 349.34, 349.35, 0, 0, 3
 720921516, 0.09, 0.07, 0.09, 0.09, 349.34, 349.35, 0, 0, 3
 721021476, 0.09, 0.08, 0.09, 0.09, 349.34, 349.34, 0, 0, 3
 721121436, 0.09, 0.08, 0.09, 0.09, 349.34, 349.34, 0, 0, 3
 721221396, 0.09, 0.08, 0.09, 0.09, 349.34, 349.34, 0, 0, 3
 721321356, 0.09, 0.08, 0.09, 0.09, 349.34, 349.34, 0, 0, 3
 721421316, 0.09, 0.07, 0.09, 0.09, 349.34, 349.34, 0, 0, 3
 721521276, 0.09, 0.08, 0.09, 0.08, 349.34, 349.34, 0, 0, 3
 721621236, 0.09, 0.08, 0.09, 0.08, 349.34, 349.34, 0, 0, 3
 721721196, 0.09, 0.08, 0.09, 0.08, 349.34, 349.34, 0, 0, 3
 721821156, 0.09, 0.08, 0.08, 0.07, 349.34, 349.34, 0, 0, 3
 721921116, 0.09, 0.08, 0.08, 0.07, 349.34, 349.34, 0, 0, 3
 722021076, 0.09, 0.08, 0.08, 0.06, 349.34, 349.34, 0, 0, 3
 722121036, 0.09, 0.08, 0.08, 0.06, 349.34, 349.35, 0, 0, 3
 722220996, 0.09, 0.08, 0.08, 0.07, 349.34, 349.35, 0, 0, 3
 722320956, 0.1, 0.08, 0.08, 0.06, 349.34, 349.36, 0, 0, 3
 722420916, 0.1, 0.08, 0.08, 0.06, 349.34, 349.36, 0, 0, 3
 722520876, 0.1, 0.08, 0.08, 0.07, 349.34, 349.36, 0, 0, 3
 722620836, 0.1, 0.08, 0.08, 0.07, 349.34, 349.36, 0, 0, 3
 722720796, 0.1, 0.08, 0.08, 0.07, 349.34, 349.36, 0, 0, 3
 722821589, 0.1, 0.08, 0.08, 0.07, 349.34, 349.35, 0, 0, 3
 722921549, 0.1, 0.09, 0.09, 0.08, 349.34, 349.35, 0, 0, 3
 723021509, 0.09, 0.09, 0.09, 0.08, 349.34, 349.35, 0, 0, 3
 723121469, 0.09, 0.08, 0.09, 0.09, 349.34, 349.34, 0, 0, 3
 723221429, 0.09, 0.08, 0.08, 0.1, 349.34, 349.34, 0, 0, 3
 723321389, 0.09, 0.08, 0.08, 0.11, 349.34, 349.34, 0, 0, 3
 723421349, 0.08, 0.08, 0.07, 0.11, 349.34, 349.34, 0, 0, 3
 723521309, 0.08, 0.08, 0.07, 0.09, 349.34, 349.33, 0, 0, 3
 723621269, 0.08, 0.08, 0.07, 0.07, 349.34, 349.33, 0, 0, 3
 723721229, 0.08, 0.08, 0.07, 0.06, 349.34, 349.33, 0, 0, 3
 723821189, 0.08, 0.07, 0.07, 0.06, 349.34, 349.33, 0, 0, 3
 723921149, 0.08, 0.07, 0.09, 0.07, 349.34, 349.34, 0, 0, 3
 724021109, 0.08, 0.07, 0.09, 0.07, 349.34, 349.34, 0, 0, 3
 724121069, 0.08, 0.07, 0.09, 0.08, 349.34, 349.35, 0, 0, 3
 724221029, 0.08, 0.07, 0.09, 0.08, 349.34, 349.35, 0, 0, 3
 724320989, 0.09, 0.07, 0.1, 0.09, 349.34, 349.35, 0, 0, 3
 724420949, 0.09, 0.08, 0.1, 0.09, 349.34, 349.34, 0, 0, 3
 724520909, 0.09, 0.08, 0.1, 0.08, 349.34, 349.34, 0, 0, 3
 724620869, 0.08, 0.09, 0.1, 0.08, 349.34, 349.33, 0, 0, 3
 724720829, 0.09, 0.07, 0.11, 0.07, 349.34, 349.33, 0, 0, 3
 724820789, 0.09, 0.05, 0.11, 0.06, 349.34, 349.33, 0, 0, 3
 724921582, 0.11, 0.06, 0.13, 0.08, 349.34, 349.32, 0, 0, 3
 725021542, 0.12, 0.07, 0.13, 0.1, 349.34, 349.32, 0, 0, 3
 725121502, 0.13, 0.1, 0.14, 0.12, 349.34, 349.32, 0, 0, 3
 725221462, 0.13, 0.13, 0.13, 0.12, 349.34, 349.32, 0, 0, 3
 725321422, 0.13, 0.14, 0.12, 0.13, 349.34, 349.32, 0, 0, 3
 725421382, 0.12, 0.14, 0.11, 0.12, 349.34, 349.32, 0, 0, 3
 725521342, 0.11, 0.13, 0.11, 0.11, 349.34, 349.33, 0, 0, 3
 725621302, 0.1, 0.11, 0.1, 0.11, 349.34, 349.33, 0, 0, 3
 725721262, 0.1, 0.11, 0.1, 0.11, 349.34, 349.34, 0, 0, 3
 725821222, 0.09, 0.1, 0.09, 0.11, 349.34, 349.35, 0, 0, 3
 725921182, 0.09, 0.09, 0.09, 0.1, 349.34, 349.35, 0, 0, 3
 726021142, 0.09, 0.08, 0.08, 0.09, 349.34, 349.36, 0, 0, 3
 726121102, 0.1, 0.08, 0.08, 0.09, 349.34, 349.37, 0, 0, 3
 726221062, 0.09, 0.09, 0.08, 0.08, 349.34, 349.37, 0, 0, 3
 726321022, 0.09, 0.1, 0.08, 0.08, 349.34, 349.38, 0, 0, 3
 726420982, 0.09, 0.1, 0.08, 0.08, 349.34, 349.37, 0, 0, 3
 726520942, 0.09, 0.09, 0.08, 0.08, 349.34, 349.37, 0, 0, 3
 726620902, 0.08, 0.07, 0.08, 0.08, 349.34, 349.36, 0, 0, 3
 726720862, 0.09, 0.07, 0.08, 0.09, 349.34, 349.36, 0, 0, 3
 726820822, 0.09, 0.08, 0.08, 0.09, 349.34, 349.35, 0, 0, 3
 726920782, 0.09, 0.08, 0.09, 0.09, 349.34, 349.35, 0, 0, 3
 727021575, 0.09, 0.08, 0.09, 0.09, 349.34, 349.34, 0, 0, 3
 727121535, 0.09, 0.08, 0.1, 0.1, 349.34, 349.33, 0, 0, 3
 727221495, 0.09, 0.09, 0.1, 0.11, 349.34, 349.33, 0, 0, 3
 727321455, 0.09, 0.08, 0.1, 0.12, 349.34, 349.33, 0, 0, 3
 727421415, 0.09, 0.08, 0.1, 0.12, 349.34, 349.32, 0, 0, 3
 727521375, 0.09, 0.08, 0.11, 0.1, 349.34, 349.32, 0, 0, 3
 727621335, 0.08, 0.08, 0.11, 0.1, 349.34, 349.32, 0, 0, 3
 727721295, 0.09, 0.08, 0.12, 0.1, 349.34, 349.32, 0, 0, 3
 727821255, 0.08, 0.08, 0.12, 0.1, 349.34, 349.32, 0, 0, 3
 727921215, 0.08, 0.08, 0.12, 0.11, 349.34, 349.33, 0, 0, 3
 728021175, 0.08, 0.07, 0.12, 0.1, 349.34, 349.34, 0, 0, 3
 728121135, 0.08, 0.08, 0.12, 0.11, 349.34, 349.35, 0, 0, 3
 728221095, 0.08, 0.08, 0.12, 0.11, 349.34, 349.35, 0, 0, 3
 728321055, 0.08, 0.08, 0.12, 0.11, 349.34, 349.35, 0, 0, 3
 728421015, 0.08, 0.07, 0.12, 0.1, 349.34, 349.36, 0, 0, 3
 728520975, 0.08, 0.08, 0.12, 0.11, 349.34, 349.35, 0, 0, 3
 728620935, 0.08, 0.07, 0.12, 0.1, 349.34, 349.35, 0, 0, 3
 728720895, 0.08, 0.08, 0.12, 0.11, 349.34, 349.35, 0, 0, 3
 728820855, 0.08, 0.08, 0.12, 0.1, 349.34, 349.35, 0, 0, 3
 728920815, 0.08, 0.08, 0.12, 0.11, 349.34, 349.35, 0, 0, 3
 729020775, 0.07, 0.07, 0.11, 0.11, 349.34, 349.34, 0, 0, 3
 729121568, 0.07, 0.07, 0.11, 0.1, 349.34, 349.34, 0, 0, 3
 729221528, 0.07, 0.07, 0.11, 0.1, 349.34, 349.34, 0, 0, 3
 729321488, 0.08, 0.07, 0.11, 0.1, 349.34, 349.34, 0, 0, 3
 729421448, 0.08, 0.07, 0.11, 0.1, 349.34, 349.35, 0, 0, 3
 729521408, 0.08, 0.08, 0.11, 0.1, 349.34, 349.35, 0, 0, 3
 729621368, 0.08, 0.08, 0.1, 0.09, 349.34, 349.35, 0, 0, 3
 729721328, 0.08, 0.08, 0.11, 0.09, 349.34, 349.34, 0, 0, 3
 729821288, 0.08, 0.08, 0.1, 0.09, 349.34, 349.34, 0, 0, 3
 729921248, 0.08, 0.08, 0.11, 0.09, 349.34, 349.34, 0, 0, 3
 730021208, 0.08, 0.08, 0.11, 0.1, 349.34, 349.34, 0, 0, 3
 730121168, 0.08, 0.08, 0.11, 0.1, 349.34, 349.34, 0, 0, 3
 730221128, 0.08, 0.07, 0.1, 0.09, 349.34, 349.34, 0, 0, 3
 730321088, 0.09, 0.07, 0.11, 0.09, 349.34, 349.34, 0, 0, 3
 730421048, 0.09, 0.08, 0.11, 0.09, 349.34, 349.34, 0, 0, 3
 730521008, 0.09, 0.08, 0.11, 0.09, 349.34, 349.34, 0, 0, 3
 730620968, 0.09, 0.08, 0.11, 0.1, 349.34, 349.34, 0, 0, 3
 730720928, 0.1, 0.08, 0.11, 0.1, 349.34, 349.34, 0, 0, 3
 730820888, 0.09, 0.09, 0.11, 0.1, 349.34, 349.34, 0, 0, 3
 730920848, 0.09, 0.08, 0.11, 0.1, 349.34, 349.34, 0, 0, 3
 731020808, 0.09, 0.08, 0.11, 0.09, 349.34, 349.34, 0, 0, 3
 731120768, 0.09, 0.08, 0.11, 0.1, 349.34, 349.34, 0, 0, 3
 731221561, 0.09, 0.08, 0.11, 0.1, 349.34, 349.35, 0, 0, 3
 731321521, 0.09, 0.09, 0.11, 0.1, 349.34, 349.35, 0, 0, 3
 731421481, 0.09, 0.09, 0.1, 0.1, 349.34, 349.35, 0, 0, 3
 731521441, 0.09, 0.09, 0.1, 0.1, 349.34, 349.35, 0, 0, 3
 731621401, 0.09, 0.08, 0.1, 0.09, 349.34, 349.35, 0, 0, 3
 731721361, 0.09, 0.08, 0.1, 0.09, 349.34, 349.34, 0, 0, 3
 731821321, 0.08, 0.07, 0.1, 0.1, 349.34, 349.34, 0, 0, 3
 731921281, 0.09, 0.07, 0.1, 0.1, 349.34, 349.34, 0, 0, 3
 732021241, 0.08, 0.08, 0.09, 0.1, 349.34, 349.33, 0, 0, 3
 732121201, 0.08, 0.08, 0.09, 0.09, 349.34, 349.33, 0, 0, 3
 732221161, 0.08, 0.07, 0.09, 0.08, 349.34, 349.33, 0, 0, 3
 732321121, 0.09, 0.07, 0.1, 0.08, 349.34, 349.33, 0, 0, 3
 732421081, 0.09, 0.07, 0.1, 0.09, 349.34, 349.33, 0, 0, 3
 732521041, 0.09, 0.07, 0.1, 0.09, 349.34, 349.33, 0, 0, 3
 732621001, 0.08, 0.07, 0.1, 0.09, 349.34, 349.33, 0, 0, 3
 732720961, 0.08, 0.06, 0.1, 0.08, 349.34, 349.34, 0, 0, 3
 732820921, 0.08, 0.06, 0.1, 0.08, 349.34, 349.34, 0, 0, 3
 732920881, 0.08, 0.06, 0.1, 0.09, 349.34, 349.34, 0, 0, 3
 733020841, 0.08, 0.05, 0.09, 0.1, 349.34, 349.34, 0, 0, 3
 733120801, 0.08, 0.06, 0.09, 0.1, 349.34, 349.34, 0, 0, 3
 733220761, 0.07, 0.07, 0.07, 0.08, 349.34, 349.35, 0, 0, 3
 733321554, 0.07, 0.07, 0.07, 0.06, 349.34, 349.35, 0, 0, 3
 733421514, 0.07, 0.08, 0.06, 0.07, 349.34, 349.35, 0, 0, 3
 733521474, 0.07, 0.07, 0.06, 0.06, 349.34, 349.35, 0, 0, 3
 733621434, 0.06, 0.07, 0.06, 0.06, 349.34, 349.35, 0, 0, 3
 733721394, 0.06, 0.06, 0.06, 0.06, 349.34, 349.35, 0, 0, 3
 733821354, 0.06, 0.06, 0.06, 0.06, 349.34, 349.35, 0, 0, 3
 733921314, 0.07, 0.06, 0.06, 0.06, 349.34, 349.35, 0, 0, 3
 734021274, 0.06, 0.05, 0.04, 0.04, 349.34, 349.35, 0, 0, 3
 734121234, 0.09, 0.08, -0.01, 0, 349.34, 349.35, 0, 0, 3
 734221194, 0.18, 0.16, -0.26, -0.22, 349.34, 349.34, 0, 0, 3
 734321154, 0.34, 0.32, -0.7, -0.65, 349.34, 349.34, 0, 0, 3
 734421114, 0.52, 0.51, -1.24, -1.2, 349.34, 349.33, 0, 0, 3
 734521074, 0.71, 0.71, -1.78, -1.76, 349.33, 349.32, 0, 0, 3
 734621034, 0.89, 0.89, -2.29, -2.3, 349.32, 349.31, 0, 0, 3
 734720994, 1.07, 1.07, -2.77, -2.78, 349.31, 349.29, 0, 0, 3
 734820954, 1.22, 1.23, -3.23, -3.25, 349.31, 349.28, 0, 0, 3
 734920914, 1.39, 1.4, -3.67, -3.69, 349.3, 349.24, 0, 0, 3
 735020874, 1.54, 1.54, -4.11, -4.13, 349.29, 349.21, 0, 0, 3
 735120834, 1.71, 1.71, -4.54, -4.55, 349.27, 349.16, 0, 0, 3
 735220794, 1.86, 1.88, -4.98, -4.98, 349.26, 349.12, 0, 0, 3
 735321587, 1.89, 2.05, -5.47, -5.43, 350.78, 349.07, 0, 0, 3
 735421547, 1.6, 2.19, -6.05, -5.87, 355, 349.27, 0, 0, 3
 735521507, 1.07, 2.27, -6.66, -6.37, 0.81, 350.11, 0, 0, 3
 735621467, 0.67, 2.21, -7.22, -6.92, 4.57, 352, 0, 0, 3
 735721427, 0.47, 2, -7.75, -7.51, 6.49, 354.8, 0, 0, 3
 735821387, 0.35, 1.65, -8.3, -8.15, 7.48, 358.27, 0, 0.01, 3
 735921347, 0.3, 1.19, -8.86, -8.79, 7.98, 2.03, 0, 0.01, 3
 736021307, 0.27, 0.62, -9.43, -9.42, 8.23, 5.92, 0, 0.02, 3
 736121267, 0.26, 0.01, -10.02, -10.02, 8.36, 9.62, 0, 0.02, 3
 736221227, 0.25, -0.6, -10.62, -10.6, 8.43, 12.96, 0, 0.02, 3
 736321187, 0.25, -1.17, -11.23, -11.17, 8.46, 15.69, 0, 0.02, 3
 736421147, 0.24, -1.66, -11.81, -11.7, 8.48, 17.72, 0, 0.02, 3
 736521107, 0.25, -1.98, -12.28, -12.14, 8.48, 18.94, 0, 0.02, 3
 736621067, 0.24, -2.14, -12.57, -12.43, 8.49, 19.41, 0, 0.02, 3
 736721027, 0.24, -2.12, -12.77, -12.63, 8.49, 19.13, 0, 0.01, 3
 736820987, 0.23, -1.95, -12.89, -12.78, 8.49, 18.24, 0, 0.01, 3
 736920947, 0.23, -1.62, -12.85, -12.79, 8.49, 16.78, 0, 0.01, 3
 737020907, 0.21, -1.21, -12.71, -12.69, 8.5, 14.95, 0, 0.01, 3
 737120867, 0.2, -0.75, -12.56, -12.56, 8.5, 12.85, 0, 0.01, 3
 737220827, 0.17, -0.29, -12.43, -12.43, 8.5, 10.66, 0, 0.01, 3
 737320787, 0.15, 0.13, -12.32, -12.31, 8.5, 8.52, 0, 0.01, 3
 737421580, 0.11, 0.51, -12.21, -12.2, 8.51, 6.57, 0, 0.01, 3
 737521540, 0.06, 0.8, -12.11, -12.08, 8.51, 4.95, 0, 0.01, 3
 737621500, 0.01, 0.99, -12.05, -12, 8.52, 3.73, 0, 0.01, 3
 737721460, -0.03, 1.1, -11.96, -11.91, 8.52, 2.95, 0, 0.01, 3
 737821420, -0.09, 1.1, -11.87, -11.81, 8.53, 2.63, 0, 0.01, 3
 737921380, -0.13, 1.03, -11.79, -11.74, 8.53, 2.74, 0, 0.01, 3
 738021340, -0.17, 0.88, -11.71, -11.68, 8.54, 3.23, 0, 0, 3
 738121300, -0.2, 0.69, -11.61, -11.59, 8.54, 4.04, 0, 0, 3
 738221260, -0.22, 0.45, -11.5, -11.5, 8.54, 5.08, 0, 0, 3
 738321220, -0.22, 0.21, -11.36, -11.37, 8.54, 6.25, 0, 0.01, 3
 738421180, -0.21, -0.02, -11.22, -11.23, 8.54, 7.48, 0, 0.01, 3
 738521140, -0.19, -0.23, -11.04, -11.05, 8.54, 8.66, 0, 0.01, 3
 738621100, -0.16, -0.4, -10.89, -10.88, 8.54, 9.71, 0, 0.01, 3
 738721060, -0.12, -0.52, -10.65, -10.66, 8.53, 10.6, 0, 0.01, 3
 738821020, -0.08, -0.59, -10.4, -10.4, 8.53, 11.26, 0, 0.01, 3
 738920980, -0.04, -0.6, -10.11, -10.11, 8.52, 11.68, 0, 0.01, 3
 739020940, 0, -0.57, -9.83, -9.82, 8.52, 11.85, 0, 0, 3
 739120900, 0.02, -0.52, -9.73, -9.69, 8.52, 11.79, 0, 0, 3
 739220860, 0.03, -0.45, -9.82, -9.76, 8.52, 11.52, 0, 0, 3
 739320820, 0.05, -0.38, -9.97, -9.93, 8.52, 11.08, 0, 0, 3
 739420780, 0.05, -0.28, -10.11, -10.09, 8.51, 10.5, 0, 0, 3
 739521573, 0.06, -0.16, -10.19, -10.19, 8.51, 9.84, 0, 0, 3
 739621533, 0.06, -0.05, -10.25, -10.25, 8.51, 9.16, 0, 0, 3
 739721493, 0.06, 0.05, -10.32, -10.31, 8.51, 8.5, 0, 0, 3
 739821453, 0.04, 0.15, -10.35, -10.36, 8.52, 7.9, 0, 0, 3
 739921413, 0.04, 0.23, -10.35, -10.37, 8.52, 7.39, 0, 0, 3
 740021373, 0.02, 0.29, -10.38, -10.39, 8.52, 7.01, 0, 0, 3
 740121333, 0, 0.32, -10.38, -10.4, 8.52, 6.76, 0, 0, 3
 740221293, -0.01, 0.32, -10.38, -10.39, 8.52, 6.65, 0, 0, 3
 740321253, -0.02, 0.31, -10.36, -10.38, 8.52, 6.69, 0, 0, 3
 740421213, -0.03, 0.26, -10.34, -10.35, 8.52, 6.84, 0, 0, 3
 740521173, -0.02, 0.21, -10.3, -10.31, 8.52, 7.1, 0, 0, 3
 740621133, -0.01, 0.16, -10.27, -10.28, 8.52, 7.42, 0, 0, 3
 740721093, 0, 0.1, -10.26, -10.26, 8.52, 7.8, 0, 0, 3
 740821053, 0, 0.06, -10.22, -10.23, 8.52, 8.19, 0, 0, 3
 740921013, 0.02, 0.01, -10.17, -10.19, 8.52, 8.57, 0, 0, 3
 741020973, 0.04, -0.03, -10.12, -10.14, 8.52, 8.91, 0, 0, 3
 741120933, 0.06, -0.06, -10.05, -10.05, 8.51, 9.2, 0, 0, 3
 741220893, 0.08, -0.06, -10.02, -10.01, 8.51, 9.41, 0, 0, 3
 741320853, 0.1, -0.07, -9.98, -9.98, 8.51, 9.56, 0, 0, 3
 741420813, 0.11, -0.07, -9.95, -9.95, 8.51, 9.62, 0, 0, 3
 741520773, 0.13, -0.05, -9.9, -9.91, 8.51, 9.61, 0, 0, 3
 741621566, 0.13, -0.02, -9.85, -9.86, 8.51, 9.52, 0, 0, 3
 741721526, 0.14, 0, -9.81, -9.81, 8.51, 9.38, 0, 0, 3
 741821486, 0.14, 0.03, -9.81, -9.8, 8.51, 9.19, 0, 0, 3
 741921446, 0.14, 0.07, -9.76, -9.77, 8.51, 8.98, 0, 0, 3
 742021406, 0.13, 0.1, -9.75, -9.74, 8.51, 8.75, 0, 0, 3
 742121366, 0.13, 0.12, -9.74, -9.74, 8.51, 8.54, 0, 0, 3
 742221326, 0.12, 0.14, -9.74, -9.74, 8.51, 8.34, 0, 0, 3
 742321286, 0.12, 0.15, -9.73, -9.75, 8.51, 8.17, 0, 0, 3
 742421246, 0.11, 0.18, -9.73, -9.75, 8.51, 8.04, 0, 0, 3
 742521206, 0.11, 0.19, -9.71, -9.72, 8.51, 7.96, 0, 0, 3
 742621166, 0.1, 0.2, -9.7, -9.71, 8.51, 7.92, 0, 0, 3
 742721126, 0.1, 0.19, -9.7, -9.71, 8.51, 7.92, 0, 0, 3
 742821086, 0.08, 0.17, -9.73, -9.74, 8.51, 7.96, 0, 0, 3
 742921046, 0.08, 0.16, -9.71, -9.73, 8.51, 8.05, 0, 0, 3
 743021006, 0.07, 0.13, -9.71, -9.71, 8.51, 8.15, 0, 0, 3
 743120966, 0.07, 0.1, -9.71, -9.7, 8.51, 8.27, 0, 0, 3
 743220926, 0.07, 0.08, -9.69, -9.68, 8.51, 8.39, 0, 0, 3
 743320886, 0.08, 0.06, -9.7, -9.69, 8.51, 8.52, 0, 0, 3
 743420846, 0.08, 0.05, -9.72, -9.7, 8.51, 8.63, 0, 0, 3
 743520806, 0.08, 0.04, -9.73, -9.72, 8.51, 8.73, 0, 0, 3
 743620766, 0.07, 0.02, -9.74, -9.73, 8.51, 8.81, 0, 0, 3
 743721559, 0.08, 0.02, -9.71, -9.71, 8.51, 8.86, 0, 0, 3
 743821519, 0.07, 0.02, -9.72, -9.72, 8.51, 8.89, 0, 0, 3
 743921479, 0.08, 0.02, -9.72, -9.73, 8.51, 8.89, 0, 0, 3
 744021439, 0.08, 0.02, -9.71, -9.73, 8.51, 8.86, 0, 0, 3
 744121399, 0.09, 0.04, -9.71, -9.71, 8.51, 8.81, 0, 0, 3
 744221359, 0.09, 0.05, -9.73, -9.71, 8.51, 8.75, 0, 0, 3
 744321319, 0.09, 0.07, -9.75, -9.74, 8.51, 8.68, 0, 0, 3
 744421279, 0.08, 0.07, -9.77, -9.77, 8.51, 8.6, 0, 0, 3
 744521239, 0.08, 0.08, -9.77, -9.78, 8.51, 8.53, 0, 0, 3
 744621199, 0.08, 0.1, -9.78, -9.79, 8.51, 8.46, 0, 0, 3
 744721159, 0.07, 0.1, -9.78, -9.8, 8.51, 8.41, 0, 0, 3
 744821119, 0.06, 0.1, -9.8, -9.81, 8.51, 8.36, 0, 0, 3
 744921079, 0.06, 0.09, -9.82, -9.83, 8.51, 8.34, 0, 0, 3
 745021039, 0.06, 0.09, -9.81, -9.83, 8.51, 8.32, 0, 0, 3
 745120999, 0.06, 0.09, -9.81, -9.82, 8.51, 8.33, 0, 0, 3
 745220959, 0.06, 0.08, -9.8, -9.82, 8.51, 8.34, 0, 0, 3
 745320919, 0.07, 0.08, -9.77, -9.79, 8.51, 8.37, 0, 0, 3
 745420879, 0.07, 0.08, -9.78, -9.79, 8.51, 8.4, 0, 0, 3
 745520839, 0.07, 0.08, -9.79, -9.81, 8.51, 8.44, 0, 0, 3
 745620799, 0.07, 0.07, -9.8, -9.81, 8.51, 8.47, 0, 0, 3
 745721592, 0.08, 0.07, -9.81, -9.82, 8.51, 8.51, 0, 0, 3
 745821552, 0.08, 0.06, -9.79, -9.8, 8.51, 8.54, 0, 0, 3
 745921512, 0.08, 0.06, -9.81, -9.78, 8.51, 8.57, 0, 0, 3
 746021472, 0.08, 0.06, -9.83, -9.8, 8.51, 8.6, 0, 0, 3
 746121432, 0.08, 0.06, -9.82, -9.8, 8.51, 8.62, 0, 0, 3
 746221392, 0.08, 0.06, -9.83, -9.82, 8.51, 8.63, 0, 0, 3
 746321352, 0.08, 0.06, -9.84, -9.84, 8.51, 8.63, 0, 0, 3
 746421312, 0.09, 0.07, -9.84, -9.85, 8.51, 8.63, 0, 0, 3
 746521272, 0.09, 0.07, -9.84, -9.85, 8.51, 8.63, 0, 0, 3
 746621232, 0.08, 0.08, -9.84, -9.86, 8.51, 8.62, 0, 0, 3
 746721192, 0.08, 0.09, -9.84, -9.86, 8.51, 8.61, 0, 0, 3
 746821152, 0.07, 0.09, -9.85, -9.86, 8.51, 8.6, 0, 0, 3
 746921112, 0.07, 0.08, -9.87, -9.87, 8.51, 8.58, 0, 0, 3
 747021072, 0.07, 0.07, -9.87, -9.88, 8.51, 8.56, 0, 0, 3
 747121032, 0.08, 0.07, -9.86, -9.87, 8.51, 8.54, 0, 0, 3
 747220992, 0.08, 0.08, -9.85, -9.86, 8.51, 8.52, 0, 0, 3
 747320952, 0.1, 0.09, -9.82, -9.84, 8.51, 8.5, 0, 0, 3
 747420912, 0.1, 0.09, -9.8, -9.8, 8.51, 8.49, 0, 0, 3
 747520872, 0.11, 0.09, -9.81, -9.79, 8.51, 8.48, 0, 0, 3
 747620832, 0.11, 0.1, -9.82, -9.79, 8.51, 8.46, 0, 0, 3
 747720792, 0.11, 0.11, -9.82, -9.8, 8.51, 8.45, 0, 0, 3
 747821585, 0.11, 0.11, -9.81, -9.82, 8.51, 8.44, 0, 0, 3
 747921545, 0.12, 0.12, -9.77, -9.78, 8.51, 8.44, 0, 0, 3
 748021505, 0.12, 0.12, -9.78, -9.77, 8.51, 8.44, 0, 0, 3
 748121465, 0.13, 0.12, -9.79, -9.77, 8.51, 8.44, 0, 0, 3
 748221425, 0.13, 0.13, -9.78, -9.77, 8.51, 8.44, 0, 0, 3
 748321385, 0.13, 0.13, -9.79, -9.78, 8.51, 8.44, 0, 0, 3
 748421345, 0.12, 0.13, -9.81, -9.78, 8.51, 8.44, 0, 0, 3
 748521305, 0.12, 0.13, -9.82, -9.8, 8.51, 8.45, 0, 0, 3
 748621265, 0.12, 0.12, -9.83, -9.81, 8.51, 8.46, 0, 0, 3
 748721225, 0.12, 0.12, -9.84, -9.83, 8.51, 8.48, 0, 0, 3
 748821185, 0.12, 0.11, -9.84, -9.84, 8.51, 8.5, 0, 0, 3
 748921145, 0.12, 0.11, -9.83, -9.85, 8.51, 8.52, 0, 0, 3
 749021105, 0.12, 0.11, -9.85, -9.87, 8.51, 8.54, 0, 0, 3
 749121065, 0.12, 0.11, -9.84, -9.86, 8.51, 8.55, 0, 0, 3
 749221025, 0.12, 0.11, -9.82, -9.85, 8.51, 8.56, 0, 0, 3
 749320985, 0.12, 0.11, -9.81, -9.83, 8.51, 8.56, 0, 0, 3
 749420945, 0.12, 0.11, -9.78, -9.8, 8.51, 8.55, 0, 0, 3
 749520905, 0.12, 0.12, -9.77, -9.79, 8.51, 8.53, 0, 0, 3
 749620865, 0.12, 0.12, -9.78, -9.79, 8.51, 8.52, 0, 0, 3
 749720825, 0.13, 0.12, -9.78, -9.79, 8.51, 8.51, 0, 0, 3
 749820785, 0.13, 0.12, -9.78, -9.79, 8.51, 8.49, 0, 0, 3
 749921578, 0.13, 0.13, -9.75, -9.77, 8.51, 8.49, 0, 0, 3
 750021538, 0.12, 0.13, -9.73, -9.74, 8.51, 8.48, 0, 0, 3
 750121498, 0.12, 0.13, -9.73, -9.74, 8.51, 8.49, 0, 0, 3
 750221458, 0.12, 0.12, -9.73, -9.75, 8.51, 8.49, 0, 0, 3
 750321418, 0.13, 0.13, -9.71, -9.73, 8.51, 8.51, 0, 0, 3
 750421378, 0.13, 0.12, -9.73, -9.74, 8.51, 8.52, 0, 0, 3
 750521338, 0.13, 0.12, -9.73, -9.75, 8.51, 8.52, 0, 0, 3
 750621298, 0.13, 0.12, -9.74, -9.76, 8.51, 8.52, 0, 0, 3
 750721258, 0.13, 0.12, -9.74, -9.76, 8.51, 8.52, 0, 0, 3
 750821218, 0.13, 0.12, -9.74, -9.76, 8.51, 8.52, 0, 0, 3
 750921178, 0.13, 0.12, -9.74, -9.76, 8.51, 8.52, 0, 0, 3
 751021138, 0.13, 0.12, -9.75, -9.76, 8.51, 8.52, 0, 0, 3
 751121098, 0.14, 0.13, -9.78, -9.79, 8.51, 8.51, 0, 0, 3
 751221058, 0.14, 0.13, -9.78, -9.8, 8.51, 8.5, 0, 0, 3
 751321018, 0.14, 0.14, -9.78, -9.8, 8.51, 8.5, 0, 0, 3
 751420978, 0.13, 0.14, -9.78, -9.79, 8.51, 8.5, 0, 0, 3
 751520938, 0.14, 0.14, -9.76, -9.76, 8.51, 8.49, 0, 0, 3
 751620898, 0.13, 0.13, -9.77, -9.76, 8.51, 8.49, 0, 0, 3
 751720858, 0.14, 0.13, -9.81, -9.8, 8.51, 8.5, 0, 0, 3
 751820818, 0.14, 0.13, -9.85, -9.84, 8.51, 8.5, 0, 0, 3
 751920778, 0.14, 0.13, -9.87, -9.87, 8.51, 8.5, 0, 0, 3
 752021571, 0.14, 0.13, -9.87, -9.88, 8.51, 8.51, 0, 0, 3
 752121531, 0.14, 0.13, -9.88, -9.88, 8.51, 8.52, 0, 0, 3
 752221491, 0.14, 0.13, -9.9, -9.89, 8.51, 8.53, 0, 0, 3
 752321451, 0.14, 0.13, -9.9, -9.9, 8.51, 8.53, 0, 0, 3
 752421411, 0.14, 0.13, -9.9, -9.88, 8.51, 8.54, 0, 0, 3
 752521371, 0.15, 0.14, -9.92, -9.9, 8.51, 8.53, 0, 0, 3
 752621331, 0.15, 0.15, -9.94, -9.92, 8.51, 8.53, 0, 0, 3
 752721291, 0.16, 0.15, -9.94, -9.94, 8.51, 8.53, 0, 0, 3
 752821251, 0.16, 0.16, -9.94, -9.95, 8.51, 8.53, 0, 0, 3
 752921211, 0.16, 0.17, -9.92, -9.96, 8.51, 8.52, 0, 0, 3
 753021171, 0.15, 0.17, -9.91, -9.94, 8.51, 8.52, 0, 0, 3
 753121131, 0.14, 0.17, -9.9, -9.92, 8.51, 8.52, 0, 0, 3
 753221091, 0.14, 0.14, -9.92, -9.93, 8.51, 8.51, 0, 0, 3
 753321051, 0.14, 0.13, -9.9, -9.91, 8.51, 8.51, 0, 0, 3
 753421011, 0.14, 0.13, -9.88, -9.89, 8.51, 8.5, 0, 0, 3
 753520971, 0.14, 0.13, -9.87, -9.87, 8.51, 8.49, 0, 0, 3
 753620931, 0.14, 0.14, -9.83, -9.83, 8.51, 8.48, 0, 0, 3
 753720891, 0.15, 0.15, -9.83, -9.81, 8.51, 8.47, 0, 0, 3
 753820851, 0.15, 0.16, -9.84, -9.82, 8.51, 8.47, 0, 0, 3
 753920811, 0.15, 0.17, -9.83, -9.83, 8.51, 8.46, 0, 0, 3
 754020771, 0.14, 0.17, -9.83, -9.83, 8.51, 8.46, 0, 0, 3
 754121564, 0.14, 0.18, -9.79, -9.8, 8.51, 8.46, 0, 0, 3
 754221524, 0.13, 0.17, -9.78, -9.79, 8.51, 8.46, 0, 0, 3
 754321484, 0.12, 0.15, -9.78, -9.79, 8.51, 8.46, 0, 0, 3
 754421444, 0.12, 0.14, -9.74, -9.76, 8.51, 8.47, 0, 0, 3
 754521404, 0.13, 0.13, -9.56, -9.6, 8.51, 8.48, 0, 0, 3
 754621364, 0.13, 0.12, -9.19, -9.24, 8.51, 8.49, 0, 0, 3
 754721324, 0.14, 0.13, -8.68, -8.74, 8.51, 8.5, 0, 0, 3
 754821284, 0.15, 0.13, -8.12, -8.16, 8.51, 8.51, 0, 0, 3
 754921244, 0.15, 0.13, -7.55, -7.57, 8.51, 8.52, 0, 0, 3
 755021204, 0.15, 0.13, -6.97, -6.98, 8.51, 8.53, 0, 0, 3
 755121164, 0.16, 0.13, -6.38, -6.39, 8.51, 8.53, 0, 0, 3
 755221124, 0.16, 0.13, -5.79, -5.79, 8.51, 8.54, 0, 0, 3
 755321084, 0.16, 0.14, -5.17, -5.19, 8.51, 8.54, 0, 0, 3
 755421044, 0.17, 0.15, -4.48, -4.51, 8.52, 8.54, 0, 0, 3
 755521004, 0.24, 0.22, -3.58, -3.65, 8.55, 8.54, 0, 0, 3
 755620964, 0.4, 0.37, -2.45, -2.52, 8.62, 8.55, 0, 0, 3
 755720924, 0.61, 0.58, -1.11, -1.17, 8.75, 8.57, 0, 0, 3
 755820884, 0.84, 0.82, 0.27, 0.23, 8.94, 8.62, 0, 0, 3
 755920844, 1.1, 1.07, 1.73, 1.7, 9.22, 8.71, 0, 0, 3
 756020804, 1.38, 1.33, 3.23, 3.22, 9.58, 8.85, 0, 0, 3
 756120764, 1.7, 1.61, 4.79, 4.8, 10.07, 9.07, 0, 0, 3
 756221557, 2.06, 1.91, 6.39, 6.44, 10.7, 9.38, 0, 0, 3
 756321517, 2.49, 2.24, 8.04, 8.11, 11.53, 9.81, 0, 0, 3
 756421477, 3.02, 2.62, 9.7, 9.82, 12.62, 10.4, 0, 0, 3
 756521437, 3.71, 3.1, 11.39, 11.57, 14.1, 11.17, 0, 0, 3
 756621397, 4.6, 3.68, 12.97, 13.27, 16.15, 12.2, 0, 0, 3
 756721357, 5.79, 4.4, 14.29, 14.81, 19.07, 13.57, 0, 0, 3
 756821317, 7.46, 5.29, 15.17, 16.1, 23.44, 15.4, 0, 0, 3
 756921277, 9.75, 6.45, 15.49, 17.16, 29.61, 17.94, 0, 0, 3
 757021237, 12.13, 7.97, 15.31, 17.86, 35.91, 21.42, 0, 0, 3
 757121197, 14.44, 9.85, 14.63, 18.09, 42.13, 25.91, 0, 0, 3
 757221157, 16.6, 12.03, 13.49, 17.76, 48.22, 31.35, 0, 0.01, 3
 757321117, 18.6, 14.42, 12.04, 16.9, 54.2, 37.58, 0, 0.01, 3
 757421077, 20.36, 16.9, 10.25, 15.44, 60.05, 44.54, 0, 0.01, 3
 757521037, 21.79, 19.22, 8.21, 13.33, 65.76, 51.99, 0, 0.01, 3
 757620997, 22.87, 21.24, 5.94, 10.62, 71.36, 59.8, 0, 0.01, 3
 757720957, 23.65, 22.82, 3.53, 7.39, 76.88, 67.88, 0, 0.02, 3
 757820917, 24.11, 23.87, 1.02, 3.81, 82.33, 76.04, 0, 0.02, 3
 757920877, 24.35, 24.4, -1.52, 0.04, 87.76, 84.24, 0, 0.02, 3
 758020837, 24.25, 24.33, -4.09, -3.78, 93.19, 92.42, 0, 0.02, 3
 758120797, 23.78, 23.58, -6.59, -7.44, 98.67, 100.49, 0, 0.02, 3
 758221590, 22.88, 22.18, -8.98, -10.77, 104.23, 108.48, 0, 0.02, 3
 758321550, 21.63, 20.29, -11.21, -13.61, 109.89, 116.15, 0, 0.02, 3
 758421510, 20.13, 18.15, -13.33, -16, 115.63, 123.46, 0.01, 0.02, 3
 758521470, 18.42, 15.86, -15.35, -17.98, 121.46, 130.33, 0.01, 0.02, 3
 758621430, 16.45, 13.48, -17.21, -19.58, 127.41, 136.74, 0.01, 0.02, 3
 758721390, 14.32, 11.13, -18.95, -20.91, 133.45, 142.68, 0.01, 0.02, 3
 758821350, 12, 8.85, -20.52, -21.99, 139.61, 148.21, 0.01, 0.02, 3
 758921310, 9.52, 6.62, -21.88, -22.86, 145.88, 153.39, 0.01, 0.02, 3
 759021270, 6.88, 4.46, -23.01, -23.56, 152.27, 158.3, 0.01, 0.01, 3
 759121230, 4.14, 2.36, -23.88, -24.1, 158.72, 163.03, 0.01, 0.01, 3
 759221190, 2.08, 0.28, -24.42, -24.5, 163.44, 167.69, 0.01, 0.01, 3
 759321150, 1.03, -1.64, -24.8, -24.77, 165.87, 172.15, 0.01, 0.01, 3
 759421110, 0.61, -3.25, -25.14, -24.95, 167.09, 176.1, 0.01, 0.01, 3
 759521070, 0.53, -4.49, -25.39, -25.04, 167.67, 179.34, 0.01, 0.01, 3
 759621030, 0.62, -5.31, -25.58, -25.1, 167.95, 181.7, 0.01, 0.01, 3
 759720990, 0.78, -5.73, -25.76, -25.2, 168.06, 183.11, 0.01, 0.01, 3
 759820950, 0.95, -5.79, -25.92, -25.35, 168.09, 183.61, 0, 0.01, 3
 759920910, 1.11, -5.51, -26.09, -25.58, 168.09, 183.26, 0, 0.01, 3
 760020870, 1.26, -4.94, -26.3, -25.9, 168.08, 182.16, 0, 0, 3
 760120830, 1.38, -4.11, -26.52, -26.26, 168.06, 180.42, 0, 0, 3
 760220790, 1.46, -3.06, -26.75, -26.63, 168.04, 178.15, 0, 0, 3
 760321583, 1.49, -1.86, -26.98, -26.97, 168.03, 175.48, 0, 0, 3
 760421543, 1.46, -0.6, -27.18, -27.23, 168.04, 172.61, 0, 0, 3
 760521503, 1.35, 0.62, -27.42, -27.45, 168.06, 169.7, 0, 0, 3
 760621463, 1.16, 1.73, -27.64, -27.62, 168.11, 166.92, 0, 0, 3
 760721423, 0.89, 2.64, -27.77, -27.68, 168.17, 164.45, 0, 0, 3
 760821383, 0.58, 3.32, -27.9, -27.73, 168.25, 162.43, 0, 0, 3
 760921343, 0.25, 3.72, -27.98, -27.77, 168.33, 160.94, 0, 0, 3
 761021303, -0.05, 3.85, -28.01, -27.79, 168.41, 160.06, 0, 0, 3
 761121263, -0.34, 3.72, -28, -27.79, 168.48, 159.77, 0, 0, 3
 761221223, -0.59, 3.37, -27.95, -27.79, 168.54, 160.05, 0, 0, 3
 761321183, -0.8, 2.81, -27.89, -27.78, 168.59, 160.83, 0, 0, 3
 761421143, -0.95, 2.1, -27.82, -27.77, 168.63, 162.02, 0, 0, 3
 761521103, -1.06, 1.31, -27.77, -27.76, 168.66, 163.51, 0, 0, 3
 761621063, -1.1, 0.48, -27.66, -27.69, 168.66, 165.2, 0, 0, 3
 761721023, -1.07, -0.31, -27.51, -27.54, 168.66, 166.96, 0, 0, 3
 761820983, -0.98, -1.02, -27.33, -27.34, 168.63, 168.67, 0, 0, 3
 761920943, -0.83, -1.6, -27.08, -27.06, 168.59, 170.23, 0, 0, 3
 762020903, -0.62, -1.99, -26.84, -26.78, 168.54, 171.53, 0, 0, 3
 762120863, -0.39, -2.21, -26.69, -26.6, 168.49, 172.52, 0, 0, 3
 762220823, -0.14, -2.27, -26.68, -26.55, 168.43, 173.18, 0, 0, 3
 762320783, 0.08, -2.2, -26.75, -26.63, 168.37, 173.48, 0, 0, 3
 762421576, 0.29, -1.99, -26.83, -26.74, 168.32, 173.42, 0, 0, 3
 762521536, 0.46, -1.67, -26.9, -26.84, 168.28, 173.05, 0, 0, 3
 762621496, 0.6, -1.26, -27, -26.97, 168.25, 172.4, 0, 0, 3
 762721456, 0.69, -0.79, -27.07, -27.07, 168.23, 171.54, 0, 0, 3
 762821416, 0.74, -0.29, -27.12, -27.13, 168.21, 170.54, 0, 0, 3
 762921376, 0.73, 0.18, -27.2, -27.2, 168.21, 169.47, 0, 0, 3
 763021336, 0.69, 0.61, -27.26, -27.27, 168.23, 168.42, 0, 0, 3
 763121296, 0.6, 0.98, -27.31, -27.31, 168.25, 167.44, 0, 0, 3
 763221256, 0.48, 1.26, -27.35, -27.33, 168.28, 166.59, 0, 0, 3
 763321216, 0.34, 1.45, -27.38, -27.35, 168.31, 165.92, 0, 0, 3
 763421176, 0.2, 1.54, -27.41, -27.37, 168.34, 165.46, 0, 0, 3
 763521136, 0.07, 1.54, -27.43, -27.39, 168.38, 165.22, 0, 0, 3
 763621096, -0.05, 1.44, -27.49, -27.45, 168.41, 165.19, 0, 0, 3
 763721056, -0.15, 1.26, -27.5, -27.48, 168.43, 165.37, 0, 0, 3
 763821016, -0.24, 1.02, -27.51, -27.5, 168.45, 165.72, 0, 0, 3
 763920976, -0.29, 0.74, -27.52, -27.52, 168.47, 166.22, 0, 0, 3
 764020936, -0.32, 0.44, -27.5, -27.51, 168.47, 166.81, 0, 0, 3
 764120896, -0.32, 0.14, -27.52, -27.53, 168.47, 167.46, 0, 0, 3
 764220856, -0.29, -0.12, -27.55, -27.56, 168.46, 168.1, 0, 0, 3
 764320816, -0.24, -0.36, -27.57, -27.57, 168.45, 168.72, 0, 0, 3
 764420776, -0.16, -0.55, -27.59, -27.59, 168.43, 169.26, 0, 0, 3
 764521569, -0.07, -0.68, -27.58, -27.59, 168.41, 169.7, 0, 0, 3
 764621529, 0.02, -0.74, -27.58, -27.57, 168.39, 170.02, 0, 0, 3
 764721489, 0.12, -0.72, -27.61, -27.58, 168.36, 170.2, 0, 0, 3
 764821449, 0.22, -0.65, -27.61, -27.58, 168.34, 170.24, 0, 0, 3
 764921409, 0.3, -0.54, -27.62, -27.6, 168.32, 170.16, 0, 0, 3
 765021369, 0.37, -0.39, -27.66, -27.64, 168.3, 169.96, 0, 0, 3
 765121329, 0.41, -0.22, -27.69, -27.68, 168.29, 169.68, 0, 0, 3
 765221289, 0.44, -0.02, -27.72, -27.71, 168.28, 169.33, 0, 0, 3
 765321249, 0.44, 0.15, -27.74, -27.73, 168.28, 168.94, 0, 0, 3
 765421209, 0.43, 0.32, -27.75, -27.75, 168.29, 168.54, 0, 0, 3
 765521169, 0.39, 0.48, -27.77, -27.78, 168.29, 168.15, 0, 0, 3
 765621129, 0.35, 0.59, -27.79, -27.79, 168.31, 167.81, 0, 0, 3
 765721089, 0.3, 0.68, -27.84, -27.84, 168.32, 167.52, 0, 0, 3
 765821049, 0.24, 0.72, -27.84, -27.85, 168.33, 167.31, 0, 0, 3
 765921009, 0.19, 0.72, -27.83, -27.85, 168.35, 167.18, 0, 0, 3
 766020969, 0.14, 0.69, -27.83, -27.85, 168.36, 167.12, 0, 0, 3
 766120929, 0.09, 0.63, -27.79, -27.8, 168.37, 167.15, 0, 0, 3
 766220889, 0.06, 0.56, -27.8, -27.8, 168.38, 167.25, 0, 0, 3
 766320849, 0.04, 0.48, -27.86, -27.85, 168.38, 167.41, 0, 0, 3
 766420809, 0.02, 0.37, -27.93, -27.92, 168.39, 167.62, 0, 0, 3
 766520769, 0.01, 0.26, -27.99, -27.98, 168.39, 167.85, 0, 0, 3
 766621562, 0.01, 0.14, -28, -28, 168.39, 168.1, 0, 0, 3
 766721522, 0.04, 0.04, -28.04, -28.03, 168.38, 168.35, 0, 0, 3
 766821482, 0.07, -0.03, -28.08, -28.08, 168.37, 168.57, 0, 0, 3
 766921442, 0.11, -0.08, -28.09, -28.09, 168.37, 168.76, 0, 0, 3
 767021402, 0.15, -0.12, -28.11, -28.1, 168.35, 168.91, 0, 0, 3
 767121362, 0.2, -0.13, -28.15, -28.14, 168.34, 169.01, 0, 0, 3
 767221322, 0.25, -0.12, -28.18, -28.18, 168.33, 169.06, 0, 0, 3
 767321282, 0.29, -0.08, -28.2, -28.2, 168.32, 169.06, 0, 0, 3
 767421242, 0.33, -0.02, -28.21, -28.21, 168.31, 169.01, 0, 0, 3
 767521202, 0.35, 0.05, -28.21, -28.21, 168.3, 168.92, 0, 0, 3
 767621162, 0.36, 0.12, -28.21, -28.21, 168.3, 168.79, 0, 0, 3
 767721122, 0.37, 0.2, -28.23, -28.23, 168.3, 168.65, 0, 0, 3
 767821082, 0.37, 0.28, -28.25, -28.25, 168.3, 168.49, 0, 0, 3
 767921042, 0.35, 0.34, -28.23, -28.25, 168.3, 168.33, 0, 0, 3
 768021002, 0.33, 0.39, -28.2, -28.22, 168.31, 168.19, 0, 0, 3
 768120962, 0.31, 0.43, -28.18, -28.2, 168.31, 168.06, 0, 0, 3
 768220922, 0.28, 0.45, -28.13, -28.14, 168.32, 167.96, 0, 0, 3
 768320882, 0.26, 0.47, -28.12, -28.12, 168.33, 167.89, 0, 0, 3
 768420842, 0.24, 0.47, -28.12, -28.12, 168.33, 167.85, 0, 0, 3
 768520802, 0.21, 0.46, -28.1, -28.11, 168.34, 167.83, 0, 0, 3
 768620762, 0.19, 0.44, -28.09, -28.1, 168.35, 167.85, 0, 0, 3
 768721555, 0.17, 0.4, -28.03, -28.04, 168.35, 167.9, 0, 0, 3
 768821515, 0.16, 0.35, -28.03, -28.03, 168.35, 167.97, 0, 0, 3
 768921475, 0.16, 0.3, -28.03, -28.03, 168.35, 168.06, 0, 0, 3
 769021435, 0.16, 0.25, -28, -28, 168.35, 168.16, 0, 0, 3
 769121395, 0.16, 0.21, -28, -27.99, 168.35, 168.26, 0, 0, 3
 769221355, 0.17, 0.18, -28.02, -28.02, 168.35, 168.35, 0, 0, 3
 769321315, 0.18, 0.14, -28.03, -28.03, 168.35, 168.44, 0, 0, 3
 769421275, 0.2, 0.12, -28.04, -28.03, 168.34, 168.51, 0, 0, 3
 769521235, 0.22, 0.12, -28.04, -28.04, 168.34, 168.56, 0, 0, 3
 769621195, 0.23, 0.11, -28.04, -28.04, 168.33, 168.6, 0, 0, 3
 769721155, 0.25, 0.12, -28.04, -28.04, 168.33, 168.61, 0, 0, 3
 769821115, 0.26, 0.13, -28.07, -28.07, 168.33, 168.61, 0, 0, 3
 769921075, 0.27, 0.15, -28.08, -28.09, 168.32, 168.59, 0, 0, 3
 770021035, 0.28, 0.17, -28.07, -28.08, 168.32, 168.56, 0, 0, 3
 770120995, 0.29, 0.2, -28.05, -28.08, 168.32, 168.51, 0, 0, 3
 770220955, 0.3, 0.23, -28.02, -28.05, 168.32, 168.46, 0, 0, 3
 770320915, 0.3, 0.26, -27.98, -28, 168.32, 168.39, 0, 0, 3
 770420875, 0.29, 0.29, -28, -28.01, 168.32, 168.33, 0, 0, 3
 770520835, 0.28, 0.31, -28.02, -28.02, 168.32, 168.27, 0, 0, 3
 770620795, 0.27, 0.32, -28.03, -28.03, 168.33, 168.21, 0, 0, 3
 770721588, 0.26, 0.34, -28.04, -28.04, 168.33, 168.16, 0, 0, 3
 770821548, 0.25, 0.35, -28.01, -28.01, 168.33, 168.13, 0, 0, 3
 770921508, 0.24, 0.36, -28.03, -28.03, 168.33, 168.11, 0, 0, 3
 771021468, 0.23, 0.35, -28.06, -28.05, 168.33, 168.11, 0, 0, 3
 771121428, 0.23, 0.33, -28.03, -28.04, 168.33, 168.12, 0, 0, 3
 771221388, 0.23, 0.31, -28.05, -28.06, 168.33, 168.14, 0, 0, 3
 771321348, 0.23, 0.3, -28.07, -28.1, 168.33, 168.17, 0, 0, 3
 771421308, 0.23, 0.28, -28.09, -28.12, 168.33, 168.21, 0, 0, 3
 771521268, 0.23, 0.27, -28.09, -28.12, 168.33, 168.25, 0, 0, 3
 771621228, 0.23, 0.25, -28.09, -28.11, 168.33, 168.29, 0, 0, 3
 771721188, 0.23, 0.23, -28.1, -28.1, 168.33, 168.33, 0, 0, 3
 771821148, 0.24, 0.22, -28.11, -28.11, 168.33, 168.36, 0, 0, 3
 771921108, 0.25, 0.21, -28.15, -28.14, 168.33, 168.38, 0, 0, 3
 772021068, 0.26, 0.2, -28.17, -28.17, 168.33, 168.39, 0, 0, 3
 772121028, 0.27, 0.2, -28.16, -28.16, 168.32, 168.4, 0, 0, 3
 772220988, 0.29, 0.2, -28.16, -28.16, 168.32, 168.39, 0, 0, 3
 772320948, 0.3, 0.22, -28.12, -28.14, 168.32, 168.38, 0, 0, 3
 772420908, 0.3, 0.25, -28.11, -28.11, 168.32, 168.36, 0, 0, 3
 772520868, 0.3, 0.28, -28.11, -28.11, 168.32, 168.34, 0, 0, 3
 772620828, 0.3, 0.31, -28.12, -28.12, 168.32, 168.32, 0, 0, 3
 772720788, 0.29, 0.32, -28.11, -28.12, 168.32, 168.3, 0, 0, 3
 772821581, 0.29, 0.32, -28.1, -28.1, 168.32, 168.27, 0, 0, 3
 772921541, 0.28, 0.32, -28.06, -28.06, 168.32, 168.26, 0, 0, 3
 773021501, 0.27, 0.32, -28.07, -28.05, 168.33, 168.25, 0, 0, 3
 773121461, 0.27, 0.32, -28.07, -28.07, 168.33, 168.24, 0, 0, 3
 773221421, 0.26, 0.32, -28.04, -28.03, 168.33, 168.24, 0, 0, 3
 773321381, 0.26, 0.31, -28.05, -28.03, 168.33, 168.24, 0, 0, 3
 773421341, 0.26, 0.3, -28.08, -28.05, 168.33, 168.25, 0, 0, 3
 773521301, 0.26, 0.29, -28.1, -28.08, 168.33, 168.26, 0, 0, 3
 773621261, 0.25, 0.28, -28.12, -28.1, 168.33, 168.27, 0, 0, 3
 773721221, 0.25, 0.27, -28.13, -28.11, 168.33, 168.29, 0, 0, 3
 773821181, 0.25, 0.26, -28.14, -28.13, 168.33, 168.31, 0, 0, 3
 773921141, 0.25, 0.25, -28.14, -28.14, 168.33, 168.32, 0, 0, 3
 774021101, 0.26, 0.26, -28.18, -28.18, 168.33, 168.33, 0, 0, 3
 774121061, 0.26, 0.26, -28.18, -28.19, 168.33, 168.33, 0, 0, 3
 774221021, 0.26, 0.26, -28.16, -28.18, 168.33, 168.33, 0, 0, 3
 774320981, 0.26, 0.26, -28.16, -28.17, 168.33, 168.33, 0, 0, 3
 774420941, 0.26, 0.27, -28.12, -28.14, 168.33, 168.33, 0, 0, 3
 774520901, 0.27, 0.27, -28.11, -28.13, 168.32, 168.32, 0, 0, 3
 774620861, 0.27, 0.28, -28.13, -28.14, 168.32, 168.3, 0, 0, 3
 774720821, 0.27, 0.28, -28.13, -28.15, 168.32, 168.29, 0, 0, 3
 774820781, 0.27, 0.29, -28.13, -28.15, 168.32, 168.28, 0, 0, 3
 774921574, 0.27, 0.29, -28.09, -28.12, 168.32, 168.27, 0, 0, 3
 775021534, 0.27, 0.29, -28.07, -28.08, 168.32, 168.27, 0, 0, 3
 775121494, 0.28, 0.29, -28.08, -28.08, 168.32, 168.27, 0, 0, 3
 775221454, 0.28, 0.28, -28.08, -28.07, 168.32, 168.26, 0, 0, 3
 775321414, 0.29, 0.28, -28.07, -28.06, 168.32, 168.26, 0, 0, 3
 775421374, 0.31, 0.29, -28.1, -28.07, 168.32, 168.26, 0, 0, 3
 775521334, 0.31, 0.3, -28.11, -28.1, 168.31, 168.26, 0, 0, 3
 775621294, 0.31, 0.31, -28.12, -28.12, 168.31, 168.26, 0, 0, 3
 775721254, 0.32, 0.31, -28.13, -28.13, 168.31, 168.26, 0, 0, 3
 775821214, 0.32, 0.33, -28.13, -28.15, 168.31, 168.26, 0, 0, 3
 775921174, 0.32, 0.34, -28.13, -28.16, 168.31, 168.26, 0, 0, 3
 776021134, 0.32, 0.34, -28.13, -28.15, 168.31, 168.26, 0, 0, 3
 776121094, 0.31, 0.34, -28.17, -28.19, 168.32, 168.27, 0, 0, 3
 776221054, 0.29, 0.33, -28.16, -28.2, 168.32, 168.27, 0, 0, 3
 776321014, 0.29, 0.32, -28.14, -28.17, 168.32, 168.28, 0, 0, 3
 776420974, 0.28, 0.31, -28.13, -28.15, 168.32, 168.29, 0, 0, 3
 776520934, 0.28, 0.31, -28.08, -28.09, 168.32, 168.3, 0, 0, 3
 776620894, 0.28, 0.31, -28.09, -28.08, 168.32, 168.3, 0, 0, 3
 776720854, 0.27, 0.3, -28.1, -28.1, 168.32, 168.31, 0, 0, 3
 776820814, 0.27, 0.28, -28.12, -28.11, 168.33, 168.32, 0, 0, 3
 776920774, 0.27, 0.28, -28.12, -28.13, 168.33, 168.33, 0, 0, 3
 777021567, 0.26, 0.27, -28.1, -28.11, 168.33, 168.33, 0, 0, 3
 777121527, 0.27, 0.27, -28.08, -28.1, 168.32, 168.33, 0, 0, 3
 777221487, 0.27, 0.27, -28.1, -28.11, 168.32, 168.33, 0, 0, 3
 777321447, 0.27, 0.27, -28.08, -28.1, 168.32, 168.32, 0, 0, 3
 777421407, 0.27, 0.27, -28.08, -28.09, 168.32, 168.32, 0, 0, 3
 777521367, 0.28, 0.28, -28.1, -28.11, 168.32, 168.32, 0, 0, 3
 777621327, 0.28, 0.28, -28.12, -28.13, 168.32, 168.31, 0, 0, 3
 777721287, 0.29, 0.29, -28.14, -28.14, 168.32, 168.31, 0, 0, 3
 777821247, 0.29, 0.29, -28.16, -28.16, 168.32, 168.31, 0, 0, 3
 777921207, 0.29, 0.28, -28.16, -28.17, 168.32, 168.3, 0, 0, 3
 778021167, 0.29, 0.28, -28.17, -28.18, 168.32, 168.3, 0, 0, 3
 778121127, 0.29, 0.28, -28.18, -28.18, 168.32, 168.3, 0, 0, 3
 778221087, 0.28, 0.28, -28.23, -28.24, 168.32, 168.31, 0, 0, 3
 778321047, 0.29, 0.28, -28.23, -28.25, 168.32, 168.31, 0, 0, 3
 778421007, 0.29, 0.27, -28.22, -28.24, 168.32, 168.32, 0, 0, 3
 778520967, 0.3, 0.27, -28.21, -28.24, 168.32, 168.32, 0, 0, 3
 778620927, 0.3, 0.28, -28.17, -28.19, 168.32, 168.33, 0, 0, 3
 778720887, 0.31, 0.29, -28.17, -28.18, 168.31, 168.33, 0, 0, 3
 778820847, 0.31, 0.29, -28.2, -28.19, 168.31, 168.34, 0, 0, 3
 778920807, 0.33, 0.3, -28.21, -28.21, 168.31, 168.33, 0, 0, 3
 779020767, 0.33, 0.32, -28.22, -28.22, 168.31, 168.32, 0, 0, 3
 779121560, 0.33, 0.33, -28.18, -28.19, 168.31, 168.32, 0, 0, 3
 779221520, 0.33, 0.33, -28.19, -28.18, 168.31, 168.31, 0, 0, 3
 779321480, 0.32, 0.33, -28.21, -28.2, 168.31, 168.3, 0, 0, 3
 779421440, 0.31, 0.32, -28.19, -28.19, 168.31, 168.3, 0, 0, 3
 779521400, 0.31, 0.32, -28.19, -28.19, 168.32, 168.3, 0, 0, 3
 779621360, 0.3, 0.31, -28.22, -28.21, 168.32, 168.3, 0, 0, 3
 779721320, 0.31, 0.31, -28.23, -28.23, 168.31, 168.3, 0, 0, 3
 779821280, 0.31, 0.3, -28.25, -28.25, 168.31, 168.31, 0, 0, 3
 779921240, 0.31, 0.3, -28.26, -28.26, 168.31, 168.31, 0, 0, 3
 780021200, 0.31, 0.29, -28.26, -28.28, 168.31, 168.31, 0, 0, 3
 780121160, 0.31, 0.29, -28.26, -28.29, 168.31, 168.31, 0, 0, 3
 780221120, 0.32, 0.29, -28.28, -28.32, 168.31, 168.31, 0, 0, 3
 780321080, 0.33, 0.28, -28.3, -28.33, 168.31, 168.31, 0, 0, 3
 780421040, 0.33, 0.28, -28.29, -28.31, 168.31, 168.31, 0, 0, 3
 780521000, 0.34, 0.3, -28.27, -28.29, 168.31, 168.31, 0, 0, 3
 780620960, 0.35, 0.32, -28.26, -28.26, 168.3, 168.31, 0, 0, 3
 780720920, 0.35, 0.33, -28.26, -28.24, 168.3, 168.31, 0, 0, 3
 780820880, 0.35, 0.35, -28.32, -28.29, 168.3, 168.3, 0, 0, 3
 780920840, 0.34, 0.36, -28.38, -28.35, 168.31, 168.3, 0, 0, 3
 781020800, 0.33, 0.35, -28.42, -28.4, 168.31, 168.3, 0, 0, 3
 781120760, 0.33, 0.35, -28.44, -28.43, 168.31, 168.3, 0, 0, 3
 781221553, 0.33, 0.34, -28.41, -28.41, 168.31, 168.29, 0, 0, 3
 781321513, 0.33, 0.35, -28.42, -28.42, 168.31, 168.29, 0, 0, 3
 781421473, 0.32, 0.34, -28.44, -28.43, 168.31, 168.29, 0, 0, 3
 781521433, 0.32, 0.34, -28.41, -28.41, 168.31, 168.29, 0, 0, 3
 781621393, 0.31, 0.34, -28.42, -28.41, 168.31, 168.29, 0, 0, 3
 781721353, 0.31, 0.33, -28.44, -28.43, 168.31, 168.29, 0, 0, 3
 781821313, 0.3, 0.32, -28.45, -28.44, 168.32, 168.29, 0, 0, 3
 781921273, 0.3, 0.32, -28.45, -28.45, 168.32, 168.29, 0, 0, 3
 782021233, 0.3, 0.31, -28.45, -28.45, 168.32, 168.29, 0, 0, 3
 782121193, 0.3, 0.31, -28.44, -28.45, 168.32, 168.29, 0, 0, 3
 782221153, 0.29, 0.3, -28.43, -28.44, 168.32, 168.3, 0, 0, 3
 782321113, 0.29, 0.3, -28.45, -28.45, 168.32, 168.3, 0, 0, 3
 782421073, 0.3, 0.3, -28.45, -28.45, 168.32, 168.3, 0, 0, 3
 782521033, 0.3, 0.3, -28.42, -28.43, 168.31, 168.31, 0, 0, 3
 782620993, 0.31, 0.31, -28.4, -28.41, 168.31, 168.31, 0, 0, 3
 782720953, 0.31, 0.32, -28.35, -28.37, 168.31, 168.3, 0, 0, 3
 782820913, 0.3, 0.32, -28.31, -28.32, 168.32, 168.3, 0, 0, 3
 782920873, 0.3, 0.33, -28.3, -28.29, 168.32, 168.29, 0, 0, 3
 783020833, 0.3, 0.33, -28.3, -28.29, 168.32, 168.29, 0, 0, 3
 783120793, 0.3, 0.33, -28.28, -28.27, 168.32, 168.28, 0, 0, 3
 783221586, 0.3, 0.32, -28.26, -28.27, 168.32, 168.28, 0, 0, 3
 783321546, 0.3, 0.31, -28.19, -28.21, 168.32, 168.29, 0, 0, 3
 783421506, 0.3, 0.3, -28.19, -28.2, 168.32, 168.29, 0, 0, 3
 783521466, 0.31, 0.3, -28.19, -28.2, 168.31, 168.3, 0, 0, 3
 783621426, 0.31, 0.3, -28.15, -28.16, 168.31, 168.3, 0, 0, 3
 783721386, 0.31, 0.3, -28.15, -28.16, 168.31, 168.31, 0, 0, 3
 783821346, 0.31, 0.3, -28.16, -28.17, 168.31, 168.31, 0, 0, 3
 783921306, 0.31, 0.3, -28.16, -28.18, 168.31, 168.31, 0, 0, 3
 784021266, 0.31, 0.3, -28.17, -28.18, 168.31, 168.32, 0, 0, 3
 784121226, 0.32, 0.3, -28.16, -28.18, 168.31, 168.32, 0, 0, 3
 784221186, 0.32, 0.3, -28.16, -28.18, 168.31, 168.32, 0, 0, 3
 784321146, 0.32, 0.31, -28.16, -28.17, 168.31, 168.31, 0, 0, 3
 784421106, 0.32, 0.31, -28.2, -28.2, 168.31, 168.31, 0, 0, 3
 784521066, 0.32, 0.31, -28.19, -28.21, 168.31, 168.31, 0, 0, 3
 784621026, 0.32, 0.31, -28.19, -28.2, 168.31, 168.3, 0, 0, 3
 784720986, 0.32, 0.31, -28.18, -28.19, 168.31, 168.3, 0, 0, 3
 784820946, 0.33, 0.32, -28.15, -28.16, 168.31, 168.3, 0, 0, 3
 784920906, 0.33, 0.32, -28.13, -28.14, 168.31, 168.29, 0, 0, 3
 785020866, 0.32, 0.33, -28.14, -28.14, 168.31, 168.29, 0, 0, 3
 785120826, 0.31, 0.32, -28.14, -28.15, 168.31, 168.29, 0, 0, 3
 785220786, 0.31, 0.31, -28.14, -28.15, 168.32, 168.29, 0, 0, 3
 785321579, 0.3, 0.31, -28.12, -28.14, 168.32, 168.29, 0, 0, 3
 785421539, 0.3, 0.3, -28.09, -28.1, 168.32, 168.29, 0, 0, 3
 785521499, 0.3, 0.3, -28.09, -28.1, 168.32, 168.29, 0, 0, 3
 785621459, 0.29, 0.29, -28.09, -28.1, 168.32, 168.29, 0, 0, 3
 785721419, 0.29, 0.29, -28.06, -28.07, 168.32, 168.3, 0, 0, 3
 785821379, 0.29, 0.29, -28.08, -28.08, 168.32, 168.3, 0, 0, 3
 785921339, 0.3, 0.3, -28.09, -28.09, 168.32, 168.3, 0, 0, 3
 786021299, 0.31, 0.3, -28.11, -28.11, 168.31, 168.31, 0, 0, 3
 786121259, 0.31, 0.3, -28.11, -28.12, 168.31, 168.31, 0, 0, 3
 786221219, 0.31, 0.3, -28.13, -28.13, 168.31, 168.31, 0, 0, 3
 786321179, 0.31, 0.3, -28.14, -28.15, 168.31, 168.31, 0, 0, 3
 786421139, 0.32, 0.31, -28.15, -28.16, 168.31, 168.31, 0, 0, 3
 786521099, 0.32, 0.31, -28.2, -28.2, 168.31, 168.31, 0, 0, 3
 786621059, 0.32, 0.31, -28.2, -28.22, 168.31, 168.31, 0, 0, 3
 786721019, 0.33, 0.32, -28.2, -28.21, 168.31, 168.3, 0, 0, 3
 786820979, 0.33, 0.32, -28.2, -28.21, 168.31, 168.3, 0, 0, 3
 786920939, 0.32, 0.32, -28.16, -28.18, 168.31, 168.3, 0, 0, 3
 787020899, 0.32, 0.32, -28.17, -28.17, 168.31, 168.29, 0, 0, 3
 787120859, 0.32, 0.32, -28.18, -28.19, 168.31, 168.29, 0, 0, 3
 787220819, 0.32, 0.32, -28.2, -28.21, 168.31, 168.29, 0, 0, 3
 787320779, 0.32, 0.32, -28.21, -28.22, 168.31, 168.28, 0, 0, 3
 787421572, 0.32, 0.32, -28.19, -28.2, 168.31, 168.28, 0, 0, 3
 787521532, 0.32, 0.32, -28.18, -28.19, 168.31, 168.28, 0, 0, 3
 787621492, 0.32, 0.32, -28.2, -28.21, 168.31, 168.28, 0, 0, 3
 787721452, 0.33, 0.33, -28.19, -28.2, 168.31, 168.28, 0, 0, 3
 787821412, 0.33, 0.33, -28.18, -28.18, 168.31, 168.29, 0, 0, 3
 787921372, 0.33, 0.33, -28.2, -28.2, 168.31, 168.29, 0, 0, 3
 788021332, 0.33, 0.33, -28.22, -28.22, 168.31, 168.29, 0, 0, 3
 788121292, 0.33, 0.32, -28.22, -28.22, 168.31, 168.29, 0, 0, 3
 788221252, 0.32, 0.31, -28.23, -28.23, 168.31, 168.29, 0, 0, 3
 788321212, 0.32, 0.31, -28.23, -28.24, 168.31, 168.29, 0, 0, 3
 788421172, 0.32, 0.31, -28.24, -28.24, 168.31, 168.3, 0, 0, 3
 788521132, 0.32, 0.31, -28.24, -28.24, 168.31, 168.3, 0, 0, 3
 788621092, 0.32, 0.31, -28.29, -28.29, 168.31, 168.3, 0, 0, 3
 788721052, 0.32, 0.31, -28.29, -28.29, 168.31, 168.3, 0, 0, 3
 788821012, 0.32, 0.31, -28.28, -28.28, 168.31, 168.3, 0, 0, 3
 788920972, 0.32, 0.31, -28.27, -28.27, 168.31, 168.3, 0, 0, 3
 789020932, 0.32, 0.31, -28.22, -28.22, 168.31, 168.3, 0, 0, 3
 789120892, 0.32, 0.31, -28.21, -28.21, 168.31, 168.3, 0, 0, 3
 789220852, 0.32, 0.31, -28.23, -28.23, 168.31, 168.3, 0, 0, 3
 789320812, 0.32, 0.31, -28.22, -28.22, 168.31, 168.3, 0, 0, 3
 789420772, 0.33, 0.32, -28.12, -28.14, 168.31, 168.3, 0, 0, 3
 789521565, 0.34, 0.33, -27.79, -27.85, 168.31, 168.3, 0, 0, 3
 789621525, 0.34, 0.33, -27.32, -27.38, 168.31, 168.3, 0, 0, 3
 789721485, 0.34, 0.32, -26.77, -26.82, 168.31, 168.3, 0, 0, 3
 789821445, 0.34, 0.32, -26.14, -26.19, 168.31, 168.3, 0, 0, 3
 789921405, 0.33, 0.31, -25.5, -25.53, 168.32, 168.31, 0, 0, 3
 790021365, 0.33, 0.31, -24.85, -24.87, 168.32, 168.31, 0, 0, 3
 790121325, 0.32, 0.32, -24.13, -24.16, 168.32, 168.31, 0, 0, 3
 790221285, 0.32, 0.32, -23.38, -23.4, 168.33, 168.32, 0, 0, 3
 790321245, 0.31, 0.31, -22.57, -22.59, 168.33, 168.32, 0, 0, 3
 790421205, 0.3, 0.3, -21.72, -21.74, 168.33, 168.33, 0, 0, 3
 790521165, 0.29, 0.3, -20.81, -20.83, 168.34, 168.33, 0, 0, 3
 790621125, 0.28, 0.3, -19.87, -19.89, 168.34, 168.33, 0, 0, 3
 790721085, 0.27, 0.3, -18.88, -18.91, 168.35, 168.33, 0, 0, 3
 790821045, 0.25, 0.28, -17.81, -17.83, 168.35, 168.34, 0, 0, 3
 790921005, 0.24, 0.27, -16.66, -16.69, 168.36, 168.34, 0, 0, 3
 791020965, 0.22, 0.25, -15.48, -15.5, 168.36, 168.35, 0, 0, 3
 791120925, 0.19, 0.22, -14.19, -14.21, 168.37, 168.35, 0, 0, 3
 791220885, 0.18, 0.19, -12.92, -12.91, 168.37, 168.35, 0, 0, 3
 791320845, 0.16, 0.16, -11.57, -11.58, 168.38, 168.35, 0, 0, 3
 791420805, 0.14, 0.14, -10.19, -10.18, 168.38, 168.35, 0, 0, 3
 791520765, 0.13, 0.11, -8.73, -8.73, 168.38, 168.35, 0, 0, 3
 791621558, 0.18, 0.15, -7.21, -7.19, 168.4, 168.35, 0, 0, 3
 791721518, 0.39, 0.35, -5.65, -5.63, 168.45, 168.35, 0, 0, 3
 791821478, 0.79, 0.75, -4.08, -4.05, 168.59, 168.37, 0, 0, 3
 791921438, 1.28, 1.26, -2.5, -2.45, 168.81, 168.43, 0, 0, 3
 792021398, 1.8, 1.79, -1.14, -1.05, 169.15, 168.53, 0, 0, 3
 792121358, 2.33, 2.33, 0, 0.1, 169.61, 168.69, 0, 0, 3
 792221318, 2.88, 2.87, 0.95, 1.09, 170.2, 168.94, 0, 0, 3
 792321278, 3.45, 3.4, 1.87, 2.02, 170.96, 169.3, 0, 0, 3
 792421238, 4.05, 3.96, 2.72, 2.89, 171.89, 169.81, 0, 0, 3
 792521198, 4.69, 4.54, 3.53, 3.74, 173.03, 170.5, 0, 0.01, 3
 792621158, 5.38, 5.16, 4.24, 4.52, 174.41, 171.41, 0, 0.01, 3
 792721118, 6.13, 5.83, 4.86, 5.23, 176.08, 172.55, 0, 0.01, 3
 792821078, 6.96, 6.56, 5.34, 5.83, 178.07, 173.99, 0, 0.01, 3
 792921038, 7.84, 7.35, 5.7, 6.32, 180.46, 175.75, 0, 0.01, 3
 793020998, 8.8, 8.22, 5.83, 6.65, 183.29, 177.89, 0, 0.01, 3
 793120958, 9.77, 9.13, 5.65, 6.7, 186.62, 180.48, 0, 0.01, 3
 793220918, 10.68, 10.02, 5.01, 6.33, 190.44, 183.49, 0, 0.02, 3
 793320878, 11.41, 10.81, 4.03, 5.58, 194.71, 187.01, 0, 0.02, 3
 793420838, 11.87, 11.39, 2.88, 4.59, 199.37, 191.1, 0, 0.02, 3
 793520798, 12.12, 11.78, 1.66, 3.45, 204.36, 195.81, 0, 0.02, 3
 793621591, 12.22, 12.07, 0.34, 2.13, 209.59, 201.16, 0, 0.03, 3
 793721551, 12.17, 12.2, -1, 0.68, 214.95, 207.02, 0, 0.03, 3
 793821511, 11.97, 12.18, -2.38, -0.92, 220.31, 213.38, 0, 0.04, 3
 793921471, 11.62, 11.92, -3.73, -2.63, 225.52, 220.12, 0, 0.04, 3
 794021431, 11.1, 11.38, -4.98, -4.35, 230.48, 227.14, 0, 0.04, 3
 794121391, 10.48, 10.57, -6.08, -5.97, 235.06, 234.25, 0, 0.05, 3
 794221351, 9.73, 9.49, -6.9, -7.3, 239.21, 241.28, 0, 0.05, 3
 794321311, 8.93, 8.24, -7.41, -8.24, 242.91, 247.98, 0, 0.05, 3
 794421271, 8.13, 6.98, -7.73, -8.84, 246.15, 254.11, 0.01, 0.05, 3
 794521231, 7.37, 5.8, -7.92, -9.17, 248.98, 259.46, 0.01, 0.05, 3
 794621191, 6.65, 4.75, -8.03, -9.31, 251.42, 263.9, 0.01, 0.04, 3
 794721151, 5.97, 3.86, -8.05, -9.27, 253.52, 267.39, 0.01, 0.04, 3
 794821111, 5.33, 3.13, -8.05, -9.14, 255.3, 269.92, 0.01, 0.03, 3
 794921071, 4.71, 2.53, -7.98, -8.92, 256.8, 271.57, 0.01, 0.03, 3
 795021031, 4.11, 2.05, -7.85, -8.63, 258.05, 272.39, 0.01, 0.02, 3
 795120991, 3.53, 1.66, -7.69, -8.31, 259.07, 272.47, 0.01, 0.02, 3
 795220951, 2.96, 1.34, -7.49, -7.95, 259.87, 271.88, 0.01, 0.02, 3
 795320911, 2.4, 1.06, -7.26, -7.58, 260.47, 270.75, 0.01, 0.02, 3
 795420871, 1.84, 0.8, -7.03, -7.22, 260.88, 269.19, 0.01, 0.02, 3
 795520831, 1.28, 0.53, -6.78, -6.87, 261.11, 267.31, 0.01, 0.02, 3
 795620791, 0.79, 0.31, -6.5, -6.54, 261.19, 265.22, 0.01, 0.02, 3
 795721584, 0.48, 0.24, -6.23, -6.23, 261.22, 263.06, 0.01, 0.02, 3
 795821544, 0.37, 0.34, -6.05, -6.02, 261.22, 260.99, 0.01, 0.02, 3
 795921504, 0.34, 0.51, -6.06, -6, 261.22, 259.11, 0.01, 0.02, 3
 796021464, 0.33, 0.69, -6.17, -6.1, 261.22, 257.55, 0, 0.02, 3
 796121424, 0.3, 0.81, -6.27, -6.19, 261.23, 256.36, 0, 0.02, 3
 796221384, 0.27, 0.88, -6.37, -6.3, 261.23, 255.6, 0, 0.02, 3
 796321344, 0.23, 0.89, -6.45, -6.39, 261.23, 255.28, 0, 0.02, 3
 796421304, 0.2, 0.86, -6.51, -6.46, 261.23, 255.38, 0, 0.02, 3
 796521264, 0.15, 0.77, -6.56, -6.51, 261.23, 255.85, 0, 0.01, 3
 796621224, 0.11, 0.64, -6.59, -6.56, 261.24, 256.63, 0, 0.01, 3
 796721184, 0.06, 0.48, -6.61, -6.6, 261.24, 257.65, 0, 0.01, 3
 796821144, 0.02, 0.31, -6.63, -6.62, 261.24, 258.8, 0, 0.01, 3
 796921104, 0, 0.14, -6.66, -6.65, 261.24, 260, 0, 0, 3
 797021064, -0.02, -0.01, -6.65, -6.66, 261.24, 261.18, 0, 0, 3
 797121024, -0.04, -0.15, -6.64, -6.64, 261.24, 262.26, 0, 0, 3
 797220984, -0.04, -0.26, -6.62, -6.61, 261.25, 263.16, 0, 0, 3
 797320944, -0.05, -0.34, -6.58, -6.58, 261.25, 263.86, 0, 0, 3
 797420904, -0.05, -0.4, -6.55, -6.54, 261.25, 264.32, 0, 0, 3
 797520864, -0.05, -0.43, -6.54, -6.52, 261.25, 264.52, 0, 0, 3
 797620824, -0.05, -0.42, -6.51, -6.5, 261.25, 264.49, 0, 0, 3
 797720784, -0.04, -0.39, -6.48, -6.47, 261.25, 264.25, 0, 0, 3
 797821577, -0.04, -0.33, -6.44, -6.44, 261.24, 263.82, 0, 0, 3
 797921537, -0.04, -0.27, -6.4, -6.39, 261.24, 263.26, 0, 0, 3
 798021497, -0.05, -0.2, -6.37, -6.36, 261.25, 262.62, 0, 0.01, 3
 798121457, -0.05, -0.13, -6.35, -6.34, 261.25, 261.94, 0, 0.01, 3
 798221417, -0.06, -0.06, -6.31, -6.31, 261.25, 261.27, 0, 0.01, 3
 798321377, -0.06, 0, -6.29, -6.29, 261.25, 260.66, 0, 0.01, 3
 798421337, -0.07, 0.04, -6.27, -6.27, 261.25, 260.15, 0, 0.01, 3
 798521297, -0.07, 0.08, -6.25, -6.24, 261.25, 259.75, 0, 0.01, 3
 798621257, -0.07, 0.1, -6.23, -6.22, 261.25, 259.48, 0, 0.01, 3
 798721217, -0.07, 0.11, -6.21, -6.2, 261.25, 259.35, 0, 0.01, 3
 798821177, -0.07, 0.11, -6.19, -6.18, 261.25, 259.35, 0, 0.01, 3
 798921137, -0.07, 0.1, -6.17, -6.16, 261.25, 259.47, 0, 0.01, 3
 799021097, -0.07, 0.09, -6.17, -6.16, 261.25, 259.7, 0, 0.01, 3
 799121057, -0.06, 0.06, -6.15, -6.14, 261.25, 260.02, 0, 0, 3
 799221017, -0.05, 0.02, -6.13, -6.12, 261.25, 260.38, 0, 0, 3
 799320977, -0.04, 0, -6.12, -6.1, 261.24, 260.77, 0, 0, 3
 799420937, -0.04, -0.03, -6.09, -6.07, 261.24, 261.16, 0, 0, 3
 799520897, -0.02, -0.05, -6.08, -6.06, 261.24, 261.51, 0, 0, 3
 799620857, 0, -0.06, -6.07, -6.06, 261.24, 261.81, 0, 0, 3
 799720817, 0.02, -0.05, -6.06, -6.05, 261.24, 262.05, 0, 0, 3
 799820777, 0.03, -0.06, -6.06, -6.05, 261.24, 262.21, 0, 0, 3
 799921570, 0.05, -0.05, -6.03, -6.03, 261.24, 262.3, 0, 0, 3
 800021530, 0.07, -0.03, -6.02, -6.01, 261.24, 262.3, 0, 0, 3
 800121490, 0.09, -0.01, -6.03, -6.01, 261.24, 262.22, 0, 0, 3
 800221450, 0.09, 0.01, -6.02, -6.01, 261.24, 262.09, 0, 0, 3
 800321410, 0.1, 0.03, -6.01, -6.01, 261.24, 261.91, 0, 0, 3
 800421370, 0.1, 0.05, -6.01, -6.02, 261.24, 261.71, 0, 0, 3
 800521330, 0.11, 0.08, -6.02, -6.01, 261.24, 261.48, 0, 0, 3
 800621290, 0.12, 0.11, -6.03, -6.02, 261.24, 261.26, 0, 0, 3
 800721250, 0.14, 0.15, -6.03, -6.02, 261.23, 261.06, 0, 0, 3
 800821210, 0.14, 0.18, -6.03, -6.03, 261.23, 260.88, 0, 0, 3
 800921170, 0.14, 0.18, -6.03, -6.02, 261.23, 260.75, 0, 0, 3
 801021130, 0.14, 0.18, -6.04, -6.01, 261.23, 260.65, 0, 0, 3
 801121090, 0.15, 0.19, -6.06, -6.06, 261.23, 260.61, 0, 0, 3
 801221050, 0.15, 0.19, -6.05, -6.06, 261.23, 260.6, 0, 0, 3
 801321010, 0.16, 0.2, -6.05, -6.05, 261.23, 260.64, 0, 0, 3
 801420970, 0.16, 0.2, -6.05, -6.05, 261.23, 260.71, 0, 0, 3
 801520930, 0.17, 0.2, -6.03, -6.04, 261.23, 260.81, 0, 0, 3
 801620890, 0.16, 0.19, -6.03, -6.04, 261.23, 260.93, 0, 0, 3
 801720850, 0.16, 0.17, -6.03, -6.03, 261.23, 261.06, 0, 0, 3
 801820810, 0.16, 0.15, -6.03, -6.03, 261.23, 261.19, 0, 0, 3
 801920770, 0.16, 0.14, -6.03, -6.03, 261.23, 261.3, 0, 0, 3
 802021563, 0.16, 0.14, -6.01, -6.01, 261.23, 261.41, 0, 0, 3
 802121523, 0.17, 0.13, -6, -6, 261.23, 261.49, 0, 0, 3
 802221483, 0.17, 0.13, -6.01, -6, 261.23, 261.54, 0, 0, 3
