Time,SIM_Roll,SIM_Pitch,SIM_Yaw,SIM_Alt,SIM_Lat,SIM_Lng,SIM_Q1,SIM_Q2,SIM_Q3,SIM_Q4
 705920852, 0, 0, 349.26, 558.09, 33.6216406, 72.9556851, 0.9956113, 0, 0, -0.0935849
 706020812, 0, 0, 349.26, 558.09, 33.6216406, 72.9556851, 0.9956113, 0, 0, -0.0935849
 706120772, 0, 0, 349.26, 558.09, 33.6216406, 72.9556851, 0.9956113, 0, 0, -0.0935849
 706221565, 0, 0, 349.26, 558.09, 33.6216406, 72.9556851, 0.9956113, 0, 0, -0.0935849
 706321525, 0, 0, 349.26, 558.09, 33.6216406, 72.9556851, 0.9956113, 0, 0, -0.0935849
 706421485, 0, 0, 349.26, 558.09, 33.6216406, 72.9556851, 0.9956113, 0, 0, -0.0935849
 706521445, 0, 0, 349.26, 558.09, 33.6216406, 72.9556851, 0.9956113, 0, 0, -0.0935849
 706621405, 0, 0, 349.26, 558.09, 33.6216406, 72.9556851, 0.9956113, 0, 0, -0.0935849
 706721365, 0, 0, 349.26, 558.09, 33.6216406, 72.9556851, 0.9956113, 0, 0, -0.0935849
 706821325, 0, 0, 349.26, 558.09, 33.6216406, 72.9556851, 0.9956113, 0, 0, -0.0935849
 706921285, 0, 0, 349.26, 558.09, 33.6216406, 72.9556851, 0.9956113, 0, 0, -0.0935849
 707021245, 0, 0, 349.26, 558.09, 33.6216406, 72.9556851, 0.9956113, 0, 0, -0.0935849
 707121205, 0, 0, 349.26, 558.09, 33.6216406, 72.9556851, 0.9956113, 0, 0, -0.0935849
 707221165, 0, 0, 349.26, 558.09, 33.6216406, 72.9556851, 0.9956113, 0, 0, -0.0935849
 707321125, 0, 0, 349.26, 558.09, 33.6216406, 72.9556851, 0.9956113, 0, 0, -0.0935849
 707421085, 0, 0, 349.26, 558.09, 33.6216406, 72.9556851, 0.9956113, 0, 0, -0.0935849
 707521045, 0, 0, 349.26, 558.09, 33.6216406, 72.9556851, 0.9956113, 0, 0, -0.0935849
 707621005, 0, 0, 349.26, 558.09, 33.6216406, 72.9556851, 0.9956113, 0, 0, -0.0935849
 707720965, 0, 0, 349.26, 558.09, 33.6216406, 72.9556851, 0.9956113, 0, 0, -0.0935849
 707820925, 0, 0, 349.26, 558.09, 33.6216406, 72.9556851, 0.9956113, 0, 0, -0.0935849
 707920885, 0, 0, 349.26, 558.09, 33.6216406, 72.9556851, 0.9956113, 0, 0, -0.0935849
 708020845, 0, 0, 349.26, 558.09, 33.6216406, 72.9556851, 0.9956113, 0, 0, -0.0935849
 708120805, 0, 0, 349.26, 558.09, 33.6216406, 72.9556851, 0.9956113, 0, 0, -0.0935849
 708220765, 0, 0, 349.26, 558.09, 33.6216406, 72.9556851, 0.9956113, 0, 0, -0.0935849
 708321558, 0, 0, 349.26, 558.09, 33.6216406, 72.9556851, 0.9956113, 0, 0, -0.0935849
 708421518, 0, 0, 349.26, 558.09, 33.6216406, 72.9556851, 0.9956113, 0, 0, -0.0935849
 708521478, 0, 0, 349.26, 558.09, 33.6216406, 72.9556851, 0.9956113, 0, 0, -0.0935849
 708621438, 0, 0, 349.26, 558.09, 33.6216406, 72.9556851, 0.9956113, 0, 0, -0.0935849
 708721398, 0, 0, 349.26, 558.09, 33.6216406, 72.9556851, 0.9956113, 0, 0, -0.0935849
 708821358, 0, 0, 349.26, 558.09, 33.6216406, 72.9556851, 0.9956113, 0, 0, -0.0935849
 708921318, 0, 0, 349.26, 558.09, 33.6216406, 72.9556851, 0.9956113, 0, 0, -0.0935849
 709021278, 0, 0, 349.26, 558.09, 33.6216406, 72.9556851, 0.9956113, 0, 0, -0.0935849
 709121238, 0, 0, 349.26, 558.09, 33.6216406, 72.9556851, 0.9956113, 0, 0, -0.0935849
 709221198, 0, 0, 349.26, 558.09, 33.6216406, 72.9556851, 0.9956113, 0, 0, -0.0935849
 709321158, 0, 0, 349.26, 558.09, 33.6216406, 72.9556851, 0.9956113, 0, 0, -0.0935849
 709421118, 0, 0, 349.26, 558.09, 33.6216406, 72.9556851, 0.9956113, 0, 0, -0.0935849
 709521078, 0, 0, 349.26, 558.09, 33.6216406, 72.9556851, 0.9956113, 0, 0, -0.0935849
 709621038, 0, 0, 349.26, 558.09, 33.6216406, 72.9556851, 0.9956113, 0, 0, -0.0935849
 709720998, 0, 0, 349.26, 558.09, 33.6216406, 72.9556851, 0.9956113, 0, 0, -0.0935849
 709820958, 0, 0, 349.26, 558.09, 33.6216406, 72.9556851, 0.9956113, 0, 0, -0.0935849
 709920918, 0, 0, 349.26, 558.09, 33.6216406, 72.9556851, 0.9956113, 0, 0, -0.0935849
 710020878, 0, 0, 349.26, 558.09, 33.6216406, 72.9556851, 0.9956113, 0, 0, -0.0935849
 710120838, 0, 0, 349.26, 558.09, 33.6216406, 72.9556851, 0.9956113, 0, 0, -0.0935849
 710220798, 0, 0, 349.26, 558.09, 33.6216406, 72.9556851, 0.9956113, 0, 0, -0.0935849
 710321591, 0, 0, 349.26, 558.1, 33.6216406, 72.9556851, 0.9956113, 0, 0, -0.0935849
 710421551, 0, 0, 349.26, 558.12, 33.6216406, 72.9556851, 0.9956113, 0, 0, -0.0935849
 710521511, 0, 0, 349.26, 558.15, 33.6216406, 72.9556851, 0.9956113, 0, 0, -0.0935849
 710621471, 0, 0, 349.26, 558.19, 33.6216406, 72.9556851, 0.9956113, 0, 0, -0.0935849
 710721431, -0.09, -0.1, 349.26, 558.26, 33.6216406, 72.9556851, 0.9956103, -0.0009369435, -0.0008409678, -0.09358695
 710821391, -0.22, -0.24, 349.25, 558.37, 33.6216406, 72.9556851, 0.9956058, -0.002147303, -0.001943704, -0.09359835
 710921351, -0.25, -0.28, 349.25, 558.53, 33.6216406, 72.9556851, 0.9956024, -0.002454838, -0.002287204, -0.0936195
 711021311, -0.23, -0.26, 349.25, 558.71, 33.6216406, 72.9556851, 0.9956008, -0.002239977, -0.002090443, -0.09364622
 711121271, -0.18, -0.2, 349.24, 558.89, 33.6216406, 72.9556851, 0.9955996, -0.001740989, -0.001604433, -0.09367993
 711221231, -0.12, -0.13, 349.24, 559.08, 33.6216406, 72.955685, 0.9955974, -0.001193536, -0.001093521, -0.09371864
 711321191, -0.06, -0.07, 349.24, 559.27, 33.6216406, 72.955685, 0.9955946, -0.0006589551, -0.0005925443, -0.09375893
 711421151, -0.03, -0.03, 349.23, 559.48, 33.6216406, 72.955685, 0.995591, -0.0002942492, -0.0002684978, -0.09379978
 711521111, 0, 0, 349.23, 559.69, 33.6216406, 72.955685, 0.9955869, 2.01114E-05, -4.456491E-05, -0.09384356
 711621071, 0.03, 0.02, 349.22, 559.92, 33.6216406, 72.9556849, 0.9955831, 0.0003146629, 0.0001758685, -0.09388416
 711721031, 0.04, 0.03, 349.22, 560.15, 33.6216406, 72.9556849, 0.9955795, 0.0004506327, 0.0002682776, -0.0939212
 711820991, 0.07, 0.05, 349.21, 560.39, 33.6216406, 72.9556849, 0.9955767, 0.0006893798, 0.0004342392, -0.09394857
 711920951, 0.09, 0.07, 349.21, 560.64, 33.6216406, 72.9556849, 0.9955749, 0.0009019285, 0.0005941654, -0.09396531
 712020911, 0.09, 0.08, 349.21, 560.89, 33.6216407, 72.9556849, 0.9955741, 0.0009278607, 0.0006457808, -0.09397296
 712120871, 0.1, 0.08, 349.21, 561.15, 33.6216407, 72.9556848, 0.9955738, 0.0009421164, 0.0006611875, -0.0939763
 712220831, 0.1, 0.08, 349.21, 561.42, 33.6216407, 72.9556848, 0.9955739, 0.0009561655, 0.0006734795, -0.09397531
 712320791, 0.1, 0.08, 349.21, 561.68, 33.6216407, 72.9556848, 0.9955746, 0.0009854558, 0.0006770155, -0.09396681
 712421584, 0.1, 0.09, 349.21, 561.94, 33.6216407, 72.9556848, 0.9955759, 0.0009922715, 0.0007034523, -0.09395314
 712521544, 0.1, 0.09, 349.21, 562.2, 33.6216407, 72.9556848, 0.9955761, 0.0009860843, 0.0007060741, -0.09395038
 712621504, 0.1, 0.08, 349.21, 562.46, 33.6216407, 72.9556848, 0.9955753, 0.0009460687, 0.0006785495, -0.09396008
 712721464, 0.09, 0.08, 349.21, 562.71, 33.6216407, 72.9556848, 0.9955738, 0.0009233702, 0.0006152368, -0.09397721
 712821424, 0.08, 0.06, 349.21, 562.95, 33.6216407, 72.9556848, 0.9955717, 0.0007888713, 0.0005250468, -0.09400066
 712921384, 0.08, 0.06, 349.2, 563.19, 33.6216407, 72.9556848, 0.9955685, 0.0007593755, 0.0005161382, -0.09403449
 713021344, 0.06, 0.05, 349.2, 563.42, 33.6216407, 72.9556848, 0.9955651, 0.0006376585, 0.0004229049, -0.09407207
 713121304, 0.05, 0.04, 349.19, 563.64, 33.6216407, 72.9556848, 0.9955611, 0.0004941761, 0.0003344393, -0.09411556
 713221264, 0.04, 0.02, 349.19, 563.86, 33.6216407, 72.9556848, 0.9955568, 0.00041041, 0.000188887, -0.09416143
 713321224, 0.04, 0.02, 349.18, 564.06, 33.6216407, 72.9556848, 0.9955527, 0.0003875132, 0.0001416335, -0.09420554
 713421184, 0.02, 0.01, 349.18, 564.26, 33.6216407, 72.9556848, 0.9955486, 0.0002341818, 8.71238E-05, -0.09424931
 713521144, 0.01, 0, 349.17, 564.46, 33.6216407, 72.9556848, 0.9955441, 0.0001332721, 2.76547E-05, -0.09429697
 713621104, 0.01, 0, 349.17, 564.65, 33.6216407, 72.9556848, 0.9955398, 0.0001289014, -1.201127E-05, -0.0943426
 713721064, 0.01, 0, 349.16, 564.83, 33.6216407, 72.9556848, 0.9955355, 0.0001248091, -4.957617E-05, -0.09438757
 713821024, 0, 0, 349.16, 565, 33.6216407, 72.9556848, 0.9955311, 6.818082E-05, -8.020731E-05, -0.09443397
 713920984, 0, 0, 349.15, 565.17, 33.6216407, 72.9556848, 0.995527, -2.249558E-05, -6.133244E-05, -0.09447762
 714020944, -0.01, -0.01, 349.15, 565.34, 33.6216407, 72.9556848, 0.9955239, -0.0001187863, -8.334059E-05, -0.09451046
 714120904, -0.01, -0.02, 349.15, 565.49, 33.6216407, 72.9556848, 0.9955218, -0.0001739132, -0.000205292, -0.09453229
 714220864, -0.02, -0.02, 349.14, 565.65, 33.6216407, 72.9556848, 0.9955204, -0.0001949267, -0.0001997341, -0.09454709
 714320824, -0.01, 0, 349.14, 565.79, 33.6216407, 72.9556848, 0.9955204, -0.0001450989, -5.849571E-05, -0.09454772
 714420784, -0.01, 0.01, 349.15, 565.94, 33.6216407, 72.9556848, 0.9955209, -8.492332E-05, 0.0001001012, -0.09454156
 714521577, -0.01, 0.01, 349.15, 566.07, 33.6216407, 72.9556848, 0.995522, -0.0001197667, 0.0001007533, -0.09453057
 714621537, -0.02, 0, 349.15, 566.2, 33.6216407, 72.9556849, 0.995523, -0.0002325597, 9.070805E-05, -0.09451923
 714721497, -0.01, 0, 349.15, 566.33, 33.6216407, 72.9556849, 0.995524, -8.905875E-05, 5.987616E-05, -0.09450811
 714821457, 0, 0, 349.15, 566.45, 33.6216407, 72.9556849, 0.9955249, 3.54874E-05, 1.924974E-05, -0.09449943
 714921417, 0, 0, 349.15, 566.57, 33.6216407, 72.9556849, 0.9955252, -2.671196E-05, -5.323182E-05, -0.0944964
 715021377, 0, -0.01, 349.15, 566.68, 33.6216407, 72.9556849, 0.9955252, -7.254018E-05, -0.0001174058, -0.09449702
 715121337, -0.01, -0.01, 349.15, 566.78, 33.6216407, 72.9556849, 0.995525, -0.00012138, -0.0001150632, -0.09449852
 715221297, -0.01, -0.01, 349.15, 566.88, 33.6216407, 72.9556849, 0.9955239, -0.0001130722, -0.0001295828, -0.09451026
 715321257, -0.01, -0.01, 349.15, 566.98, 33.6216407, 72.9556849, 0.9955225, -0.0001153384, -0.000150554, -0.09452481
 715421217, 0, -0.01, 349.14, 567.07, 33.6216407, 72.9556849, 0.9955207, -3.877019E-05, -0.0001369976, -0.09454455
 715521177, 0, 0, 349.14, 567.16, 33.6216407, 72.9556849, 0.9955184, 6.054525E-05, -1.424234E-06, -0.09456772
 715621137, 0, 0, 349.14, 567.25, 33.6216407, 72.9556849, 0.9955155, 5.626158E-05, 4.214185E-05, -0.09459828
 715721097, 0, 0, 349.13, 567.36, 33.6216407, 72.9556849, 0.9955121, 3.731762E-05, 2.636813E-05, -0.0946345
 715821057, 0, 0, 349.13, 567.47, 33.6216407, 72.9556849, 0.9955085, 1.334664E-05, 1.062355E-05, -0.09467233
 715921017, 0, 0, 349.13, 567.59, 33.6216407, 72.9556849, 0.995505, -1.464128E-05, 5.31669E-06, -0.09470919
 716020977, 0, 0, 349.12, 567.73, 33.6216407, 72.9556849, 0.9955015, -1.410499E-05, -1.738883E-05, -0.09474612
 716120937, 0, 0, 349.12, 567.87, 33.6216407, 72.9556849, 0.9954981, 4.582472E-05, 2.513896E-05, -0.09478104
 716220897, 0, 0, 349.11, 568.03, 33.6216407, 72.9556849, 0.9954947, -2.782718E-05, 2.464848E-05, -0.09481683
 716320857, 0, 0, 349.11, 568.2, 33.6216407, 72.9556849, 0.9954916, -7.275332E-05, 3.08778E-05, -0.09484974
 716420817, -0.01, 0, 349.11, 568.38, 33.6216407, 72.9556849, 0.9954897, -8.411513E-05, 5.880408E-05, -0.09486972
 716520777, 0, 0.01, 349.11, 568.57, 33.6216407, 72.9556849, 0.9954882, 3.186558E-05, 0.0001419644, -0.09488578
 716621570, 0, 0.01, 349.1, 568.77, 33.6216407, 72.9556849, 0.9954866, 2.564988E-05, 0.0001502702, -0.09490188
 716721530, 0, 0.01, 349.1, 568.99, 33.6216407, 72.9556849, 0.995485, 2.864179E-05, 0.0001604608, -0.09491864
 716821490, 0, 0.02, 349.1, 569.21, 33.6216407, 72.9556849, 0.9954842, 2.234023E-05, 0.0002028333, -0.09492689
 716921450, 0, 0.02, 349.1, 569.44, 33.6216407, 72.9556849, 0.9954834, 7.45589E-05, 0.0002021305, -0.09493544
 717021410, 0, 0.01, 349.1, 569.68, 33.6216407, 72.9556849, 0.9954824, 7.569879E-05, 0.000145257, -0.09494566
 717121370, 0.01, 0.01, 349.1, 569.93, 33.6216407, 72.9556849, 0.9954814, 0.0001140047, 0.0001438567, -0.09495726
 717221330, 0.01, 0.01, 349.1, 570.18, 33.6216407, 72.955685, 0.9954799, 0.0001368804, 0.000107413, -0.0949724
 717321290, 0.01, 0.01, 349.09, 570.43, 33.6216407, 72.955685, 0.9954778, 0.0001671583, 0.0001226164, -0.09499398
 717421250, 0.01, 0.01, 349.09, 570.68, 33.6216407, 72.955685, 0.9954758, 0.0001460083, 9.739138E-05, -0.09501514
 717521210, 0.01, 0.01, 349.09, 570.93, 33.6216407, 72.955685, 0.9954739, 0.0001644185, 8.332988E-05, -0.09503577
 717621170, 0.01, 0, 349.09, 571.18, 33.6216407, 72.955685, 0.9954727, 0.0001754274, 2.851559E-05, -0.0950481
 717721130, 0.01, 0.01, 349.08, 571.43, 33.6216407, 72.955685, 0.995471, 0.0001135546, 8.526394E-05, -0.09506587
 717821090, 0, 0.01, 349.08, 571.68, 33.6216407, 72.955685, 0.9954692, 8.493818E-05, 0.0001076597, -0.09508421
 717921050, 0, 0.01, 349.08, 571.92, 33.6216407, 72.955685, 0.9954667, 7.41301E-05, 0.0001468892, -0.09511061
 718021010, 0, 0.01, 349.08, 572.17, 33.6216407, 72.955685, 0.9954634, -1.86329E-05, 0.000155921, -0.09514557
 718120970, 0, 0.01, 349.07, 572.41, 33.6216407, 72.955685, 0.9954599, -7.013992E-05, 0.0001189003, -0.09518191
 718220930, -0.01, 0.01, 349.07, 572.65, 33.6216407, 72.955685, 0.9954561, -0.0001229418, 0.000169693, -0.09522178
 718320890, -0.01, 0.01, 349.06, 572.89, 33.6216407, 72.955685, 0.9954518, -9.372364E-05, 0.000130777, -0.09526634
 718420850, -0.01, 0.01, 349.06, 573.13, 33.6216407, 72.955685, 0.9954477, -0.0001259227, 0.0001018178, -0.09530906
 718520810, -0.01, 0, 349.05, 573.37, 33.6216407, 72.955685, 0.9954442, -0.0001169891, 6.448393E-05, -0.09534526
 718620770, -0.01, 0, 349.05, 573.61, 33.6216407, 72.955685, 0.9954413, -9.404869E-05, 8.130993E-05, -0.0953765
 718721563, -0.01, 0, 349.05, 573.85, 33.6216407, 72.955685, 0.9954392, -0.000129127, 9.245484E-05, -0.09539822
 718821523, -0.01, 0, 349.04, 574.09, 33.6216407, 72.955685, 0.9954374, -0.0001572513, 9.741605E-05, -0.09541684
 718921483, -0.02, 0, 349.04, 574.32, 33.6216407, 72.955685, 0.9954351, -0.000196863, 2.206308E-05, -0.09544081
 719021443, -0.02, 0, 349.04, 574.56, 33.6216407, 72.955685, 0.9954326, -0.0002288333, -4.909502E-05, -0.09546676
 719121403, -0.02, -0.01, 349.04, 574.8, 33.6216407, 72.955685, 0.9954302, -0.0002579943, -0.0001093028, -0.09549242
 719221363, -0.03, 0, 349.03, 575.04, 33.6216407, 72.955685, 0.9954274, -0.0002692869, -2.017895E-05, -0.09552064
 719321323, -0.02, 0, 349.03, 575.27, 33.6216407, 72.955685, 0.9954252, -0.0001852661, 0.0001004071, -0.09554395
 719421283, -0.02, 0.01, 349.03, 575.51, 33.6216407, 72.955685, 0.9954228, -0.0001713991, 0.0001453252, -0.0955682
 719521243, -0.01, 0.01, 349.02, 575.75, 33.6216407, 72.955685, 0.9954206, -0.0001418158, 0.0001424448, -0.09559224
 719621203, -0.01, 0.01, 349.02, 575.99, 33.6216407, 72.955685, 0.9954186, -0.0001455073, 0.000140918, -0.09561221
 719721163, -0.01, 0.01, 349.02, 576.22, 33.6216407, 72.955685, 0.995417, -0.0001230515, 0.00010718, -0.09562947
 719821123, -0.01, 0, 349.02, 576.46, 33.6216407, 72.955685, 0.995416, -0.0001564813, 8.44867E-05, -0.09563945
 719921083, -0.01, 0, 349.02, 576.7, 33.6216407, 72.955685, 0.9954146, -0.0001010471, 8.704588E-05, -0.09565524
 720021043, -0.01, 0, 349.02, 576.94, 33.6216407, 72.955685, 0.9954134, -0.0001375064, 5.237107E-05, -0.09566681
 720121003, -0.01, 0, 349.01, 577.17, 33.6216407, 72.955685, 0.9954124, -0.0001098752, 4.87412E-05, -0.0956773
 720220963, -0.01, 0, 349.01, 577.41, 33.6216407, 72.955685, 0.995411, -0.000113247, 3.042365E-05, -0.095692
 720320923, 0, 0, 349.01, 577.65, 33.6216407, 72.955685, 0.995409, -7.743767E-05, 2.495406E-05, -0.09571254
 720420883, 0, 0, 349.01, 577.89, 33.6216407, 72.955685, 0.9954066, -7.369467E-05, 4.702124E-06, -0.09573783
 720520843, 0, 0, 349, 578.12, 33.6216407, 72.955685, 0.9954035, -2.672692E-05, -2.062507E-06, -0.09576994
 720620803, 0, 0, 349, 578.36, 33.6216407, 72.955685, 0.9954001, -5.768784E-05, -2.490724E-07, -0.09580545
 720720763, 0, 0, 349, 578.6, 33.6216407, 72.955685, 0.9953963, -5.571121E-05, -1.593557E-05, -0.09584495
 720821556, -0.01, 0, 348.99, 578.84, 33.6216407, 72.955685, 0.995392, -9.194099E-05, -4.259364E-07, -0.09588876
 720921516, 0, 0, 348.98, 579.08, 33.6216407, 72.955685, 0.9953876, -7.237888E-05, -4.20624E-06, -0.09593596
 721021476, 0, 0, 348.98, 579.31, 33.6216407, 72.955685, 0.9953828, -5.531981E-05, -3.904249E-05, -0.09598512
 721121436, 0, 0, 348.97, 579.55, 33.6216407, 72.955685, 0.9953781, -5.205103E-05, -7.546962E-06, -0.09603363
 721221396, 0, 0, 348.97, 579.79, 33.6216407, 72.955685, 0.9953735, -5.890383E-05, -1.546608E-05, -0.09608094
 721321356, 0, 0, 348.96, 580.03, 33.6216407, 72.955685, 0.9953697, -6.348978E-05, -3.429618E-05, -0.09612069
 721421316, 0, 0, 348.96, 580.26, 33.6216406, 72.955685, 0.9953664, -8.480683E-05, -3.459548E-05, -0.09615496
 721521276, 0, 0, 348.96, 580.5, 33.6216406, 72.955685, 0.9953637, -5.899081E-05, -5.871179E-05, -0.0961825
 721621236, 0, -0.01, 348.95, 580.74, 33.6216406, 72.955685, 0.9953617, -7.155221E-05, -8.530228E-05, -0.09620307
 721721196, 0, -0.01, 348.95, 580.98, 33.6216406, 72.955685, 0.99536, -1.955445E-05, -0.0001338526, -0.09622087
 721821156, 0, -0.01, 348.95, 581.21, 33.6216406, 72.955685, 0.9953586, -4.570998E-05, -0.0001669044, -0.09623546
 721921116, 0, -0.02, 348.95, 581.45, 33.6216406, 72.955685, 0.9953576, -4.748536E-05, -0.0002184702, -0.09624606
 722021076, 0, -0.02, 348.95, 581.69, 33.6216406, 72.955685, 0.9953588, -7.614258E-05, -0.0002523292, -0.0962333
 722121036, 0, -0.02, 348.95, 581.92, 33.6216406, 72.955685, 0.9953611, -7.072978E-05, -0.0002502449, -0.09620912
 722220996, 0, -0.02, 348.96, 582.16, 33.6216406, 72.955685, 0.9953627, -8.007546E-05, -0.0002403396, -0.0961928
 722320956, 0, -0.02, 348.96, 582.4, 33.6216406, 72.955685, 0.9953629, -7.509509E-05, -0.0002508372, -0.09619033
 722420916, 0, -0.03, 348.96, 582.64, 33.6216406, 72.955685, 0.9953629, -5.48081E-05, -0.0002674414, -0.09619124
 722520876, 0, -0.02, 348.95, 582.87, 33.6216406, 72.955685, 0.9953618, -2.271789E-05, -0.0002021492, -0.09620219
 722620836, 0, -0.02, 348.95, 583.11, 33.6216406, 72.955685, 0.9953594, -3.238739E-05, -0.0001912778, -0.09622701
 722720796, 0, -0.02, 348.94, 583.35, 33.6216406, 72.955685, 0.9953542, -2.921021E-05, -0.0002070507, -0.09628095
 722821589, 0, -0.02, 348.94, 583.59, 33.6216406, 72.955685, 0.9953493, -3.696864E-05, -0.0002335839, -0.09633184
 722921549, 0, -0.01, 348.93, 583.83, 33.6216406, 72.955685, 0.9953448, 9.064961E-06, -0.0001760564, -0.09637754
 723021509, 0, -0.01, 348.93, 584.06, 33.6216406, 72.955685, 0.9953409, -7.447082E-06, -0.0001198678, -0.09641823
 723121469, 0, 0, 348.92, 584.3, 33.6216406, 72.955685, 0.9953371, -2.845622E-06, -2.742225E-05, -0.09645714
 723221429, 0, 0, 348.92, 584.54, 33.6216406, 72.955685, 0.9953334, 1.488187E-06, 5.869974E-05, -0.09649604
 723321389, 0, 0.01, 348.92, 584.78, 33.6216406, 72.955685, 0.9953296, 5.57569E-06, 0.0001389283, -0.09653494
 723421349, 0, 0.01, 348.91, 585.02, 33.6216406, 72.955685, 0.9953259, -1.475733E-06, 0.0001012335, -0.09657299
 723521309, 0, 0, 348.91, 585.25, 33.6216406, 72.955685, 0.9953223, -2.028405E-05, -6.053527E-05, -0.09661017
 723621269, 0, -0.02, 348.9, 585.49, 33.6216406, 72.955685, 0.9953188, -7.210785E-05, -0.0002080451, -0.09664597
 723721229, 0, -0.03, 348.9, 585.73, 33.6216406, 72.955685, 0.9953173, -7.865992E-05, -0.0003011853, -0.09666133
 723821189, -0.01, -0.03, 348.9, 585.97, 33.6216406, 72.955685, 0.9953172, -0.0001440852, -0.0003132161, -0.09666222
 723921149, -0.01, -0.02, 348.9, 586.21, 33.6216406, 72.955685, 0.9953192, -0.0001188883, -0.0002014556, -0.09664198
 724021109, -0.01, -0.02, 348.91, 586.44, 33.6216406, 72.955685, 0.9953227, -0.0001307144, -0.0001933477, -0.09660573
 724121069, -0.01, -0.01, 348.91, 586.68, 33.6216406, 72.955685, 0.995324, -0.0001067371, -0.0001322279, -0.09659228
 724221029, -0.01, -0.01, 348.91, 586.92, 33.6216406, 72.955685, 0.9953231, -0.0001071765, -0.0001346706, -0.09660198
 724320989, -0.01, 0, 348.91, 587.16, 33.6216406, 72.955685, 0.9953207, -0.0001060493, -7.520502E-05, -0.09662708
 724420949, 0, 0, 348.9, 587.4, 33.6216406, 72.955685, 0.9953154, -5.351976E-05, -6.533428E-05, -0.09668139
 724520909, 0, -0.01, 348.89, 587.64, 33.6216406, 72.955685, 0.9953094, -1.122933E-05, -0.0001253048, -0.09674277
 724620869, 0, -0.02, 348.88, 587.88, 33.6216406, 72.9556849, 0.9953035, 7.671131E-06, -0.0001792501, -0.09680326
 724720829, -0.01, -0.02, 348.88, 588.11, 33.6216406, 72.9556849, 0.995298, -0.0001454088, -0.000212976, -0.09685945
 724820789, -0.03, -0.03, 348.87, 588.35, 33.6216406, 72.9556849, 0.9952926, -0.0002880315, -0.0002444655, -0.09691527
 724921582, -0.02, -0.01, 348.87, 588.59, 33.6216406, 72.9556849, 0.9952881, -0.0002106466, -0.0001005539, -0.09696144
 725021542, -0.01, 0, 348.86, 588.83, 33.6216406, 72.9556849, 0.9952839, -8.639645E-05, 7.564743E-05, -0.09700465
 725121502, 0.01, 0.02, 348.86, 589.07, 33.6216406, 72.9556849, 0.9952794, 0.0001647116, 0.0002204029, -0.0970513
 725221462, 0.04, 0.02, 348.85, 589.31, 33.6216406, 72.9556849, 0.9952765, 0.0004198431, 0.0002169965, -0.09708039
 725321422, 0.05, 0.03, 348.85, 589.55, 33.6216406, 72.9556849, 0.9952762, 0.0005340905, 0.0002125807, -0.09708274
 725421382, 0.06, 0.02, 348.86, 589.79, 33.6216406, 72.9556849, 0.9952785, 0.0005513986, 0.0001412355, -0.09705809
 725521342, 0.04, 0.01, 348.86, 590.02, 33.6216406, 72.9556849, 0.9952821, 0.0004127978, 0.0001106273, -0.09702308
 725621302, 0.03, 0.01, 348.86, 590.26, 33.6216406, 72.9556849, 0.9952856, 0.0002849483, 9.524998E-05, -0.09698756
 725721262, 0.02, 0.01, 348.87, 590.5, 33.6216406, 72.9556849, 0.9952889, 0.0002344605, 0.0001086532, -0.09695325
 725821222, 0.01, 0.01, 348.87, 590.74, 33.6216406, 72.9556849, 0.9952922, 0.0001687526, 0.0001111748, -0.09691987
 725921182, 0.01, 0, 348.88, 590.98, 33.6216406, 72.9556849, 0.9952956, 0.0001011444, 4.773029E-05, -0.0968853
 726021142, 0, 0, 348.88, 591.22, 33.6216406, 72.9556849, 0.9952989, 3.81672E-05, -1.145964E-05, -0.09685072
 726121102, 0, 0, 348.88, 591.45, 33.6216406, 72.9556849, 0.9953021, 3.318111E-05, -7.1914E-05, -0.09681743
 726221062, 0.01, -0.01, 348.89, 591.69, 33.6216406, 72.9556849, 0.9953052, 0.0001171058, -0.0001473091, -0.09678659
 726321022, 0.02, -0.01, 348.89, 591.93, 33.6216406, 72.9556849, 0.9953062, 0.0002009179, -0.0001606881, -0.09677541
 726420982, 0.02, -0.01, 348.89, 592.17, 33.6216406, 72.9556849, 0.9953038, 0.0002146759, -0.0001569673, -0.09680054
 726520942, 0, -0.01, 348.88, 592.41, 33.6216406, 72.9556849, 0.9952985, 5.462922E-05, -0.00012938, -0.09685539
 726620902, 0, 0, 348.87, 592.64, 33.6216407, 72.9556849, 0.9952912, -9.185698E-05, -7.643327E-05, -0.09692962
 726720862, 0, 0, 348.86, 592.88, 33.6216407, 72.9556849, 0.9952844, -5.125076E-05, -3.986402E-05, -0.09700011
 726820822, 0, 0, 348.85, 593.12, 33.6216407, 72.9556849, 0.9952782, 2.621958E-05, -5.022425E-05, -0.09706384
 726920782, 0, 0, 348.85, 593.36, 33.6216407, 72.9556849, 0.9952716, 3.291964E-05, -5.740033E-06, -0.09713123
 727021575, 0, 0, 348.84, 593.6, 33.6216407, 72.9556849, 0.9952639, 1.833916E-05, -1.228546E-05, -0.09720967
 727121535, 0, 0, 348.83, 593.84, 33.6216407, 72.9556849, 0.9952564, 5.139597E-05, 2.905087E-05, -0.09728695
 727221495, 0, 0.01, 348.82, 594.07, 33.6216407, 72.9556849, 0.9952508, 8.938432E-05, 0.000137943, -0.09734394
 727321455, 0, 0.02, 348.82, 594.31, 33.6216407, 72.9556849, 0.9952458, 6.064528E-05, 0.0002377913, -0.0973952
 727421415, 0, 0.02, 348.81, 594.55, 33.6216407, 72.9556849, 0.9952407, 2.824296E-05, 0.0002179407, -0.09744717
 727521375, 0, 0.01, 348.81, 594.79, 33.6216407, 72.9556849, 0.9952363, 4.157296E-05, 0.0001052876, -0.09749189
 727621335, 0, 0, 348.8, 595.03, 33.6216407, 72.9556849, 0.9952339, 2.637667E-05, 6.934788E-05, -0.09751642
 727721295, 0, 0, 348.8, 595.26, 33.6216407, 72.9556849, 0.9952327, 3.715492E-05, 8.04268E-05, -0.0975287
 727821255, 0, 0.01, 348.8, 595.5, 33.6216407, 72.9556849, 0.9952343, 3.22268E-05, 9.606495E-05, -0.09751212
 727921215, 0, 0.01, 348.81, 595.74, 33.6216407, 72.9556849, 0.9952393, 2.902758E-05, 0.0001421688, -0.09746123
 728021175, 0, 0.01, 348.82, 595.98, 33.6216407, 72.9556849, 0.9952446, -1.967882E-06, 0.000130124, -0.09740711
 728121135, 0, 0.01, 348.82, 596.21, 33.6216407, 72.9556849, 0.9952487, 2.190557E-05, 0.0001679492, -0.09736586
 728221095, 0, 0.01, 348.82, 596.45, 33.6216407, 72.9556849, 0.9952493, 1.795636E-05, 0.000164045, -0.09735912
 728321055, 0, 0.01, 348.82, 596.69, 33.6216407, 72.9556849, 0.995248, 2.31772E-05, 0.0001728485, -0.09737282
 728421015, 0, 0.01, 348.82, 596.93, 33.6216407, 72.9556849, 0.9952461, -9.642751E-06, 0.0001355987, -0.0973921
 728520975, 0, 0.01, 348.81, 597.17, 33.6216407, 72.9556849, 0.9952434, 1.859755E-05, 0.0001456943, -0.09741936
 728620935, 0, 0.01, 348.81, 597.4, 33.6216407, 72.9556849, 0.9952393, -4.286395E-06, 0.0001228134, -0.09746117
 728720895, 0, 0.01, 348.8, 597.64, 33.6216407, 72.9556849, 0.9952348, 7.796878E-05, 0.000148128, -0.09750705
 728820855, 0, 0.01, 348.8, 597.88, 33.6216407, 72.9556849, 0.9952298, 4.589042E-05, 0.0001348301, -0.09755836
 728920815, 0, 0.02, 348.79, 598.12, 33.6216407, 72.9556849, 0.9952255, 2.343584E-05, 0.0001797681, -0.09760209
 729020775, 0, 0.01, 348.79, 598.36, 33.6216407, 72.9556849, 0.9952213, -8.869568E-06, 0.0001645394, -0.09764479
 729121568, 0, 0.01, 348.78, 598.6, 33.6216407, 72.9556849, 0.9952172, -4.442851E-05, 0.0001380139, -0.09768698
 729221528, 0, 0.01, 348.78, 598.83, 33.6216407, 72.9556849, 0.9952144, -4.913174E-05, 0.0001535957, -0.0977153
 729321488, 0, 0.01, 348.78, 599.07, 33.6216407, 72.9556849, 0.9952129, -1.179835E-05, 0.0001609318, -0.09773111
 729421448, 0, 0.01, 348.78, 599.31, 33.6216407, 72.9556849, 0.9952135, 1.83661E-06, 0.0001421744, -0.09772451
 729521408, 0, 0.01, 348.78, 599.55, 33.6216407, 72.9556849, 0.995213, 4.507483E-05, 9.175833E-05, -0.09773004
 729621368, 0, 0, 348.77, 599.78, 33.6216407, 72.9556849, 0.9952089, 3.976738E-05, 5.923808E-05, -0.09777181
 729721328, 0, 0, 348.77, 600.02, 33.6216407, 72.9556849, 0.9952036, 4.068862E-05, 6.711184E-05, -0.09782508
 729821288, 0, 0, 348.76, 600.26, 33.6216407, 72.9556849, 0.9951991, 2.875636E-06, 3.447381E-05, -0.09787145
 729921248, 0, 0, 348.76, 600.5, 33.6216407, 72.9556849, 0.9951948, 1.711249E-05, 5.905274E-05, -0.09791452
 730021208, 0, 0, 348.75, 600.73, 33.6216407, 72.9556849, 0.995191, 5.296364E-05, 8.089182E-05, -0.09795319
 730121168, 0, 0.01, 348.75, 600.96, 33.6216407, 72.9556849, 0.9951876, 3.924082E-05, 9.419811E-05, -0.09798841
 730221128, 0, 0, 348.74, 601.18, 33.6216407, 72.9556849, 0.9951845, -4.057877E-05, 4.609345E-05, -0.09801907
 730321088, 0, 0, 348.74, 601.41, 33.6216407, 72.9556849, 0.995182, 3.129167E-06, 7.028558E-05, -0.09804519
 730421048, 0, 0, 348.74, 601.62, 33.6216407, 72.9556849, 0.9951798, 3.816443E-05, 6.247984E-05, -0.09806714
 730521008, 0, 0, 348.74, 601.83, 33.6216407, 72.9556849, 0.9951782, 7.305289E-05, 5.865673E-05, -0.09808326
 730620968, 0, 0.01, 348.74, 602.04, 33.6216407, 72.9556849, 0.995177, 5.926876E-06, 9.845568E-05, -0.09809595
 730720928, 0, 0.01, 348.73, 602.24, 33.6216407, 72.9556849, 0.9951761, 5.833327E-05, 0.0001433251, -0.09810472
 730820888, 0, 0.01, 348.73, 602.43, 33.6216407, 72.9556849, 0.9951753, 9.538277E-05, 8.388866E-05, -0.09811252
 730920848, 0, 0.01, 348.73, 602.62, 33.6216407, 72.9556849, 0.9951745, 7.416731E-05, 8.893709E-05, -0.09812057
 731020808, 0, 0, 348.73, 602.8, 33.6216407, 72.9556849, 0.9951739, 2.144478E-05, 7.035625E-05, -0.09812705
 731120768, 0, 0.01, 348.73, 602.97, 33.6216407, 72.9556849, 0.9951729, 6.635987E-05, 0.0001127822, -0.09813707
 731221561, 0, 0.01, 348.73, 603.15, 33.6216407, 72.9556849, 0.9951718, 7.556323E-05, 0.0001096298, -0.09814837
 731321521, 0.01, 0.01, 348.73, 603.31, 33.6216407, 72.9556849, 0.9951704, 0.000111683, 0.0001264977, -0.09816203
 731421481, 0.01, 0.01, 348.73, 603.47, 33.6216407, 72.9556849, 0.995169, 0.0001007398, 0.0001267915, -0.09817678
 731521441, 0.01, 0.01, 348.72, 603.62, 33.6216407, 72.9556849, 0.9951672, 0.0001086386, 9.0204E-05, -0.09819502
 731621401, 0, 0, 348.72, 603.77, 33.6216407, 72.9556849, 0.9951651, 7.320403E-05, 2.291112E-05, -0.09821665
 731721361, 0, 0, 348.72, 603.92, 33.6216407, 72.9556849, 0.9951607, 2.597875E-05, 6.101085E-05, -0.09826103
 731821321, 0, 0.01, 348.71, 604.05, 33.6216407, 72.9556849, 0.9951559, -2.546591E-05, 0.0001061891, -0.09830903
 731921281, 0, 0.01, 348.71, 604.19, 33.6216407, 72.9556849, 0.9951512, -1.075818E-05, 0.0001143804, -0.09835715
 732021241, 0, 0.01, 348.7, 604.31, 33.6216407, 72.9556849, 0.9951463, 3.92113E-06, 0.0001029948, -0.09840634
 732121201, 0, 0, 348.7, 604.44, 33.6216407, 72.9556849, 0.9951425, -5.198495E-06, 3.537429E-05, -0.09844485
 732221161, 0, 0, 348.69, 604.55, 33.6216407, 72.955685, 0.9951394, -5.354048E-05, -5.478489E-05, -0.09847573
 732321121, 0, 0, 348.69, 604.66, 33.6216407, 72.955685, 0.9951372, -6.007337E-05, -1.372942E-05, -0.09849937
 732421081, 0, 0, 348.69, 604.77, 33.6216407, 72.955685, 0.9951354, -6.715556E-05, 2.571025E-05, -0.09851691
 732521041, 0, 0, 348.69, 604.87, 33.6216407, 72.955685, 0.9951354, -5.394433E-05, 2.05694E-05, -0.0985168
 732621001, -0.01, 0, 348.69, 604.97, 33.6216406, 72.955685, 0.9951356, -0.0001146828, -1.071079E-05, -0.09851441
 732720961, -0.02, 0, 348.69, 605.06, 33.6216406, 72.955685, 0.995136, -0.000211078, -4.927489E-05, -0.09851088
 732820921, -0.02, 0, 348.69, 605.14, 33.6216406, 72.955685, 0.9951366, -0.0002104228, -1.388188E-05, -0.09850481
 732920881, -0.02, 0, 348.69, 605.22, 33.6216406, 72.955685, 0.9951369, -0.0001807473, 1.126088E-05, -0.09850195
 733020841, -0.02, 0, 348.69, 605.3, 33.6216406, 72.955685, 0.9951374, -0.0002140199, 9.449654E-05, -0.09849621
 733120801, -0.01, 0, 348.69, 605.37, 33.6216406, 72.955685, 0.9951382, -0.0001477621, 7.494104E-05, -0.09848887
 733220761, -0.01, 0, 348.69, 605.43, 33.6216406, 72.955685, 0.9951389, -0.0001031312, -4.310604E-05, -0.09848107
 733321554, 0, -0.02, 348.69, 605.49, 33.6216406, 72.955685, 0.9951397, -8.577148E-05, -0.0002049132, -0.09847359
 733421514, 0, -0.02, 348.69, 605.54, 33.6216406, 72.955685, 0.9951396, -1.916676E-05, -0.0002075837, -0.09847389
 733521474, 0, -0.02, 348.69, 605.59, 33.6216406, 72.955685, 0.9951385, -7.307665E-05, -0.0002229682, -0.09848496
 733621434, -0.01, -0.02, 348.69, 605.63, 33.6216406, 72.955685, 0.9951373, -0.0001385958, -0.0002055319, -0.09849778
 733721394, -0.02, -0.03, 348.69, 605.67, 33.6216406, 72.955685, 0.9951357, -0.0002367186, -0.0002451648, -0.09851313
 733821354, -0.02, -0.03, 348.69, 605.7, 33.6216406, 72.955685, 0.995134, -0.0002145356, -0.0002552803, -0.09853044
 733921314, -0.02, -0.02, 348.68, 605.72, 33.6216406, 72.955685, 0.9951319, -0.0002293053, -0.0002333633, -0.09855203
 734021274, -0.03, -0.04, 348.68, 605.73, 33.6216406, 72.955685, 0.9951296, -0.0003059554, -0.0003831513, -0.09857447
 734121234, 0, -0.1, 348.68, 605.74, 33.6216406, 72.955685, 0.9951264, -0.0001386986, -0.0008992559, -0.09860372
 734221194, 0.07, -0.32, 348.67, 605.74, 33.6216406, 72.955685, 0.9951195, 0.0003840408, -0.002891219, -0.09863486
 734321154, 0.23, -0.75, 348.67, 605.73, 33.6216406, 72.955685, 0.995097, 0.001382887, -0.006745497, -0.09866417
 734421114, 0.42, -1.3, 348.66, 605.73, 33.6216406, 72.955685, 0.9950465, 0.002567732, -0.01168943, -0.09868766
 734521074, 0.62, -1.86, 348.65, 605.72, 33.6216406, 72.955685, 0.9949684, 0.00382239, -0.01675391, -0.09870464
 734621034, 0.8, -2.39, 348.65, 605.71, 33.6216406, 72.955685, 0.9948705, 0.00495439, -0.0215348, -0.0987135
 734720994, 0.98, -2.88, 348.64, 605.71, 33.6216407, 72.955685, 0.9947606, 0.006074339, -0.02591365, -0.09870593
 734820954, 1.14, -3.34, 348.63, 605.7, 33.6216408, 72.955685, 0.9946397, 0.007044396, -0.03004155, -0.09869
 734920914, 1.31, -3.78, 348.62, 605.71, 33.6216411, 72.955685, 0.9945071, 0.008134685, -0.03399297, -0.09866041
 735020874, 1.46, -4.22, 348.61, 605.71, 33.6216414, 72.9556851, 0.9943604, 0.009013918, -0.03794835, -0.09862052
 735120834, 1.63, -4.65, 348.61, 605.72, 33.6216417, 72.9556851, 0.9942026, 0.01015953, -0.04181064, -0.09853885
 735220794, 1.8, -5.08, 348.61, 605.74, 33.621642, 72.9556851, 0.9940314, 0.01121994, -0.04571088, -0.09841821
 735321587, 1.97, -5.52, 348.63, 605.76, 33.6216426, 72.9556851, 0.9938607, 0.01236639, -0.04970024, -0.0980702
 735421547, 2.11, -5.97, 348.89, 605.79, 33.6216431, 72.9556853, 0.9938737, 0.01330125, -0.0536724, -0.09569498
 735521507, 2.19, -6.46, 349.82, 605.83, 33.6216438, 72.9556853, 0.9943869, 0.01402513, -0.05788262, -0.08745046
 735621467, 2.12, -7.02, 351.79, 605.87, 33.6216444, 72.9556856, 0.9954747, 0.01409493, -0.06238779, -0.07027969
 735721427, 1.91, -7.6, 354.69, 605.91, 33.6216453, 72.9556857, 0.9966407, 0.01361227, -0.06704339, -0.04502505
 735821387, 1.56, -8.23, 358.24, 605.97, 33.6216463, 72.9556858, 0.997222, 0.01250937, -0.07201639, -0.01433045
 735921347, 1.09, -8.87, 2.12, 606.03, 33.6216473, 72.955686, 0.9967709, 0.0109662, -0.0771829, 0.01924491
 736021307, 0.52, -9.49, 6.09, 606.09, 33.6216485, 72.9556863, 0.9951247, 0.008968833, -0.08244334, 0.05338081
 736121267, -0.08, -10.09, 9.89, 606.17, 33.6216498, 72.9556865, 0.9924136, 0.006815362, -0.08775332, 0.08583763
 736221227, -0.71, -10.67, 13.28, 606.25, 33.6216511, 72.9556868, 0.9890276, 0.004589277, -0.09313749, 0.1145811
 736321187, -1.29, -11.24, 16.07, 606.34, 33.6216528, 72.955687, 0.9855089, 0.002593513, -0.09855288, 0.1380321
 736421147, -1.77, -11.77, 18.12, 606.44, 33.6216545, 72.9556874, 0.9824377, 0.000945532, -0.1036892, 0.1551251
 736521107, -2.1, -12.21, 19.38, 606.55, 33.6216563, 72.9556877, 0.9802935, -7.154026E-05, -0.1079092, 0.1654698
 736621067, -2.26, -12.5, 19.85, 606.67, 33.6216584, 72.9556881, 0.9793517, -0.0005637775, -0.1106215, 0.1692124
 736721027, -2.23, -12.7, 19.58, 606.8, 33.6216605, 72.9556884, 0.9795501, -0.0003145332, -0.1123466, 0.1669126
 736820987, -2.06, -12.85, 18.68, 606.94, 33.6216628, 72.9556889, 0.9806957, 0.000518089, -0.113374, 0.1593175
 736920947, -1.73, -12.88, 17.25, 607.08, 33.6216652, 72.9556894, 0.9825872, 0.0019102, -0.1131516, 0.147362
 737020907, -1.32, -12.78, 15.42, 607.24, 33.6216679, 72.9556899, 0.9849057, 0.003546489, -0.1118422, 0.1320587
 737120867, -0.86, -12.66, 13.33, 607.4, 33.6216706, 72.9556904, 0.9872501, 0.005379477, -0.1103768, 0.1145649
 737220827, -0.4, -12.54, 11.14, 607.57, 33.6216736, 72.9556908, 0.9893493, 0.007145643, -0.1090349, 0.09616781
 737320787, 0.03, -12.42, 9.02, 607.75, 33.6216766, 72.9556915, 0.9910448, 0.008841415, -0.1078655, 0.07821215
 737421580, 0.41, -12.31, 7.07, 607.94, 33.6216797, 72.955692, 0.9923061, 0.01023779, -0.1068142, 0.06176102
 737521540, 0.71, -12.19, 5.46, 608.13, 33.6216828, 72.9556927, 0.9931592, 0.01126719, -0.1058135, 0.04807692
 737621500, 0.9, -12.11, 4.25, 608.33, 33.6216862, 72.9556932, 0.9936672, 0.01177912, -0.1051877, 0.0377135
 737721460, 1.01, -12.03, 3.47, 608.53, 33.6216895, 72.955694, 0.9939674, 0.0119589, -0.1044909, 0.03110407
 737821420, 1.01, -11.93, 3.16, 608.74, 33.6216931, 72.9556946, 0.9941421, 0.01170132, -0.1036389, 0.02834572
 737921380, 0.94, -11.86, 3.27, 608.96, 33.6216967, 72.9556953, 0.9941822, 0.01115611, -0.1030573, 0.02926589
 738021340, 0.79, -11.8, 3.77, 609.17, 33.6217003, 72.955696, 0.9941157, 0.01030496, -0.1025126, 0.03345204
 738121300, 0.59, -11.71, 4.58, 609.4, 33.621704, 72.9556966, 0.9939497, 0.009266376, -0.1017503, 0.04031277
 738221260, 0.36, -11.61, 5.62, 609.62, 33.6217077, 72.9556973, 0.9936453, 0.008110146, -0.1009394, 0.04913694
 738321220, 0.11, -11.48, 6.8, 609.85, 33.6217116, 72.955698, 0.9932206, 0.006934274, -0.09983206, 0.05914659
 738421180, -0.12, -11.34, 8.02, 610.08, 33.6217155, 72.9556989, 0.9926721, 0.005837026, -0.09864363, 0.06955275
 738521140, -0.33, -11.16, 9.2, 610.32, 33.6217193, 72.9556996, 0.9920678, 0.004882886, -0.0971577, 0.07961168
 738621100, -0.51, -10.99, 10.27, 610.56, 33.6217233, 72.9557003, 0.9914346, 0.004117209, -0.09579884, 0.08867467
 738721060, -0.63, -10.76, 11.15, 610.79, 33.6217272, 72.9557009, 0.9909105, 0.003649305, -0.0939228, 0.09623738
 738821020, -0.7, -10.5, 11.81, 611.03, 33.6217314, 72.9557018, 0.990553, 0.003344675, -0.09168208, 0.1019219
 738920980, -0.71, -10.21, 12.22, 611.27, 33.6217354, 72.9557025, 0.9904052, 0.003285098, -0.08915243, 0.1055394
 739020940, -0.68, -9.92, 12.39, 611.51, 33.6217394, 72.9557032, 0.9904681, 0.003399043, -0.08663864, 0.1070284
 739120900, -0.63, -9.78, 12.32, 611.75, 33.6217435, 72.955704, 0.990631, 0.0036855, -0.08542489, 0.1064857
 739220860, -0.56, -9.86, 12.04, 611.99, 33.6217477, 72.9557047, 0.9908284, 0.004135096, -0.08600845, 0.1041371
 739320820, -0.49, -10.02, 11.59, 612.23, 33.6217518, 72.9557054, 0.9911039, 0.004576393, -0.08737852, 0.1002851
 739420780, -0.39, -10.18, 11.01, 612.47, 33.6217558, 72.9557061, 0.9914718, 0.005091461, -0.08871761, 0.09532498
 739521573, -0.27, -10.29, 10.35, 612.71, 33.62176, 72.9557069, 0.9919235, 0.005681267, -0.08955242, 0.0896432
 739621533, -0.16, -10.35, 9.66, 612.94, 33.6217642, 72.9557076, 0.9923889, 0.006194117, -0.09005763, 0.08375866
 739721493, -0.04, -10.41, 8.99, 613.18, 33.6217683, 72.9557083, 0.9928097, 0.006702133, -0.09051815, 0.07804143
 739821453, 0.04, -10.46, 8.38, 613.42, 33.6217725, 72.955709, 0.993169, 0.007068873, -0.09088613, 0.07283623
 739921413, 0.13, -10.47, 7.87, 613.65, 33.6217765, 72.9557097, 0.9934709, 0.007411219, -0.09097145, 0.06844617
 740021373, 0.19, -10.49, 7.47, 613.89, 33.6217807, 72.9557105, 0.9936789, 0.007667012, -0.091144, 0.06508582
 740121333, 0.22, -10.5, 7.21, 614.12, 33.6217849, 72.9557112, 0.9938164, 0.007700074, -0.09120189, 0.06286418
 740221293, 0.22, -10.49, 7.1, 614.36, 33.6217891, 72.9557119, 0.9938863, 0.007649486, -0.09112794, 0.06186477
 740321253, 0.21, -10.47, 7.12, 614.59, 33.6217934, 72.9557126, 0.9938885, 0.00750188, -0.09099892, 0.06203757
 740421213, 0.16, -10.44, 7.26, 614.83, 33.6217977, 72.9557135, 0.993837, 0.007174978, -0.09076377, 0.06323345
 740521173, 0.12, -10.41, 7.5, 615.06, 33.6218019, 72.9557143, 0.9937317, 0.006988131, -0.09046667, 0.06530123
 740621133, 0.06, -10.37, 7.82, 615.3, 33.6218062, 72.955715, 0.9935824, 0.006745748, -0.090138, 0.06799728
 740721093, 0.01, -10.35, 8.18, 615.53, 33.6218104, 72.9557157, 0.9933836, 0.0065349, -0.08997153, 0.07107313
 740821053, -0.03, -10.31, 8.55, 615.77, 33.6218147, 72.9557165, 0.9931741, 0.0064187, -0.08969157, 0.07429291
 740921013, -0.08, -10.27, 8.92, 616, 33.6218189, 72.9557173, 0.9929702, 0.006247991, -0.08933082, 0.07740188
 741020973, -0.12, -10.22, 9.24, 616.24, 33.6218232, 72.9557179, 0.9927877, 0.006060028, -0.08890177, 0.08020128
 741120933, -0.15, -10.13, 9.51, 616.47, 33.6218275, 72.9557188, 0.9926622, 0.006026957, -0.08816841, 0.0825333
 741220893, -0.15, -10.09, 9.71, 616.71, 33.6218317, 72.9557196, 0.9925483, 0.006080307, -0.08780568, 0.08426813
 741320853, -0.16, -10.06, 9.84, 616.95, 33.621836, 72.9557203, 0.9924824, 0.006084175, -0.08750904, 0.08534582
 741420813, -0.16, -10.02, 9.88, 617.18, 33.6218403, 72.955721, 0.9924763, 0.006138223, -0.08719423, 0.08573397
 741520773, -0.14, -9.98, 9.85, 617.42, 33.6218446, 72.9557217, 0.9925292, 0.006244257, -0.08685097, 0.0854614
 741621566, -0.1, -9.93, 9.75, 617.66, 33.621849, 72.9557226, 0.9926425, 0.006411473, -0.08639526, 0.08459063
 741721526, -0.07, -9.88, 9.58, 617.89, 33.6218533, 72.9557234, 0.9927965, 0.006585844, -0.08593916, 0.08322435
 741821486, -0.04, -9.88, 9.38, 618.13, 33.6218576, 72.9557241, 0.9929475, 0.006647378, -0.0858689, 0.0814715
 741921446, 0, -9.84, 9.15, 618.36, 33.6218619, 72.9557248, 0.9931344, 0.006807594, -0.08554394, 0.0794981
 742021406, 0.02, -9.81, 8.91, 618.6, 33.6218662, 72.9557257, 0.9933169, 0.00690086, -0.085307, 0.07743778
 742121366, 0.04, -9.81, 8.67, 618.84, 33.6218704, 72.9557264, 0.9934753, 0.006903725, -0.08526682, 0.07542338
 742221326, 0.07, -9.81, 8.46, 619.07, 33.6218747, 72.9557272, 0.993613, 0.006940781, -0.08528733, 0.07356004
 742321286, 0.08, -9.81, 8.27, 619.31, 33.621879, 72.9557279, 0.9937289, 0.00692563, -0.08529281, 0.07197264
 742421246, 0.11, -9.81, 8.13, 619.55, 33.6218832, 72.9557287, 0.9938184, 0.007041554, -0.08528835, 0.07071941
 742521206, 0.13, -9.79, 8.02, 619.78, 33.6218875, 72.9557294, 0.9938982, 0.00710705, -0.08508369, 0.06983332
 742621166, 0.13, -9.78, 7.96, 620.02, 33.6218918, 72.9557303, 0.993943, 0.007096451, -0.0849639, 0.06934039
 742721126, 0.12, -9.77, 7.95, 620.26, 33.621896, 72.955731, 0.9939533, 0.00704017, -0.08493815, 0.06922932
 742821086, 0.11, -9.8, 7.98, 620.49, 33.6219003, 72.9557318, 0.9939184, 0.006956855, -0.08516556, 0.06946029
 742921046, 0.09, -9.79, 8.04, 620.73, 33.6219045, 72.9557325, 0.9938887, 0.006844209, -0.0850851, 0.06999306
 743021006, 0.07, -9.77, 8.13, 620.97, 33.6219088, 72.9557334, 0.9938519, 0.006711478, -0.0849127, 0.07073347
 743120966, 0.04, -9.76, 8.23, 621.2, 33.621913, 72.9557341, 0.9937967, 0.006533674, -0.08483651, 0.07161123
 743220926, 0.02, -9.74, 8.34, 621.44, 33.6219173, 72.9557349, 0.9937391, 0.006373882, -0.0847226, 0.07255393
 743320886, 0, -9.75, 8.45, 621.68, 33.6219215, 72.9557356, 0.993664, 0.006350146, -0.08480317, 0.07348413
 743420846, 0, -9.76, 8.55, 621.91, 33.6219258, 72.9557363, 0.9935949, 0.006336513, -0.08488809, 0.07431746
 743520806, -0.01, -9.77, 8.63, 622.15, 33.62193, 72.9557372, 0.9935309, 0.00632789, -0.08499743, 0.07504442
 743620766, -0.02, -9.79, 8.7, 622.39, 33.6219342, 72.955738, 0.9934768, 0.006235669, -0.08514047, 0.07560501
 743721559, -0.03, -9.77, 8.74, 622.62, 33.6219385, 72.9557387, 0.9934639, 0.006222425, -0.08497636, 0.07595962
 743821519, -0.02, -9.78, 8.75, 622.86, 33.6219428, 72.9557394, 0.9934514, 0.006260041, -0.08502363, 0.07606595
 743921479, -0.02, -9.79, 8.74, 623.1, 33.621947, 72.9557403, 0.9934524, 0.006271287, -0.08514155, 0.07592064
 744021439, -0.02, -9.78, 8.7, 623.33, 33.6219512, 72.9557411, 0.9934841, 0.006253911, -0.08508837, 0.07556579
 744121399, -0.01, -9.77, 8.64, 623.57, 33.6219555, 72.9557418, 0.9935339, 0.006331046, -0.08495222, 0.0750559
 744221359, 0, -9.77, 8.56, 623.81, 33.6219597, 72.9557425, 0.9935814, 0.006413104, -0.08494017, 0.07443232
 744321319, 0.02, -9.79, 8.48, 624.04, 33.6219639, 72.9557434, 0.9936144, 0.006498255, -0.08516021, 0.07372927
 744421279, 0.02, -9.82, 8.39, 624.28, 33.621968, 72.955744, 0.9936493, 0.006478784, -0.08540623, 0.0729718
 744521239, 0.03, -9.84, 8.31, 624.51, 33.6219724, 72.9557449, 0.993692, 0.006522521, -0.08552428, 0.07224434
 744621199, 0.05, -9.85, 8.23, 624.75, 33.6219765, 72.9557457, 0.9937288, 0.006604922, -0.08563118, 0.0716015
 744721159, 0.05, -9.85, 8.17, 624.99, 33.6219807, 72.9557464, 0.9937674, 0.006625881, -0.08565062, 0.07103779
 744821119, 0.05, -9.87, 8.11, 625.22, 33.6219849, 72.9557471, 0.9937877, 0.006554679, -0.08581942, 0.07055558
 744921079, 0.04, -9.89, 8.07, 625.46, 33.6219892, 72.955748, 0.9937968, 0.006462032, -0.08600816, 0.07020452
 745021039, 0.04, -9.89, 8.05, 625.69, 33.6219934, 72.9557487, 0.9938133, 0.006414411, -0.08598647, 0.07000258
 745120999, 0.04, -9.88, 8.04, 625.93, 33.6219977, 72.9557495, 0.9938224, 0.006407538, -0.0859331, 0.06993938
 745220959, 0.03, -9.88, 8.05, 626.17, 33.622002, 72.9557502, 0.9938212, 0.006370947, -0.08590651, 0.06999253
 745320919, 0.03, -9.85, 8.07, 626.4, 33.6220062, 72.9557509, 0.993834, 0.006378169, -0.08563192, 0.07014593
 745420879, 0.03, -9.85, 8.09, 626.64, 33.6220104, 72.9557518, 0.9938154, 0.006364598, -0.08568498, 0.07034682
 745520839, 0.03, -9.87, 8.11, 626.88, 33.6220147, 72.9557526, 0.9937903, 0.006354315, -0.08580004, 0.07056024
 745620799, 0.02, -9.87, 8.14, 627.11, 33.6220189, 72.9557533, 0.9937711, 0.00633929, -0.08584834, 0.0707744
 745721592, 0.02, -9.88, 8.17, 627.35, 33.6220232, 72.955754, 0.9937521, 0.006323879, -0.08589128, 0.07098913
 745821552, 0.01, -9.86, 8.19, 627.59, 33.6220274, 72.9557549, 0.9937521, 0.006292406, -0.08571225, 0.0712082
 745921512, 0.01, -9.84, 8.21, 627.82, 33.6220316, 72.9557556, 0.9937461, 0.006273823, -0.08561639, 0.07140822
 746021472, 0.01, -9.86, 8.23, 628.06, 33.6220359, 72.9557564, 0.993722, 0.006266087, -0.08577387, 0.0715553
 746121432, 0.01, -9.86, 8.24, 628.3, 33.6220401, 72.9557571, 0.9937142, 0.006296549, -0.08578152, 0.07165296
 746221392, 0, -9.88, 8.25, 628.53, 33.6220443, 72.9557579, 0.9936976, 0.006272505, -0.08594801, 0.07168434
 746321352, 0.01, -9.9, 8.24, 628.77, 33.6220486, 72.9557586, 0.9936864, 0.006325299, -0.08609101, 0.07166381
 746421312, 0.02, -9.91, 8.24, 629.01, 33.6220528, 72.9557593, 0.9936845, 0.006381738, -0.08616731, 0.0715932
 746521272, 0.02, -9.92, 8.22, 629.24, 33.622057, 72.9557602, 0.993685, 0.006435192, -0.08623207, 0.07150329
 746621232, 0.03, -9.92, 8.21, 629.48, 33.6220613, 72.955761, 0.9936892, 0.006485263, -0.08627205, 0.07139174
 746721192, 0.04, -9.92, 8.19, 629.71, 33.6220655, 72.9557617, 0.9937, 0.006532586, -0.08626948, 0.07124045
 746821152, 0.04, -9.93, 8.17, 629.95, 33.6220698, 72.9557624, 0.9937096, 0.00653758, -0.08631782, 0.07104743
 746921112, 0.03, -9.94, 8.15, 630.19, 33.622074, 72.9557633, 0.9937189, 0.006433649, -0.08640515, 0.07082134
 747021072, 0.02, -9.95, 8.12, 630.42, 33.6220782, 72.955764, 0.9937275, 0.006344878, -0.08651008, 0.07057922
 747121032, 0.02, -9.94, 8.09, 630.66, 33.6220825, 72.9557648, 0.9937513, 0.00635395, -0.08642812, 0.07034305
 747220992, 0.02, -9.93, 8.06, 630.9, 33.6220866, 72.9557655, 0.9937755, 0.006344375, -0.08633959, 0.07010978
 747320952, 0.03, -9.91, 8.04, 631.14, 33.622091, 72.9557662, 0.9938034, 0.006389171, -0.08618004, 0.06990673
 747420912, 0.04, -9.87, 8.02, 631.37, 33.6220951, 72.9557671, 0.9938445, 0.006409355, -0.08585023, 0.06972573
 747520872, 0.04, -9.86, 8, 631.61, 33.6220995, 72.9557677, 0.99387, 0.00640501, -0.08570095, 0.0695473
 747620832, 0.05, -9.86, 7.98, 631.85, 33.6221036, 72.9557686, 0.9938817, 0.006471764, -0.085697, 0.06937794
 747720792, 0.06, -9.87, 7.96, 632.08, 33.622108, 72.9557694, 0.99388, 0.006529346, -0.08584357, 0.06921509
 747821585, 0.06, -9.89, 7.94, 632.32, 33.6221121, 72.9557701, 0.9938776, 0.006528638, -0.08597516, 0.06908745
 747921545, 0.07, -9.85, 7.93, 632.56, 33.6221165, 72.9557708, 0.993911, 0.00655584, -0.08564632, 0.06901119
 748021505, 0.07, -9.84, 7.93, 632.8, 33.6221206, 72.9557715, 0.9939235, 0.006564994, -0.0855494, 0.06895128
 748121465, 0.07, -9.84, 7.92, 633.03, 33.6221249, 72.9557724, 0.9939257, 0.006596908, -0.08556656, 0.06889541
 748221425, 0.08, -9.84, 7.91, 633.27, 33.6221291, 72.9557732, 0.9939278, 0.006654346, -0.08558048, 0.0688429
 748321385, 0.08, -9.85, 7.91, 633.51, 33.6221334, 72.9557739, 0.9939294, 0.006653635, -0.08559667, 0.06879912
 748421345, 0.07, -9.85, 7.9, 633.74, 33.6221376, 72.9557746, 0.9939259, 0.006619272, -0.08565687, 0.06877739
 748521305, 0.07, -9.87, 7.91, 633.98, 33.6221418, 72.9557755, 0.9939119, 0.006611954, -0.08581083, 0.06878894
 748621265, 0.07, -9.89, 7.91, 634.22, 33.6221461, 72.9557762, 0.9938965, 0.00657914, -0.08595324, 0.0688364
 748721225, 0.06, -9.9, 7.92, 634.45, 33.6221503, 72.955777, 0.9938791, 0.006570709, -0.08608185, 0.06892885
 748821185, 0.06, -9.92, 7.94, 634.69, 33.6221546, 72.9557777, 0.9938587, 0.006533588, -0.08621989, 0.06905325
 748921145, 0.06, -9.92, 7.95, 634.93, 33.6221588, 72.9557784, 0.9938484, 0.006537355, -0.08624052, 0.06917563
 749021105, 0.05, -9.94, 7.96, 635.17, 33.6221631, 72.9557793, 0.9938249, 0.006535445, -0.08643173, 0.06927418
 749121065, 0.05, -9.93, 7.97, 635.4, 33.6221673, 72.9557799, 0.9938244, 0.006519136, -0.08638147, 0.06934525
 749221025, 0.05, -9.92, 7.98, 635.64, 33.6221716, 72.9557808, 0.9938333, 0.006510051, -0.08626324, 0.069366
 749320985, 0.05, -9.9, 7.97, 635.88, 33.6221759, 72.9557816, 0.9938505, 0.006518814, -0.08609733, 0.06932448
 749420945, 0.06, -9.88, 7.96, 636.11, 33.6221801, 72.9557823, 0.9938784, 0.006506841, -0.08587787, 0.06919779
 749520905, 0.06, -9.86, 7.94, 636.35, 33.6221844, 72.955783, 0.9939032, 0.006525129, -0.08572284, 0.06903304
 749620865, 0.06, -9.86, 7.92, 636.59, 33.6221886, 72.9557839, 0.9939104, 0.006509249, -0.08577717, 0.0688623
 749720825, 0.06, -9.87, 7.9, 636.83, 33.6221929, 72.9557846, 0.9939194, 0.006508214, -0.08580305, 0.06869993
 749820785, 0.06, -9.87, 7.88, 637.06, 33.6221971, 72.9557854, 0.9939291, 0.006522101, -0.0858039, 0.06855726
 749921578, 0.07, -9.85, 7.87, 637.3, 33.6222014, 72.9557861, 0.9939515, 0.006586009, -0.08561863, 0.06845779
 750021538, 0.07, -9.82, 7.86, 637.54, 33.6222056, 72.9557868, 0.9939768, 0.006541392, -0.08537659, 0.06839755
 750121498, 0.07, -9.82, 7.86, 637.78, 33.6222099, 72.9557877, 0.9939786, 0.00652031, -0.08537326, 0.06837741
 750221458, 0.07, -9.82, 7.86, 638.02, 33.6222142, 72.9557884, 0.9939721, 0.006492509, -0.08543255, 0.06839986
 750321418, 0.07, -9.8, 7.87, 638.25, 33.6222184, 72.9557892, 0.9939831, 0.006498019, -0.08525407, 0.06846175
 750421378, 0.06, -9.81, 7.87, 638.49, 33.6222227, 72.9557899, 0.9939738, 0.006474544, -0.08533309, 0.06850118
 750521338, 0.06, -9.83, 7.87, 638.73, 33.6222269, 72.9557907, 0.9939644, 0.006479113, -0.08543656, 0.06850876
 750621298, 0.06, -9.83, 7.87, 638.97, 33.6222311, 72.9557915, 0.9939608, 0.006471619, -0.08549976, 0.06848231
 750721258, 0.07, -9.84, 7.87, 639.21, 33.6222354, 72.9557923, 0.993959, 0.006500652, -0.0855467, 0.06844702
 750821218, 0.06, -9.84, 7.86, 639.44, 33.6222396, 72.955793, 0.9939603, 0.006487312, -0.08556446, 0.06840748
 750921178, 0.07, -9.83, 7.86, 639.68, 33.6222439, 72.9557938, 0.9939683, 0.006496601, -0.08551977, 0.06834571
 751021138, 0.07, -9.84, 7.85, 639.92, 33.6222481, 72.9557945, 0.9939741, 0.006484429, -0.08552369, 0.06825669
 751121098, 0.07, -9.86, 7.84, 640.16, 33.6222523, 72.9557952, 0.9939606, 0.006531639, -0.08574476, 0.06817389
 751221058, 0.07, -9.88, 7.83, 640.4, 33.6222566, 72.9557961, 0.9939538, 0.006569351, -0.08588236, 0.06809533
 751321018, 0.08, -9.87, 7.82, 640.64, 33.6222608, 72.9557968, 0.9939623, 0.00659244, -0.08583871, 0.0680226
 751420978, 0.08, -9.86, 7.81, 640.88, 33.6222651, 72.9557976, 0.9939744, 0.00660773, -0.08575258, 0.06795309
 751520938, 0.08, -9.84, 7.8, 641.12, 33.6222693, 72.9557983, 0.9939967, 0.006543755, -0.08555727, 0.06788094
 751620898, 0.07, -9.84, 7.8, 641.35, 33.6222736, 72.955799, 0.9939985, 0.006469928, -0.08557063, 0.06784467
 751720858, 0.07, -9.88, 7.8, 641.59, 33.6222778, 72.9557999, 0.9939697, 0.006492075, -0.08590459, 0.06784149
 751820818, 0.07, -9.92, 7.8, 641.83, 33.622282, 72.9558006, 0.9939368, 0.006538134, -0.08627786, 0.06784487
 751920778, 0.07, -9.95, 7.8, 642.07, 33.6222863, 72.9558014, 0.9939134, 0.006565362, -0.08653931, 0.06785267
 752021571, 0.07, -9.96, 7.8, 642.31, 33.6222906, 72.9558021, 0.9939037, 0.006579082, -0.08661883, 0.06789263
 752121531, 0.07, -9.96, 7.81, 642.55, 33.6222948, 72.9558029, 0.9938983, 0.006574295, -0.08663467, 0.06795122
 752221491, 0.07, -9.97, 7.82, 642.79, 33.6222991, 72.9558036, 0.9938869, 0.00658744, -0.08673203, 0.0679931
 752321451, 0.07, -9.98, 7.82, 643.03, 33.6223033, 72.9558045, 0.9938831, 0.006559369, -0.0867736, 0.06799789
 752421411, 0.07, -9.97, 7.81, 643.27, 33.6223076, 72.9558052, 0.9938941, 0.006535978, -0.08666186, 0.06798182
 752521371, 0.07, -9.98, 7.81, 643.5, 33.6223118, 72.955806, 0.9938852, 0.006622821, -0.08678254, 0.0679497
 752621331, 0.08, -10, 7.8, 643.74, 33.6223161, 72.9558067, 0.993872, 0.006710946, -0.08696094, 0.06790622
 752721291, 0.09, -10.02, 7.8, 643.98, 33.6223203, 72.9558074, 0.9938602, 0.006789873, -0.08712386, 0.06786224
 752821251, 0.1, -10.04, 7.79, 644.22, 33.6223246, 72.9558083, 0.9938496, 0.006862311, -0.08727259, 0.06781825
 752921211, 0.11, -10.05, 7.79, 644.46, 33.6223288, 72.955809, 0.993847, 0.006923822, -0.08733322, 0.06777287
 753021171, 0.11, -10.03, 7.78, 644.7, 33.6223331, 72.9558098, 0.9938666, 0.006924889, -0.08715048, 0.06772023
 753121131, 0.1, -10, 7.77, 644.94, 33.6223374, 72.9558105, 0.9938864, 0.006869507, -0.08697287, 0.06766408
 753221091, 0.08, -10.02, 7.77, 645.17, 33.6223416, 72.9558114, 0.993883, 0.006672031, -0.08709373, 0.0675778
 753321051, 0.07, -10, 7.76, 645.41, 33.6223459, 72.9558121, 0.9939043, 0.00655132, -0.0869391, 0.06747527
 753421011, 0.07, -9.97, 7.74, 645.65, 33.6223502, 72.9558129, 0.9939318, 0.006487275, -0.08672791, 0.06734892
 753520971, 0.07, -9.96, 7.73, 645.89, 33.6223544, 72.9558136, 0.9939522, 0.006468347, -0.08657847, 0.06724104
 753620931, 0.07, -9.92, 7.72, 646.13, 33.6223587, 72.9558144, 0.9939877, 0.006504633, -0.08622497, 0.06716693
 753720891, 0.08, -9.89, 7.71, 646.37, 33.622363, 72.9558152, 0.9940087, 0.006580819, -0.08602704, 0.06710337
 753820851, 0.09, -9.9, 7.7, 646.61, 33.6223673, 72.955816, 0.9940064, 0.006667036, -0.08609272, 0.06704401
 753920811, 0.1, -9.92, 7.7, 646.85, 33.6223715, 72.9558167, 0.9939992, 0.006750027, -0.08621313, 0.0669868
 754020771, 0.11, -9.92, 7.69, 647.08, 33.6223758, 72.9558175, 0.9940032, 0.006808615, -0.08620478, 0.06693214
 754121564, 0.11, -9.89, 7.68, 647.32, 33.6223801, 72.9558182, 0.9940277, 0.006807813, -0.08596007, 0.06688321
 754221524, 0.11, -9.87, 7.68, 647.56, 33.6223844, 72.9558189, 0.9940405, 0.006729255, -0.08584698, 0.06684651
 754321484, 0.09, -9.88, 7.68, 647.8, 33.6223886, 72.9558198, 0.9940381, 0.006605258, -0.08589105, 0.06683805
 754421444, 0.08, -9.84, 7.68, 648.04, 33.6223929, 72.9558206, 0.9940637, 0.00646634, -0.08558609, 0.0668621
 754521404, 0.06, -9.68, 7.69, 648.28, 33.6223972, 72.9558213, 0.9941803, 0.00626196, -0.08419056, 0.06691956
 754621364, 0.06, -9.33, 7.7, 648.52, 33.6224014, 72.955822, 0.9944324, 0.006029091, -0.08111441, 0.06699522
 754721324, 0.06, -8.82, 7.71, 648.75, 33.6224057, 72.9558229, 0.9947745, 0.005759714, -0.07674628, 0.06708627
 754821284, 0.06, -8.25, 7.71, 648.99, 33.6224099, 72.9558236, 0.9951418, 0.005426279, -0.07176942, 0.06717578
 754921244, 0.07, -7.66, 7.72, 649.23, 33.6224141, 72.9558244, 0.9954966, 0.00513004, -0.06661382, 0.06725278
 755021204, 0.07, -7.07, 7.72, 649.46, 33.6224183, 72.9558251, 0.9958235, 0.004781478, -0.06150668, 0.06730277
 755121164, 0.07, -6.47, 7.72, 649.69, 33.6224224, 72.9558258, 0.9961311, 0.004453222, -0.05629857, 0.06733121
 755221124, 0.07, -5.87, 7.72, 649.92, 33.6224264, 72.9558266, 0.9964128, 0.00409609, -0.05109999, 0.06733163
 755321084, 0.08, -5.27, 7.72, 650.14, 33.6224305, 72.9558273, 0.9966714, 0.003797098, -0.04582839, 0.06731632
 755421044, 0.09, -4.58, 7.71, 650.36, 33.6224343, 72.955828, 0.99693, 0.003505214, -0.03988128, 0.06728897
 755521004, 0.15, -3.72, 7.71, 650.58, 33.6224382, 72.9558287, 0.997204, 0.003563247, -0.03232965, 0.06727747
 755620964, 0.3, -2.6, 7.71, 650.79, 33.622442, 72.9558294, 0.997469, 0.004198272, -0.02250093, 0.06731749
 755720924, 0.51, -1.25, 7.73, 651, 33.6224457, 72.9558301, 0.9976516, 0.005257342, -0.01062294, 0.06745899
 755820884, 0.75, 0.16, 7.77, 651.19, 33.6224493, 72.9558308, 0.9976784, 0.006446837, 0.001852246, 0.0677703
 755920844, 1, 1.63, 7.85, 651.38, 33.6224526, 72.9558313, 0.9975212, 0.007750473, 0.01483161, 0.06834827
 756020804, 1.25, 3.15, 7.98, 651.57, 33.622456, 72.9558321, 0.9971545, 0.00902226, 0.02821306, 0.06932225
 756120764, 1.53, 4.73, 8.19, 651.74, 33.6224591, 72.9558327, 0.9965433, 0.01038432, 0.04214216, 0.07083501
 756221557, 1.82, 6.37, 8.49, 651.91, 33.622462, 72.9558333, 0.9956486, 0.0117748, 0.05661025, 0.0730795
 756321517, 2.15, 8.05, 8.91, 652.07, 33.6224647, 72.955834, 0.9944412, 0.01325486, 0.07142745, 0.07621751
 756421477, 2.53, 9.76, 9.48, 652.21, 33.6224672, 72.9558346, 0.9928719, 0.01492196, 0.08661114, 0.08050536
 756521437, 3, 11.51, 10.25, 652.35, 33.6224695, 72.9558352, 0.9908666, 0.01704174, 0.102241, 0.08625378
 756621397, 3.58, 13.22, 11.27, 652.47, 33.6224717, 72.9558358, 0.9884117, 0.01965682, 0.1176204, 0.09392243
 756721357, 4.29, 14.77, 12.62, 652.58, 33.6224735, 72.9558364, 0.9855205, 0.02282483, 0.1317904, 0.1042094
 756821317, 5.18, 16.07, 14.45, 652.68, 33.622475, 72.955837, 0.9820995, 0.0268606, 0.1441765, 0.1182039
 756921277, 6.34, 17.13, 16.99, 652.77, 33.6224762, 72.9558377, 0.9777076, 0.03212368, 0.1552126, 0.1377136
 757021237, 7.85, 17.85, 20.47, 652.84, 33.6224772, 72.9558383, 0.9717724, 0.03911857, 0.1643627, 0.1646606
 757121197, 9.73, 18.09, 24.96, 652.9, 33.6224779, 72.9558389, 0.9636322, 0.04793834, 0.1710574, 0.1996351
 757221157, 11.9, 17.77, 30.4, 652.95, 33.6224783, 72.9558395, 0.9524723, 0.05857825, 0.1751807, 0.2422329
 757321117, 14.31, 16.93, 36.69, 652.98, 33.6224783, 72.9558402, 0.937271, 0.07101912, 0.1774371, 0.2915397
 757421077, 16.79, 15.48, 43.67, 653.01, 33.622478, 72.9558407, 0.9172348, 0.08478417, 0.177518, 0.3463803
 757521037, 19.13, 13.38, 51.15, 653.02, 33.6224774, 72.9558414, 0.8917434, 0.09924864, 0.1749617, 0.4053786
 757620997, 21.15, 10.68, 58.98, 653.02, 33.6224767, 72.9558421, 0.8603324, 0.1139844, 0.1696623, 0.4669586
 757720957, 22.73, 7.5, 67.03, 653.01, 33.6224755, 72.9558428, 0.8227219, 0.1285827, 0.1620839, 0.5294564
 757820917, 23.8, 3.94, 75.21, 653, 33.6224739, 72.9558437, 0.7790558, 0.1427439, 0.152456, 0.5911458
 757920877, 24.35, 0.17, 83.44, 652.97, 33.6224722, 72.9558444, 0.7298082, 0.1564261, 0.1415232, 0.6502939
 758020837, 24.29, -3.63, 91.63, 652.93, 33.6224701, 72.9558452, 0.6761717, 0.1688542, 0.1292086, 0.7053972
 758120797, 23.57, -7.29, 99.73, 652.89, 33.6224677, 72.9558459, 0.6197145, 0.1790306, 0.1157313, 0.75532
 758221590, 22.19, -10.63, 107.74, 652.84, 33.622465, 72.9558469, 0.5616956, 0.1864517, 0.1011814, 0.799685
 758321550, 20.32, -13.47, 115.42, 652.78, 33.622462, 72.9558476, 0.504653, 0.1912635, 0.08646109, 0.8374175
 758421510, 18.2, -15.87, 122.74, 652.72, 33.6224587, 72.9558486, 0.4493901, 0.1947515, 0.07219664, 0.8688545
 758521470, 15.93, -17.86, 129.62, 652.65, 33.6224553, 72.9558495, 0.3969097, 0.1973796, 0.05844268, 0.8944766
 758621430, 13.55, -19.47, 136.04, 652.58, 33.6224516, 72.9558505, 0.347772, 0.1992957, 0.04504099, 0.9150449
 758721390, 11.23, -20.81, 141.99, 652.5, 33.6224476, 72.9558514, 0.3019852, 0.2012922, 0.03247084, 0.931253
 758821350, 8.94, -21.9, 147.53, 652.42, 33.6224434, 72.9558524, 0.2593864, 0.203288, 0.02059469, 0.9439113
 758921310, 6.73, -22.78, 152.71, 652.33, 33.6224391, 72.9558534, 0.2195303, 0.2052105, 0.009441672, 0.9537327
 759021270, 4.57, -23.48, 157.62, 652.24, 33.6224346, 72.9558543, 0.1818053, 0.2071106, -0.001079908, 0.9612756
 759121230, 2.47, -24.04, 162.36, 652.15, 33.6224299, 72.9558553, 0.1454097, 0.2090253, -0.0110207, 0.9669762
 759221190, 0.4, -24.45, 167.02, 652.06, 33.6224251, 72.9558565, 0.1096375, 0.2108579, -0.02046881, 0.9711331
 759321150, -1.51, -24.73, 171.49, 651.96, 33.62242, 72.9558576, 0.07526056, 0.2126252, -0.0287846, 0.9738058
 759421110, -3.14, -24.92, 175.47, 651.86, 33.6224148, 72.9558588, 0.04445769, 0.2144701, -0.03530663, 0.9750792
 759521070, -4.37, -25.02, 178.71, 651.75, 33.6224094, 72.95586, 0.01924052, 0.2160399, -0.03971687, 0.9753867
 759621030, -5.19, -25.08, 181.05, 651.65, 33.6224041, 72.9558613, 0.0008589207, 0.2173126, -0.04224964, 0.9751869
 759720990, -5.62, -25.18, 182.46, 651.54, 33.6223984, 72.9558626, -0.01025867, 0.2187161, -0.04315652, 0.9747798
 759820950, -5.67, -25.34, 182.95, 651.43, 33.6223927, 72.9558639, -0.01427845, 0.2202566, -0.04263797, 0.9744051
 759920910, -5.4, -25.56, 182.6, 651.32, 33.6223868, 72.9558653, -0.01172413, 0.2220244, -0.04091555, 0.9741117
 760020870, -4.83, -25.89, 181.5, 651.21, 33.6223808, 72.9558669, -0.003363468, 0.2243542, -0.0381606, 0.9737544
 760120830, -4, -26.24, 179.76, 651.09, 33.6223746, 72.9558684, 0.009903542, 0.2268624, -0.03450498, 0.973265
 760220790, -2.96, -26.61, 177.51, 650.98, 33.6223684, 72.9558699, 0.02708728, 0.2294703, -0.03019435, 0.97247
