Time,AHR2_Roll,AHR2_Pitch,AHR2_Yaw,AHR2_Alt,AHR2_Lat,AHR2_Lng,AHR2_Q1,AHR2_Q2,AHR2_Q3,AHR2_Q4
 74893364, 0.1, 0.09, 0.16, 558.04, 33.6412058, 72.9955928, 0.9999982, 0.0009221371, 0.0008302156, 0.001460095
 74993324, 0.1, 0.09, 0.16, 558.04, 33.6412058, 72.9955928, 0.9999982, 0.0009236358, 0.0008275752, 0.001458771
 75093284, 0.1, 0.09, 0.16, 558.04, 33.6412058, 72.9955928, 0.9999982, 0.0009202135, 0.0008243439, 0.001460749
 75194077, 0.1, 0.09, 0.16, 558.04, 33.6412058, 72.9955928, 0.9999982, 0.000917079, 0.0008227812, 0.001461848
 75294037, 0.1, 0.09, 0.16, 558.04, 33.6412058, 72.9955928, 0.9999982, 0.0009149599, 0.0008192299, 0.001459431
 75393997, 0.1, 0.09, 0.16, 558.04, 33.6412058, 72.9955928, 0.9999982, 0.0009098944, 0.0008169071, 0.001460219
 75493957, 0.1, 0.09, 0.16, 558.04, 33.6412058, 72.9955928, 0.9999982, 0.0009091422, 0.0008150717, 0.001461318
 75593917, 0.1, 0.09, 0.16, 558.04, 33.6412058, 72.9955928, 0.9999982, 0.0009078353, 0.0008147845, 0.001460282
 75693877, 0.1, 0.09, 0.16, 558.04, 33.6412058, 72.9955928, 0.9999982, 0.0009056276, 0.0008122741, 0.001457827
 75793837, 0.1, 0.09, 0.16, 558.04, 33.6412058, 72.9955928, 0.9999982, 0.0009053926, 0.0008115462, 0.001459621
 75893797, 0.1, 0.09, 0.16, 558.04, 33.6412058, 72.9955928, 0.9999982, 0.0009032019, 0.0008096019, 0.00145809
 75993757, 0.1, 0.09, 0.16, 558.04, 33.6412058, 72.9955928, 0.9999982, 0.0009007468, 0.0008112853, 0.001457952
 76093717, 0.1, 0.09, 0.16, 558.04, 33.6412058, 72.9955928, 0.9999982, 0.0008962452, 0.0008090615, 0.001454358
 76193677, 0.1, 0.09, 0.16, 558.04, 33.6412058, 72.9955928, 0.9999982, 0.0008961649, 0.0008043154, 0.001455068
 76293637, 0.1, 0.09, 0.16, 558.04, 33.6412058, 72.9955928, 0.9999982, 0.0008917832, 0.0008011076, 0.001456653
 76393597, 0.1, 0.09, 0.16, 558.04, 33.6412058, 72.9955928, 0.9999982, 0.0008908334, 0.0007991344, 0.00145644
 76493557, 0.1, 0.09, 0.16, 558.04, 33.6412058, 72.9955928, 0.9999982, 0.0008916229, 0.0007970258, 0.001458028
 76593517, 0.1, 0.09, 0.16, 558.04, 33.6412058, 72.9955928, 0.9999982, 0.000894196, 0.0007964915, 0.001458169
 76693477, 0.1, 0.09, 0.16, 558.04, 33.6412058, 72.9955928, 0.9999982, 0.0008943896, 0.0007984578, 0.001457594
 76793437, 0.1, 0.09, 0.16, 558.04, 33.6412058, 72.9955928, 0.9999982, 0.0008936511, 0.0007982436, 0.001458968
 76893397, 0.1, 0.09, 0.16, 558.04, 33.6412058, 72.9955928, 0.9999982, 0.0008889463, 0.0007957284, 0.001459823
 76993357, 0.1, 0.09, 0.16, 558.04, 33.6412058, 72.9955928, 0.9999982, 0.0008876147, 0.0007962825, 0.001460994
 77093317, 0.1, 0.09, 0.16, 558.04, 33.6412058, 72.9955928, 0.9999982, 0.0008870578, 0.000793684, 0.001460382
 77193277, 0.1, 0.09, 0.16, 558.04, 33.6412058, 72.9955928, 0.9999982, 0.0008874203, 0.0007958931, 0.001460586
 77294070, 0.1, 0.09, 0.16, 558.04, 33.6412058, 72.9955928, 0.9999982, 0.0008901544, 0.000795965, 0.001462544
 77394030, 0.1, 0.09, 0.16, 558.04, 33.6412058, 72.9955928, 0.9999982, 0.0008881791, 0.0007981653, 0.001463378
 77493990, 0.1, 0.09, 0.16, 558.04, 33.6412058, 72.9955928, 0.9999982, 0.0008867044, 0.0007978139, 0.001463564
 77593950, 0.1, 0.09, 0.16, 558.04, 33.6412058, 72.9955928, 0.9999982, 0.0008916058, 0.0007986763, 0.001461559
 77693910, 0.1, 0.09, 0.16, 558.04, 33.6412058, 72.9955928, 0.9999982, 0.0008924058, 0.0008002177, 0.001462865
 77793870, 0.1, 0.09, 0.16, 558.04, 33.6412058, 72.9955928, 0.9999982, 0.0008931951, 0.0007999857, 0.001464007
 77893830, 0.1, 0.09, 0.16, 558.04, 33.6412058, 72.9955928, 0.9999982, 0.0008948907, 0.0008019921, 0.001465505
 77993790, 0.1, 0.09, 0.16, 558.04, 33.6412058, 72.9955928, 0.9999982, 0.0008976712, 0.0008024687, 0.00146709
 78093750, 0.1, 0.09, 0.16, 558.04, 33.6412058, 72.9955928, 0.9999982, 0.0008982955, 0.000803874, 0.001467686
 78193710, 0.1, 0.09, 0.16, 558.04, 33.6412058, 72.9955928, 0.9999982, 0.0008992872, 0.0008014518, 0.001471051
 78293670, 0.1, 0.09, 0.16, 558.04, 33.6412058, 72.9955928, 0.9999982, 0.0009020591, 0.000802742, 0.001471848
 78393630, 0.1, 0.09, 0.16, 558.04, 33.6412058, 72.9955928, 0.9999982, 0.00090417, 0.0008020959, 0.001472521
 78493590, 0.1, 0.09, 0.16, 558.04, 33.6412058, 72.9955928, 0.9999982, 0.0009064369, 0.0008033898, 0.00147116
 78593550, 0.1, 0.09, 0.16, 558.04, 33.6412058, 72.9955928, 0.9999982, 0.0009035454, 0.0008063036, 0.001473613
 78693510, 0.1, 0.09, 0.16, 558.04, 33.6412058, 72.9955928, 0.9999982, 0.0009048287, 0.0008081163, 0.001477971
 78793470, 0.1, 0.09, 0.16, 558.04, 33.6412058, 72.9955928, 0.9999982, 0.000906511, 0.0008080984, 0.001480458
 78893430, 0.1, 0.09, 0.16, 558.04, 33.6412058, 72.9955928, 0.9999982, 0.0009076599, 0.0008079112, 0.001482434
 78993390, 0.1, 0.09, 0.17, 558.04, 33.6412058, 72.9955928, 0.9999982, 0.0009085111, 0.0008107146, 0.00148301
 79093350, 0.1, 0.09, 0.17, 558.04, 33.6412058, 72.9955928, 0.9999982, 0.0009117044, 0.0008103293, 0.001484643
 79193310, 0.1, 0.09, 0.17, 558.04, 33.6412058, 72.9955928, 0.9999982, 0.0009131882, 0.0008125502, 0.00148511
 79293270, 0.1, 0.09, 0.17, 558.04, 33.6412058, 72.9955928, 0.9999982, 0.0009149394, 0.0008135834, 0.001486292
 79394063, 0.1, 0.09, 0.17, 558.04, 33.6412058, 72.9955928, 0.9999982, 0.0009153413, 0.0008161941, 0.001487595
 79494023, 0.1, 0.09, 0.17, 558.04, 33.6412058, 72.9955928, 0.9999982, 0.0009180383, 0.0008176417, 0.001490021
 79593983, 0.1, 0.09, 0.17, 558.04, 33.6412058, 72.9955928, 0.9999982, 0.0009202354, 0.0008188726, 0.001490221
 79693943, 0.1, 0.09, 0.17, 558.05, 33.6412058, 72.9955928, 0.9999981, 0.000918199, 0.0008202731, 0.001493559
 79793903, 0.1, 0.09, 0.17, 558.08, 33.6412058, 72.9955928, 0.9999981, 0.0009186403, 0.0008210781, 0.001495882
 79893863, 0.1, 0.09, 0.17, 558.1, 33.6412058, 72.9955928, 0.9999981, 0.0009181922, 0.0008216763, 0.001499773
 79993823, 0.1, 0.09, 0.17, 558.15, 33.6412058, 72.9955928, 0.9999981, 0.0009211909, 0.0008235326, 0.001502364
 80093783, -0.01, -0.01, 0.17, 558.22, 33.6412058, 72.9955928, 0.9999989, -9.547819E-05, -0.0001469905, 0.001496607
 80193743, -0.15, -0.15, 0.16, 558.34, 33.6412058, 72.9955928, 0.9999971, -0.001380276, -0.001323745, 0.001472033
 80293703, -0.21, -0.2, 0.16, 558.51, 33.6412058, 72.9955928, 0.9999955, -0.001905183, -0.001789156, 0.001437609
 80393663, -0.19, -0.18, 0.16, 558.72, 33.6412058, 72.9955928, 0.9999961, -0.001730868, -0.001647215, 0.001402123
 80493623, -0.13, -0.13, 0.15, 558.91, 33.6412058, 72.9955928, 0.9999976, -0.001206586, -0.001201045, 0.001366839
 80593583, -0.06, -0.07, 0.15, 559.11, 33.6412058, 72.9955928, 0.9999987, -0.000594582, -0.0006534809, 0.001334144
 80693543, -0.01, -0.02, 0.14, 559.32, 33.6412058, 72.9955928, 0.9999991, -9.281809E-05, -0.0002216651, 0.001297378
 80793503, 0.02, 0.01, 0.14, 559.54, 33.6412058, 72.9955928, 0.9999992, 0.0002604744, 0.0001506485, 0.001260344
 80893463, 0.06, 0.04, 0.14, 559.78, 33.6412058, 72.9955928, 0.999999, 0.0005391209, 0.0004043872, 0.00122304
 80993423, 0.08, 0.07, 0.13, 560.02, 33.6412058, 72.9955928, 0.9999988, 0.000775416, 0.0006451868, 0.001189205
 81093383, 0.1, 0.09, 0.13, 560.28, 33.6412059, 72.9955928, 0.9999986, 0.0009326682, 0.0008207887, 0.00115388
 81193343, 0.12, 0.11, 0.12, 560.53, 33.6412059, 72.9955928, 0.9999983, 0.001086285, 0.0009975269, 0.001120329
 81293303, 0.13, 0.13, 0.12, 560.8, 33.6412059, 72.9955927, 0.999998, 0.001210057, 0.001142119, 0.001095154
 81393263, 0.14, 0.14, 0.12, 561.07, 33.6412059, 72.9955927, 0.9999979, 0.001276289, 0.001237087, 0.001085116
 81494056, 0.15, 0.15, 0.12, 561.34, 33.641206, 72.9955927, 0.9999976, 0.001324157, 0.001335146, 0.00108024
 81594016, 0.15, 0.16, 0.12, 561.63, 33.641206, 72.9955927, 0.9999974, 0.001384209, 0.001458183, 0.001081181
 81693976, 0.16, 0.17, 0.12, 561.9, 33.6412061, 72.9955926, 0.9999972, 0.001435777, 0.001548926, 0.001085412
 81793936, 0.17, 0.18, 0.12, 562.17, 33.6412061, 72.9955926, 0.9999969, 0.001506054, 0.0016497, 0.001088219
 81893896, 0.17, 0.19, 0.12, 562.45, 33.6412061, 72.9955926, 0.9999967, 0.001556401, 0.001706142, 0.001088583
 81993856, 0.18, 0.2, 0.12, 562.71, 33.6412061, 72.9955926, 0.9999965, 0.001601755, 0.0017758, 0.00108511
 82093816, 0.18, 0.2, 0.12, 562.97, 33.6412061, 72.9955925, 0.9999966, 0.001594129, 0.001767952, 0.001078588
 82193776, 0.18, 0.2, 0.12, 563.22, 33.6412061, 72.9955925, 0.9999964, 0.001648724, 0.001790045, 0.001075216
 82293736, 0.18, 0.19, 0.12, 563.47, 33.6412062, 72.9955925, 0.9999966, 0.001614994, 0.001730457, 0.001070893
 82393696, 0.18, 0.2, 0.12, 563.7, 33.6412062, 72.9955925, 0.9999965, 0.001650435, 0.00176477, 0.001063905
 82493656, 0.19, 0.21, 0.12, 563.94, 33.6412062, 72.9955925, 0.9999963, 0.001708751, 0.001835106, 0.001051981
 82593616, 0.2, 0.2, 0.11, 564.16, 33.6412062, 72.9955925, 0.9999962, 0.001788428, 0.00179216, 0.0010333
 82693576, 0.2, 0.19, 0.11, 564.36, 33.6412062, 72.9955925, 0.9999964, 0.001788163, 0.001741992, 0.001010506
 82793536, 0.18, 0.19, 0.11, 564.58, 33.6412062, 72.9955925, 0.9999967, 0.001594899, 0.001734143, 0.0009837304
 82893496, 0.16, 0.18, 0.1, 564.77, 33.6412062, 72.9955925, 0.9999971, 0.0014301, 0.001656961, 0.0009526649
 82993456, 0.15, 0.18, 0.1, 564.96, 33.6412062, 72.9955925, 0.9999973, 0.001384455, 0.001641776, 0.0009211033
 83093416, 0.15, 0.18, 0.1, 565.15, 33.6412062, 72.9955925, 0.9999974, 0.001345519, 0.001626136, 0.000888383
 83193376, 0.15, 0.18, 0.09, 565.33, 33.6412062, 72.9955925, 0.9999975, 0.001327042, 0.001584656, 0.0008571625
 83293336, 0.14, 0.17, 0.09, 565.51, 33.6412062, 72.9955925, 0.9999977, 0.001285508, 0.001518336, 0.000834808
 83393296, 0.14, 0.17, 0.09, 565.68, 33.6412062, 72.9955925, 0.9999977, 0.001276114, 0.001491677, 0.0008408381
 83494089, 0.14, 0.16, 0.09, 565.84, 33.6412062, 72.9955925, 0.9999979, 0.001235587, 0.001409149, 0.0008599698
 83594049, 0.13, 0.14, 0.1, 565.99, 33.6412062, 72.9955925, 0.999998, 0.001187012, 0.001308562, 0.0008775574
 83694009, 0.13, 0.14, 0.1, 566.14, 33.6412062, 72.9955925, 0.9999982, 0.001160733, 0.001265502, 0.0008738023
 83793969, 0.13, 0.14, 0.09, 566.28, 33.6412062, 72.9955925, 0.9999982, 0.001175746, 0.001238495, 0.0008546879
 83893929, 0.13, 0.13, 0.09, 566.43, 33.6412062, 72.9955925, 0.9999983, 0.001159986, 0.00120034, 0.0008338451
 83993889, 0.12, 0.14, 0.09, 566.56, 33.6412062, 72.9955925, 0.9999983, 0.00112113, 0.001231031, 0.0008165683
 84093849, 0.12, 0.13, 0.09, 566.69, 33.6412062, 72.9955925, 0.9999984, 0.001065332, 0.001171095, 0.0008023262
 84193809, 0.11, 0.13, 0.09, 566.81, 33.6412062, 72.9955925, 0.9999985, 0.001020772, 0.001144082, 0.0007900429
 84293769, 0.12, 0.11, 0.08, 566.93, 33.6412061, 72.9955925, 0.9999986, 0.001085332, 0.001000407, 0.0007737293
 84393729, 0.12, 0.09, 0.08, 567.04, 33.6412061, 72.9955925, 0.9999987, 0.00113178, 0.0008631515, 0.0007581888
 84493689, 0.11, 0.07, 0.08, 567.15, 33.6412061, 72.9955925, 0.999999, 0.001005384, 0.000628622, 0.0007414534
 84593649, 0.11, 0.07, 0.08, 567.25, 33.6412061, 72.9955925, 0.999999, 0.001040354, 0.0006135645, 0.0007240656
 84693609, 0.12, 0.07, 0.08, 567.35, 33.6412061, 72.9955925, 0.9999989, 0.00112476, 0.0006544742, 0.0006995908
 84793569, 0.12, 0.07, 0.07, 567.44, 33.6412061, 72.9955925, 0.999999, 0.0010506, 0.0006381333, 0.0006759791
 84893529, 0.12, 0.06, 0.07, 567.54, 33.641206, 72.9955925, 0.999999, 0.001048374, 0.0006051664, 0.0006479858
 84993489, 0.12, 0.06, 0.07, 567.61, 33.641206, 72.9955925, 0.9999991, 0.001074102, 0.0005358, 0.0006169645
 85093449, 0.1, 0.04, 0.06, 567.68, 33.6412059, 72.9955925, 0.9999993, 0.0009130891, 0.0003645463, 0.0005845416
 85193409, 0.1, 0.02, 0.06, 567.75, 33.6412059, 72.9955925, 0.9999994, 0.0008967645, 0.0002087567, 0.000550322
 85293369, 0.1, 0.01, 0.05, 567.81, 33.6412059, 72.9955925, 0.9999995, 0.0008754533, 0.000162856, 0.0005224496
 85393329, 0.09, 0.02, 0.05, 567.87, 33.6412059, 72.9955925, 0.9999995, 0.0008126303, 0.0002123262, 0.0004935196
 85493289, 0.1, 0.02, 0.05, 567.92, 33.6412059, 72.9955925, 0.9999995, 0.0008742455, 0.0001783028, 0.0004637006
 85594082, 0.1, 0.02, 0.04, 567.96, 33.6412059, 72.9955925, 0.9999995, 0.0009115561, 0.0002177089, 0.0004357881
 85694042, 0.1, 0.02, 0.04, 568, 33.6412059, 72.9955926, 0.9999995, 0.0008806587, 0.0001839047, 0.0004091446
 85794002, 0.09, 0.01, 0.04, 568.04, 33.6412059, 72.9955926, 0.9999996, 0.0008221259, 0.0001578874, 0.000387454
 85893962, 0.07, 0, 0.04, 568.06, 33.6412059, 72.9955926, 0.9999997, 0.0006664441, 5.86148E-05, 0.0003639148
 85993922, 0.07, 0, 0.03, 568.08, 33.6412059, 72.9955926, 0.9999997, 0.000640153, -4.529111E-05, 0.0003425134
 86093882, 0.07, 0.01, 0.03, 568.09, 33.6412059, 72.9955926, 0.9999997, 0.0006521441, 0.000133457, 0.0003236591
 86193842, 0.07, 0.03, 0.03, 568.09, 33.6412059, 72.9955926, 0.9999997, 0.0006574215, 0.0002704959, 0.0003035713
 86293802, 0.06, 0.03, 0.03, 568.09, 33.6412059, 72.9955926, 0.9999997, 0.0006022562, 0.0003262134, 0.0002846272
 86393762, 0.06, 0.03, 0.03, 568.08, 33.6412059, 72.9955926, 0.9999998, 0.0005715206, 0.0003412087, 0.0002745436
 86493722, 0.05, 0.04, 0.03, 568.08, 33.6412059, 72.9955926, 0.9999998, 0.0004768461, 0.0003716048, 0.000267539
 86593682, 0.04, 0.03, 0.02, 568.06, 33.6412059, 72.9955926, 0.9999998, 0.0004340954, 0.0003439731, 0.0002599451
 86693642, 0.05, 0.04, 0.02, 568.05, 33.6412059, 72.9955926, 0.9999998, 0.0004546117, 0.0003911631, 0.0002507264
 86793602, 0.04, 0.04, 0.02, 568.04, 33.6412059, 72.9955926, 0.9999998, 0.0004361104, 0.0003745955, 0.0002409128
 86893562, 0.05, 0.04, 0.02, 568.03, 33.6412059, 72.9955926, 0.9999998, 0.0004804971, 0.000422724, 0.0002290755
 86993522, 0.05, 0.05, 0.02, 568.01, 33.6412059, 72.9955926, 0.9999998, 0.0005086053, 0.0004642494, 0.0002171675
 87093482, 0.04, 0.04, 0.02, 568, 33.6412059, 72.9955926, 0.9999998, 0.0004015958, 0.0003653999, 0.0002031585
 87193442, 0.05, 0.04, 0.02, 568, 33.6412059, 72.9955926, 0.9999998, 0.0004410947, 0.0003564451, 0.0001898242
 87293402, 0.05, 0.04, 0.01, 567.99, 33.6412059, 72.9955926, 0.9999998, 0.0005081873, 0.0003911552, 0.0001736988
 87393362, 0.06, 0.04, 0.01, 567.99, 33.6412059, 72.9955926, 0.9999998, 0.0005310815, 0.0003821067, 0.0001474792
 87493322, 0.06, 0.04, 0.01, 567.98, 33.6412059, 72.9955926, 0.9999998, 0.000534155, 0.0003794173, 0.0001204097
 87593282, 0.06, 0.04, 0.01, 567.98, 33.6412059, 72.9955926, 0.9999998, 0.0005466207, 0.0004059059, 9.44019E-05
 87694075, 0.05, 0.04, 0, 567.98, 33.6412059, 72.9955926, 0.9999998, 0.0004901045, 0.0003709498, 6.760262E-05
 87794035, 0.06, 0.04, 0, 567.98, 33.6412059, 72.9955926, 0.9999998, 0.0005442252, 0.0004089118, 4.32511E-05
 87893995, 0.06, 0.06, 0, 567.98, 33.6412059, 72.9955926, 0.9999997, 0.0005237571, 0.0005534097, 2.20721E-05
 87993955, 0.06, 0.06, 0, 567.98, 33.6412059, 72.9955926, 0.9999997, 0.0005459319, 0.0005895114, 5.302957E-06
 88093915, 0.06, 0.06, 359.99, 567.98, 33.6412059, 72.9955926, 0.9999996, 0.0005868694, 0.0005338795, -6.240191E-06
 88193875, 0.08, 0.05, 359.99, 567.98, 33.6412059, 72.9955926, 0.9999996, 0.0007121409, 0.0004376596, -1.198338E-05
 88293835, 0.09, 0.03, 359.99, 567.98, 33.6412059, 72.9955926, 0.9999996, 0.0008347662, 0.0003424318, -1.843372E-05
 88393795, 0.09, 0.04, 359.99, 567.98, 33.6412059, 72.9955926, 0.9999996, 0.000829163, 0.0004022169, -2.600624E-05
 88493755, 0.08, 0.05, 359.99, 567.98, 33.6412059, 72.9955926, 0.9999996, 0.0007294182, 0.0004578, -4.345869E-05
 88593715, 0.07, 0.05, 359.99, 567.98, 33.6412059, 72.9955926, 0.9999996, 0.0006877793, 0.0004925302, -6.481287E-05
 88693675, 0.07, 0.06, 359.98, 567.98, 33.641206, 72.9955926, 0.9999996, 0.0006464333, 0.0005603157, -9.003025E-05
 88793635, 0.06, 0.07, 359.98, 567.98, 33.641206, 72.9955926, 0.9999996, 0.0006108079, 0.000621827, -0.0001138529
 88893595, 0.06, 0.07, 359.98, 567.98, 33.6412061, 72.9955926, 0.9999996, 0.0005829708, 0.0006676029, -0.0001350462
 88993555, 0.06, 0.08, 359.98, 567.99, 33.6412061, 72.9955926, 0.9999995, 0.0005588759, 0.0007503749, -0.0001562699
 89093515, 0.05, 0.09, 359.97, 568.01, 33.6412061, 72.9955926, 0.9999995, 0.0004986457, 0.0007903012, -0.0001789749
 89193475, 0.05, 0.09, 359.97, 568.04, 33.6412061, 72.9955926, 0.9999995, 0.0004684691, 0.0008381615, -0.0002013918
 89293435, 0.05, 0.09, 359.97, 568.08, 33.6412061, 72.9955925, 0.9999995, 0.0004433378, 0.0008359138, -0.0002211352
 89393395, 0.05, 0.09, 359.97, 568.13, 33.6412061, 72.9955925, 0.9999995, 0.0004557235, 0.0008372484, -0.0002438906
 89493355, 0.06, 0.09, 359.96, 568.2, 33.6412061, 72.9955925, 0.9999994, 0.0005647641, 0.0008543836, -0.0002647387
 89593315, 0.07, 0.09, 359.96, 568.27, 33.6412061, 72.9955925, 0.9999994, 0.0006296327, 0.0008556971, -0.0002822799
 89693275, 0.08, 0.08, 359.96, 568.35, 33.6412062, 72.9955925, 0.9999994, 0.0007106053, 0.0007604136, -0.0002961911
 89794068, 0.09, 0.1, 359.96, 568.45, 33.6412062, 72.9955925, 0.9999992, 0.0007906619, 0.0008735348, -0.0003061938
 89894028, 0.09, 0.11, 359.96, 568.56, 33.6412062, 72.9955925, 0.999999, 0.0008636424, 0.0009968437, -0.0003097372
 89993988, 0.09, 0.11, 359.96, 568.68, 33.6412062, 72.9955925, 0.9999991, 0.000833104, 0.0009928998, -0.0003101227
 90093948, 0.08, 0.1, 359.96, 568.81, 33.6412062, 72.9955924, 0.9999992, 0.0007530716, 0.0009314807, -0.0003126739
 90193908, 0.08, 0.11, 359.96, 568.96, 33.6412062, 72.9955924, 0.9999992, 0.0007761066, 0.0009850429, -0.0003230884
 90293868, 0.1, 0.11, 359.96, 569.11, 33.6412062, 72.9955923, 0.999999, 0.0008905795, 0.001006674, -0.0003386883
 90393828, 0.12, 0.13, 359.95, 569.27, 33.6412062, 72.9955923, 0.9999986, 0.001133645, 0.00117112, -0.0003556833
 90493788, 0.13, 0.13, 359.95, 569.45, 33.6412062, 72.9955923, 0.9999986, 0.001175278, 0.001158134, -0.0003728361
 90593748, 0.13, 0.13, 359.95, 569.64, 33.6412062, 72.9955923, 0.9999985, 0.001205037, 0.001145275, -0.0003910304
 90693708, 0.14, 0.13, 359.95, 569.83, 33.6412063, 72.9955923, 0.9999985, 0.001239055, 0.001140237, -0.0004087603
 90793668, 0.14, 0.13, 359.95, 570.04, 33.6412063, 72.9955923, 0.9999984, 0.001286275, 0.001136285, -0.0004308209
 90893628, 0.14, 0.12, 359.94, 570.26, 33.6412063, 72.9955923, 0.9999985, 0.001270171, 0.001124918, -0.0004499673
 90993588, 0.13, 0.12, 359.94, 570.48, 33.6412063, 72.9955923, 0.9999986, 0.001173739, 0.001056076, -0.0004718825
 91093548, 0.12, 0.12, 359.94, 570.72, 33.6412063, 72.9955923, 0.9999987, 0.001067161, 0.00107177, -0.0004976146
 91193508, 0.12, 0.13, 359.94, 570.97, 33.6412063, 72.9955923, 0.9999985, 0.001123647, 0.001182153, -0.0005250704
 91293468, 0.13, 0.13, 359.93, 571.23, 33.6412063, 72.9955923, 0.9999985, 0.00116556, 0.001186226, -0.000556358
 91393428, 0.14, 0.13, 359.93, 571.47, 33.6412063, 72.9955923, 0.9999983, 0.001252998, 0.001204848, -0.0005841298
 91493388, 0.14, 0.13, 359.92, 571.74, 33.6412063, 72.9955923, 0.9999983, 0.001251938, 0.001177184, -0.0006126815
 91593348, 0.14, 0.13, 359.92, 572.01, 33.6412063, 72.9955923, 0.9999983, 0.001250504, 0.001162392, -0.0006396234
 91693308, 0.14, 0.13, 359.92, 572.27, 33.6412063, 72.9955923, 0.9999983, 0.001268165, 0.001169937, -0.0006617422
 91793268, 0.13, 0.13, 359.92, 572.53, 33.6412063, 72.9955923, 0.9999984, 0.001204818, 0.001153072, -0.0006837542
 91894061, 0.13, 0.13, 359.91, 572.8, 33.6412063, 72.9955923, 0.9999983, 0.001205108, 0.001153373, -0.0007055569
 91994021, 0.14, 0.13, 359.91, 573.07, 33.6412063, 72.9955923, 0.9999983, 0.001225144, 0.001147146, -0.0007205444
 92093981, 0.14, 0.13, 359.91, 573.32, 33.6412063, 72.9955923, 0.9999983, 0.001227485, 0.001157321, -0.0007318142
 92193941, 0.13, 0.13, 359.91, 573.58, 33.6412063, 72.9955923, 0.9999984, 0.001176741, 0.001136465, -0.0007364904
 92293901, 0.12, 0.12, 359.91, 573.85, 33.6412063, 72.9955923, 0.9999985, 0.001085635, 0.001118947, -0.0007426027
 92393861, 0.12, 0.12, 359.91, 574.1, 33.6412063, 72.9955923, 0.9999985, 0.001066493, 0.001117824, -0.0007490198
 92493821, 0.11, 0.11, 359.91, 574.36, 33.6412063, 72.9955923, 0.9999987, 0.001033771, 0.0009739148, -0.0007498831
 92593781, 0.11, 0.1, 359.91, 574.61, 33.6412063, 72.9955923, 0.9999987, 0.0009778599, 0.0009450061, -0.0007505679
 92693741, 0.11, 0.11, 359.91, 574.87, 33.6412063, 72.9955923, 0.9999987, 0.0009957564, 0.001040793, -0.000753856
 92793701, 0.11, 0.12, 359.91, 575.11, 33.6412063, 72.9955923, 0.9999986, 0.001018036, 0.001120917, -0.0007441264
 92893661, 0.11, 0.12, 359.91, 575.37, 33.6412063, 72.9955923, 0.9999986, 0.001028906, 0.001132497, -0.0007484338
 92993621, 0.11, 0.12, 359.91, 575.62, 33.6412063, 72.9955923, 0.9999986, 0.00100074, 0.00109343, -0.0007610282
 93093581, 0.1, 0.11, 359.91, 575.87, 33.6412063, 72.9955923, 0.9999988, 0.0008744979, 0.001010406, -0.0007825572
 93193541, 0.09, 0.1, 359.9, 576.13, 33.6412063, 72.9955923, 0.9999989, 0.0008585567, 0.000937004, -0.0008002811
 93293501, 0.1, 0.1, 359.9, 576.37, 33.6412063, 72.9955923, 0.9999987, 0.000960409, 0.0009480896, -0.000824126
 93393461, 0.11, 0.11, 359.9, 576.63, 33.6412063, 72.9955923, 0.9999987, 0.000995749, 0.0009655777, -0.0008491994
 93493421, 0.11, 0.1, 359.9, 576.88, 33.6412063, 72.9955923, 0.9999987, 0.0009713949, 0.000916626, -0.0008712907
 93593381, 0.11, 0.1, 359.89, 577.13, 33.6412063, 72.9955923, 0.9999987, 0.0009954997, 0.0009194529, -0.0008966338
 93693341, 0.1, 0.1, 359.89, 577.38, 33.6412063, 72.9955923, 0.9999987, 0.0009565718, 0.0008908639, -0.0009219621
 93793301, 0.11, 0.1, 359.89, 577.63, 33.6412063, 72.9955923, 0.9999986, 0.0009839038, 0.0009004808, -0.0009452697
 93893261, 0.1, 0.09, 359.88, 577.88, 33.6412062, 72.9955923, 0.9999987, 0.0009404102, 0.0008579961, -0.0009659649
 93994054, 0.1, 0.09, 359.88, 578.14, 33.6412062, 72.9955923, 0.9999987, 0.0009417676, 0.0008363901, -0.0009921786
 94094014, 0.1, 0.08, 359.88, 578.39, 33.6412062, 72.9955923, 0.9999987, 0.0009485806, 0.0007623202, -0.001006625
 94193974, 0.11, 0.08, 359.88, 578.64, 33.6412062, 72.9955923, 0.9999987, 0.0009766078, 0.0007361978, -0.000986013
 94293934, 0.11, 0.07, 359.88, 578.88, 33.6412062, 72.9955923, 0.9999988, 0.000961222, 0.0006856269, -0.0009611698
 94393894, 0.11, 0.08, 359.89, 579.13, 33.6412062, 72.9955923, 0.9999987, 0.001033842, 0.0006978665, -0.000957125
 94493854, 0.11, 0.08, 359.88, 579.38, 33.6412062, 72.9955923, 0.9999987, 0.0009967593, 0.0007009139, -0.0009745824
 94593814, 0.11, 0.07, 359.88, 579.64, 33.6412062, 72.9955923, 0.9999987, 0.0009774211, 0.0006970276, -0.0009954838
 94693774, 0.11, 0.07, 359.88, 579.89, 33.6412062, 72.9955923, 0.9999988, 0.0009673444, 0.0006694825, -0.001019909
 94793734, 0.11, 0.07, 359.88, 580.13, 33.6412062, 72.9955923, 0.9999987, 0.0009661437, 0.0006526803, -0.001045877
 94893694, 0.11, 0.07, 359.87, 580.38, 33.6412062, 72.9955923, 0.9999987, 0.0009837014, 0.000666991, -0.001069651
 94993654, 0.11, 0.07, 359.87, 580.63, 33.6412062, 72.9955923, 0.9999987, 0.0009932732, 0.0006723765, -0.001090846
 95093614, 0.11, 0.07, 359.87, 580.88, 33.6412061, 72.9955923, 0.9999987, 0.0009865145, 0.0006798779, -0.001108513
 95193574, 0.11, 0.07, 359.87, 581.14, 33.6412061, 72.9955923, 0.9999986, 0.0009913717, 0.0006737319, -0.001128386
 95293534, 0.11, 0.07, 359.86, 581.38, 33.6412061, 72.9955923, 0.9999986, 0.0009734872, 0.0006366025, -0.001147793
 95393494, 0.11, 0.07, 359.86, 581.63, 33.6412061, 72.9955923, 0.9999986, 0.0009881831, 0.0006205762, -0.001164391
 95493454, 0.11, 0.06, 359.86, 581.88, 33.6412061, 72.9955923, 0.9999986, 0.001007754, 0.0005858182, -0.001179328
 95593414, 0.11, 0.06, 359.86, 582.13, 33.6412061, 72.9955923, 0.9999986, 0.001018314, 0.0005851038, -0.001191223
 95693374, 0.11, 0.06, 359.86, 582.38, 33.6412061, 72.9955923, 0.9999986, 0.0009986982, 0.0005657377, -0.001203433
 95793334, 0.11, 0.06, 359.86, 582.63, 33.6412061, 72.9955923, 0.9999986, 0.001047816, 0.000592305, -0.001206748
 95893294, 0.12, 0.06, 359.86, 582.88, 33.6412061, 72.9955923, 0.9999986, 0.001054251, 0.0005637005, -0.001205926
 95994087, 0.11, 0.07, 359.86, 583.13, 33.6412061, 72.9955923, 0.9999986, 0.001027128, 0.000614249, -0.00119996
 96094047, 0.1, 0.07, 359.86, 583.38, 33.6412061, 72.9955923, 0.9999986, 0.0009536525, 0.0006239634, -0.001194986
 96194007, 0.1, 0.07, 359.86, 583.63, 33.6412061, 72.9955923, 0.9999986, 0.0009489231, 0.0006379224, -0.00119117
 96293967, 0.11, 0.07, 359.86, 583.9, 33.6412061, 72.9955923, 0.9999986, 0.0009834839, 0.000695008, -0.001186111
 96393927, 0.11, 0.07, 359.86, 584.15, 33.6412061, 72.9955923, 0.9999986, 0.0009991633, 0.0006802771, -0.001178896
 96493887, 0.11, 0.07, 359.86, 584.4, 33.6412061, 72.9955923, 0.9999985, 0.001021601, 0.0006910599, -0.001172104
 96593847, 0.12, 0.08, 359.86, 584.66, 33.6412061, 72.9955923, 0.9999985, 0.001048841, 0.000727075, -0.001170323
 96693807, 0.12, 0.08, 359.86, 584.91, 33.6412061, 72.9955923, 0.9999984, 0.001072148, 0.0007639515, -0.001170509
 96793767, 0.12, 0.09, 359.86, 585.16, 33.6412061, 72.9955923, 0.9999984, 0.00109205, 0.00079916, -0.001172051
 96893727, 0.12, 0.09, 359.86, 585.4, 33.6412061, 72.9955923, 0.9999984, 0.001069215, 0.0008307112, -0.001171742
 96993687, 0.11, 0.09, 359.86, 585.66, 33.6412061, 72.9955923, 0.9999985, 0.001018796, 0.0008080139, -0.001172167
 97093647, 0.09, 0.07, 359.86, 585.91, 33.6412061, 72.9955923, 0.9999987, 0.0008338704, 0.0006509838, -0.001173689
 97193607, 0.09, 0.07, 359.86, 586.15, 33.6412061, 72.9955923, 0.9999987, 0.0008467358, 0.0006628981, -0.001172616
 97293567, 0.1, 0.08, 359.86, 586.41, 33.6412061, 72.9955923, 0.9999986, 0.0009315436, 0.0007491786, -0.001171937
 97393527, 0.1, 0.08, 359.86, 586.65, 33.6412061, 72.9955923, 0.9999986, 0.0009115612, 0.0007338981, -0.001171636
 97493487, 0.1, 0.07, 359.86, 586.9, 33.6412061, 72.9955923, 0.9999987, 0.000915831, 0.0006541946, -0.001181409
 97593447, 0.1, 0.07, 359.86, 587.14, 33.6412061, 72.9955923, 0.9999986, 0.0009522474, 0.0006371767, -0.001191237
 97693407, 0.1, 0.08, 359.86, 587.38, 33.6412061, 72.9955923, 0.9999986, 0.0009563117, 0.0007267086, -0.001210839
 97793367, 0.11, 0.08, 359.85, 587.63, 33.6412061, 72.9955923, 0.9999985, 0.0009898965, 0.0007684078, -0.00122848
 97893327, 0.11, 0.08, 359.85, 587.87, 33.6412061, 72.9955923, 0.9999985, 0.0009740993, 0.0007516028, -0.001249424
 97993287, 0.11, 0.08, 359.85, 588.12, 33.6412061, 72.9955923, 0.9999984, 0.00100493, 0.0007334412, -0.001272979
 98094080, 0.11, 0.08, 359.85, 588.36, 33.6412061, 72.9955923, 0.9999983, 0.00103184, 0.0007226834, -0.001296033
 98194040, 0.12, 0.08, 359.84, 588.62, 33.6412061, 72.9955923, 0.9999983, 0.00105691, 0.0007110075, -0.001316814
 98294000, 0.1, 0.08, 359.84, 588.86, 33.6412061, 72.9955923, 0.9999985, 0.0008933269, 0.0006998765, -0.00133466
 98393960, 0.09, 0.08, 359.84, 589.11, 33.6412061, 72.9955923, 0.9999985, 0.0008345616, 0.000738488, -0.00134949
 98493920, 0.09, 0.09, 359.84, 589.35, 33.6412061, 72.9955923, 0.9999984, 0.0008405118, 0.0008011449, -0.001364683
 98593880, 0.1, 0.1, 359.84, 589.6, 33.6412061, 72.9955923, 0.9999983, 0.000898269, 0.000929756, -0.001358812
 98693840, 0.1, 0.09, 359.84, 589.84, 33.6412061, 72.9955923, 0.9999983, 0.0009504932, 0.0008650504, -0.001352113
 98793800, 0.1, 0.09, 359.84, 590.09, 33.6412061, 72.9955923, 0.9999983, 0.0009571601, 0.0008613028, -0.001326706
 98893760, 0.1, 0.09, 359.85, 590.34, 33.6412061, 72.9955923, 0.9999984, 0.0009320464, 0.0008383527, -0.001281695
 98993720, 0.1, 0.09, 359.85, 590.59, 33.6412061, 72.9955923, 0.9999985, 0.0009480737, 0.000832094, -0.001227043
 99093680, 0.1, 0.09, 359.86, 590.84, 33.6412061, 72.9955924, 0.9999985, 0.0009129114, 0.0008371585, -0.001173681
 99193640, 0.1, 0.09, 359.86, 591.08, 33.6412061, 72.9955924, 0.9999986, 0.0009012037, 0.0008327927, -0.001153854
 99293600, 0.1, 0.09, 359.86, 591.33, 33.6412061, 72.9955925, 0.9999986, 0.0008914936, 0.0007986405, -0.001158009
 99393560, 0.09, 0.08, 359.86, 591.59, 33.6412061, 72.9955925, 0.9999987, 0.0008053129, 0.0007645311, -0.001165147
 99493520, 0.07, 0.08, 359.86, 591.83, 33.6412061, 72.9955925, 0.9999987, 0.0006760432, 0.0007602752, -0.001183986
 99593480, 0.07, 0.08, 359.86, 592.08, 33.6412061, 72.9955925, 0.9999987, 0.0006443362, 0.0007791922, -0.001206297
 99693440, 0.06, 0.08, 359.85, 592.33, 33.6412061, 72.9955925, 0.9999987, 0.0005986533, 0.0007577733, -0.001241202
 99793400, 0.06, 0.09, 359.85, 592.57, 33.6412061, 72.9955925, 0.9999987, 0.0005566839, 0.0007898229, -0.001276282
 99893360, 0.05, 0.09, 359.84, 592.82, 33.6412061, 72.9955925, 0.9999986, 0.0005209169, 0.0008238235, -0.001310351
 99993320, 0.05, 0.09, 359.84, 593.08, 33.6412061, 72.9955925, 0.9999986, 0.0005025523, 0.0007984012, -0.001342886
 100093280, 0.06, 0.08, 359.84, 593.32, 33.6412061, 72.9955925, 0.9999987, 0.0005549095, 0.0006993143, -0.00137374
 100194073, 0.06, 0.07, 359.83, 593.57, 33.6412061, 72.9955925, 0.9999986, 0.0005934071, 0.0006862732, -0.00140435
 100294033, 0.06, 0.08, 359.83, 593.82, 33.6412061, 72.9955925, 0.9999985, 0.0006101924, 0.0007061163, -0.001436108
 100393993, 0.07, 0.07, 359.83, 594.07, 33.6412061, 72.9955925, 0.9999985, 0.0006406057, 0.0006769369, -0.001467049
 100493953, 0.07, 0.07, 359.82, 594.32, 33.6412061, 72.9955925, 0.9999985, 0.0006523184, 0.0006734885, -0.001501136
 100593913, 0.07, 0.07, 359.82, 594.56, 33.6412061, 72.9955925, 0.9999984, 0.000646407, 0.0006772132, -0.001531274
 100693873, 0.07, 0.07, 359.82, 594.81, 33.6412061, 72.9955925, 0.9999983, 0.0006680209, 0.0006755351, -0.0015619
 100793833, 0.07, 0.07, 359.81, 595.07, 33.6412061, 72.9955925, 0.9999983, 0.0006765961, 0.0006817766, -0.001589595
 100893793, 0.08, 0.08, 359.81, 595.32, 33.6412061, 72.9955925, 0.9999982, 0.0007065199, 0.0007260578, -0.001612977
 100993753, 0.08, 0.08, 359.81, 595.57, 33.6412061, 72.9955925, 0.9999982, 0.0007402644, 0.0007147366, -0.001633602
 101093713, 0.08, 0.08, 359.81, 595.81, 33.6412061, 72.9955925, 0.9999981, 0.0007613808, 0.0007481579, -0.001649113
 101193673, 0.09, 0.08, 359.8, 596.06, 33.6412061, 72.9955925, 0.999998, 0.0007909233, 0.0007628436, -0.001660214
 101293633, 0.09, 0.08, 359.8, 596.31, 33.6412061, 72.9955925, 0.999998, 0.0008102628, 0.0007546137, -0.001667782
 101393593, 0.09, 0.09, 359.8, 596.57, 33.6412061, 72.9955925, 0.999998, 0.0007954567, 0.0008037734, -0.001669256
 101493553, 0.09, 0.09, 359.8, 596.81, 33.6412061, 72.9955925, 0.9999979, 0.0008192033, 0.0008422798, -0.001669741
 101593513, 0.09, 0.09, 359.8, 597.07, 33.6412061, 72.9955925, 0.9999979, 0.0008317093, 0.0008334555, -0.001671813
 101693473, 0.09, 0.08, 359.8, 597.32, 33.6412061, 72.9955925, 0.999998, 0.0007968583, 0.000782631, -0.001674652
 101793433, 0.09, 0.09, 359.8, 597.56, 33.6412061, 72.9955925, 0.9999979, 0.0008055659, 0.0007929302, -0.001683458
 101893393, 0.09, 0.09, 359.8, 597.81, 33.6412061, 72.9955925, 0.9999979, 0.0007903935, 0.0008127963, -0.001704499
 101993353, 0.09, 0.09, 359.8, 598.07, 33.6412061, 72.9955925, 0.9999978, 0.0008206997, 0.0008361895, -0.001731594
 102093313, 0.09, 0.09, 359.79, 598.32, 33.6412061, 72.9955925, 0.9999978, 0.0008042838, 0.0008434661, -0.001755153
 102193273, 0.09, 0.09, 359.79, 598.57, 33.6412061, 72.9955925, 0.9999977, 0.0008161028, 0.0008285058, -0.001769757
 102294066, 0.09, 0.09, 359.79, 598.82, 33.6412061, 72.9955925, 0.9999978, 0.0008291039, 0.000791916, -0.001764114
 102394026, 0.09, 0.09, 359.79, 599.07, 33.6412061, 72.9955925, 0.9999978, 0.0008159383, 0.0008275565, -0.001751369
 102493986, 0.09, 0.09, 359.79, 599.32, 33.6412061, 72.9955925, 0.9999977, 0.0008476847, 0.0008438347, -0.001768065
 102593946, 0.09, 0.09, 359.79, 599.57, 33.6412061, 72.9955925, 0.9999977, 0.000846463, 0.0008237163, -0.001800024
 102693906, 0.09, 0.08, 359.78, 599.81, 33.6412061, 72.9955925, 0.9999977, 0.0008157745, 0.0007472832, -0.001835086
 102793866, 0.09, 0.09, 359.78, 600.07, 33.6412061, 72.9955925, 0.9999976, 0.000842796, 0.0007884031, -0.001850275
 102893826, 0.1, 0.09, 359.78, 600.32, 33.6412061, 72.9955925, 0.9999976, 0.0008754951, 0.0007936473, -0.001834242
 102993786, 0.09, 0.08, 359.79, 600.58, 33.6412061, 72.9955925, 0.9999977, 0.0008705356, 0.0007767975, -0.0018048
 103093746, 0.1, 0.09, 359.79, 600.83, 33.6412061, 72.9955924, 0.9999977, 0.0009077418, 0.0008061353, -0.001777111
 103193706, 0.1, 0.09, 359.79, 601.08, 33.6412061, 72.9955924, 0.9999977, 0.0009457971, 0.0008024162, -0.001775175
 103293666, 0.11, 0.09, 359.79, 601.32, 33.6412061, 72.9955923, 0.9999976, 0.001026827, 0.0007948829, -0.001787111
 103393626, 0.12, 0.09, 359.79, 601.57, 33.6412061, 72.9955923, 0.9999974, 0.001083794, 0.0007979801, -0.001814321
 103493586, 0.12, 0.09, 359.78, 601.82, 33.6412061, 72.9955923, 0.9999973, 0.001129885, 0.0007853645, -0.001850489
 103593546, 0.13, 0.09, 359.78, 602.07, 33.6412061, 72.9955923, 0.9999972, 0.001189743, 0.0007846035, -0.001883286
 103693506, 0.14, 0.09, 359.78, 602.32, 33.6412061, 72.9955923, 0.9999971, 0.001235302, 0.0007948773, -0.001915109
 103793466, 0.13, 0.08, 359.77, 602.57, 33.6412061, 72.9955923, 0.9999971, 0.001221806, 0.0007794706, -0.001941307
 103893426, 0.14, 0.08, 359.77, 602.81, 33.6412061, 72.9955923, 0.999997, 0.001233698, 0.0007509756, -0.001965349
 103993386, 0.14, 0.08, 359.77, 603.07, 33.6412061, 72.9955923, 0.999997, 0.001259294, 0.0007472247, -0.001978755
 104093346, 0.14, 0.08, 359.77, 603.32, 33.6412061, 72.9955923, 0.999997, 0.001251888, 0.0007512707, -0.001982911
 104193306, 0.14, 0.08, 359.77, 603.57, 33.6412061, 72.9955923, 0.999997, 0.001252643, 0.0007215866, -0.001984549
 104293266, 0.14, 0.08, 359.77, 603.83, 33.6412061, 72.9955923, 0.999997, 0.001240969, 0.0007218059, -0.00198118
 104394059, 0.13, 0.08, 359.77, 604.08, 33.6412061, 72.9955923, 0.999997, 0.001214786, 0.0007481518, -0.001971166
 104494019, 0.13, 0.08, 359.77, 604.32, 33.6412061, 72.9955923, 0.9999971, 0.001168082, 0.0007443407, -0.001957058
 104593979, 0.13, 0.08, 359.77, 604.57, 33.6412061, 72.9955923, 0.9999971, 0.001186996, 0.0007590423, -0.001939972
 104693939, 0.13, 0.09, 359.78, 604.82, 33.6412061, 72.9955923, 0.9999971, 0.001165657, 0.0007872601, -0.001919882
 104793899, 0.13, 0.08, 359.78, 605.07, 33.6412061, 72.9955923, 0.9999973, 0.001139132, 0.0007738203, -0.001901612
 104893859, 0.12, 0.09, 359.78, 605.32, 33.6412061, 72.9955923, 0.9999973, 0.001106051, 0.0007863498, -0.001882938
 104993819, 0.12, 0.09, 359.78, 605.58, 33.6412061, 72.9955923, 0.9999973, 0.001101778, 0.0008196876, -0.00186601
 105093779, 0.11, 0.09, 359.78, 605.82, 33.6412061, 72.9955923, 0.9999974, 0.001048625, 0.0008172306, -0.001851199
 105193739, 0.11, 0.09, 359.78, 606.07, 33.6412061, 72.9955923, 0.9999974, 0.001027241, 0.0008067848, -0.001836935
 105293699, 0.11, 0.09, 359.79, 606.32, 33.6412061, 72.9955923, 0.9999975, 0.001028043, 0.0008222302, -0.001823597
 105393659, 0.11, 0.09, 359.79, 606.57, 33.6412061, 72.9955923, 0.9999975, 0.001022915, 0.0008124565, -0.001808378
 105493619, 0.11, 0.09, 359.79, 606.82, 33.6412061, 72.9955923, 0.9999976, 0.001021662, 0.0008110866, -0.00179183
 105593579, 0.11, 0.09, 359.79, 607.07, 33.6412061, 72.9955923, 0.9999976, 0.001020471, 0.0008222046, -0.001777175
 105693539, 0.11, 0.09, 359.79, 607.32, 33.6412061, 72.9955923, 0.9999976, 0.001033029, 0.0008385134, -0.001771759
 105793499, 0.11, 0.09, 359.79, 607.57, 33.6412061, 72.9955923, 0.9999976, 0.00101025, 0.000810501, -0.001778221
 105893459, 0.11, 0.09, 359.79, 607.82, 33.6412061, 72.9955923, 0.9999976, 0.0009913378, 0.0008417555, -0.001793685
 105993419, 0.11, 0.09, 359.79, 608.07, 33.6412061, 72.9955923, 0.9999975, 0.001025332, 0.0008354647, -0.001809479
 106093379, 0.11, 0.09, 359.79, 608.31, 33.6412061, 72.9955923, 0.9999974, 0.001015587, 0.0008418834, -0.001824618
 106193339, 0.12, 0.09, 359.78, 608.56, 33.6412061, 72.9955923, 0.9999974, 0.001075407, 0.0008414439, -0.001839721
 106293299, 0.12, 0.09, 359.78, 608.82, 33.6412061, 72.9955923, 0.9999974, 0.001049971, 0.0008389266, -0.001857912
 106394092, 0.11, 0.09, 359.78, 609.07, 33.6412061, 72.9955923, 0.9999974, 0.000985713, 0.0008421664, -0.001873695
 106494052, 0.1, 0.09, 359.78, 609.32, 33.6412061, 72.9955923, 0.9999974, 0.0009596413, 0.0008148258, -0.001875135
 106594012, 0.1, 0.08, 359.78, 609.57, 33.6412061, 72.9955923, 0.9999976, 0.0009126945, 0.0007721168, -0.001870549
 106693972, 0.1, 0.09, 359.78, 609.82, 33.6412061, 72.9955923, 0.9999976, 0.0009170798, 0.0008171418, -0.001855291
 106793932, 0.1, 0.09, 359.78, 610.06, 33.6412061, 72.9955923, 0.9999975, 0.0009574856, 0.0008443238, -0.001837578
 106893892, 0.1, 0.09, 359.79, 610.32, 33.6412061, 72.9955923, 0.9999976, 0.0009542366, 0.0008128332, -0.001820432
 106993852, 0.11, 0.09, 359.79, 610.57, 33.6412061, 72.9955923, 0.9999976, 0.0009644137, 0.0008089699, -0.001798315
 107093812, 0.1, 0.09, 359.79, 610.82, 33.6412061, 72.9955923, 0.9999976, 0.000950273, 0.0007854417, -0.001776046
 107193772, 0.11, 0.09, 359.79, 611.07, 33.6412061, 72.9955923, 0.9999977, 0.0009747835, 0.000790614, -0.001754668
 107293732, 0.11, 0.08, 359.8, 611.31, 33.6412061, 72.9955923, 0.9999977, 0.0009757723, 0.0007834826, -0.001734952
 107393692, 0.11, 0.08, 359.8, 611.56, 33.6412061, 72.9955923, 0.9999977, 0.0009830809, 0.000782442, -0.001721913
 107493652, 0.11, 0.09, 359.8, 611.81, 33.6412061, 72.9955923, 0.9999977, 0.0009685874, 0.0008048913, -0.001723246
 107593612, 0.1, 0.09, 359.79, 612.07, 33.6412061, 72.9955923, 0.9999977, 0.0009559802, 0.0008355681, -0.001755861
 107693572, 0.1, 0.09, 359.79, 612.31, 33.6412061, 72.9955924, 0.9999976, 0.000923838, 0.000820898, -0.00179848
 107793532, 0.1, 0.09, 359.79, 612.56, 33.6412061, 72.9955924, 0.9999976, 0.0008916479, 0.0008071078, -0.00182484
 107893492, 0.09, 0.09, 359.79, 612.81, 33.6412061, 72.9955925, 0.9999977, 0.0008449846, 0.0007937492, -0.001824107
 107993452, 0.08, 0.09, 359.79, 613.06, 33.6412061, 72.9955925, 0.9999978, 0.0007627785, 0.0007861197, -0.001789386
 108093412, 0.08, 0.08, 359.8, 613.32, 33.6412061, 72.9955925, 0.999998, 0.0007053986, 0.0007667167, -0.001735434
 108193372, 0.07, 0.08, 359.8, 613.56, 33.6412061, 72.9955925, 0.9999981, 0.0006287478, 0.0007688137, -0.00168386
 108293332, 0.06, 0.08, 359.81, 613.81, 33.6412061, 72.9955925, 0.9999982, 0.000567281, 0.0007760518, -0.001641449
 108393292, 0.06, 0.09, 359.81, 614.06, 33.6412061, 72.9955925, 0.9999982, 0.0005827592, 0.0008057552, -0.001613134
 108494085, 0.06, 0.09, 359.81, 614.31, 33.6412061, 72.9955925, 0.9999983, 0.0005423813, 0.0007993582, -0.001595751
 108594045, 0.06, 0.09, 359.81, 614.56, 33.6412061, 72.9955925, 0.9999982, 0.0005739442, 0.0008394275, -0.001589506
 108694005, 0.06, 0.09, 359.81, 614.81, 33.6412061, 72.9955925, 0.9999982, 0.0005756761, 0.0008209796, -0.00159087
 108793965, 0.06, 0.09, 359.81, 615.05, 33.6412061, 72.9955925, 0.9999982, 0.0005475025, 0.0008203413, -0.001601382
 108893925, 0.06, 0.09, 359.81, 615.31, 33.6412061, 72.9955925, 0.9999982, 0.0005648835, 0.0008263134, -0.00161934
 108993885, 0.06, 0.09, 359.81, 615.56, 33.6412061, 72.9955925, 0.9999981, 0.0006070098, 0.0008384528, -0.001639239
 109093845, 0.07, 0.09, 359.8, 615.82, 33.6412061, 72.9955925, 0.999998, 0.0006508013, 0.0008405994, -0.0016631
 109193805, 0.07, 0.1, 359.8, 616.06, 33.6412061, 72.9955925, 0.999998, 0.0006785479, 0.0008725385, -0.001694772
 109293765, 0.08, 0.09, 359.8, 616.31, 33.6412061, 72.9955925, 0.9999979, 0.0007017253, 0.0008263586, -0.001726379
 109393725, 0.08, 0.09, 359.79, 616.56, 33.6412061, 72.9955925, 0.9999979, 0.0007050118, 0.0008346057, -0.00175072
 109493685, 0.07, 0.09, 359.79, 616.8, 33.6412061, 72.9955925, 0.9999979, 0.0006965338, 0.0008194989, -0.001762136
 109593645, 0.08, 0.08, 359.79, 617.05, 33.6412061, 72.9955925, 0.9999979, 0.0007292468, 0.000779609, -0.001787666
 109693605, 0.08, 0.09, 359.79, 617.3, 33.6412061, 72.9955925, 0.9999977, 0.0007558081, 0.0007942644, -0.001827862
 109793565, 0.1, 0.09, 359.78, 617.55, 33.6412061, 72.9955925, 0.9999975, 0.0009260253, 0.0008423523, -0.001861092
 109893525, 0.1, 0.09, 359.78, 617.79, 33.6412061, 72.9955925, 0.9999974, 0.000946273, 0.0008352475, -0.001890716
 109993485, 0.11, 0.09, 359.78, 618.05, 33.6412061, 72.9955925, 0.9999973, 0.0009703189, 0.0008554523, -0.001910704
 110093445, 0.09, 0.09, 359.77, 618.3, 33.6412061, 72.9955925, 0.9999974, 0.0008389531, 0.0008320512, -0.001929281
 110193405, 0.08, 0.09, 359.77, 618.54, 33.6412061, 72.9955925, 0.9999976, 0.000717339, 0.0008115566, -0.001922457
 110293365, 0.08, 0.09, 359.78, 618.8, 33.6412061, 72.9955925, 0.9999976, 0.0007211342, 0.0008214876, -0.001885958
 110393325, 0.08, 0.1, 359.78, 619.05, 33.6412061, 72.9955925, 0.9999976, 0.0007761791, 0.0009131366, -0.001864051
 110493285, 0.08, 0.1, 359.79, 619.3, 33.6412061, 72.9955925, 0.9999976, 0.0007717574, 0.0009001438, -0.001832885
 110594078, 0.09, 0.1, 359.79, 619.54, 33.6412061, 72.9955925, 0.9999977, 0.0007871913, 0.0008877404, -0.001805157
 110694038, 0.09, 0.09, 359.79, 619.79, 33.6412061, 72.9955925, 0.9999977, 0.0007915656, 0.0008490219, -0.001800671
 110793998, 0.09, 0.1, 359.79, 620.04, 33.6412061, 72.9955925, 0.9999976, 0.0008168517, 0.0008873339, -0.001818871
 110893958, 0.09, 0.09, 359.79, 620.29, 33.6412061, 72.9955925, 0.9999976, 0.0008355719, 0.0008399407, -0.001832149
 110993918, 0.09, 0.09, 359.79, 620.53, 33.6412061, 72.9955925, 0.9999976, 0.0008515424, 0.0008027675, -0.001827005
 111093878, 0.09, 0.08, 359.79, 620.78, 33.6412061, 72.9955925, 0.9999977, 0.0008632217, 0.0007527875, -0.001810302
 111193838, 0.1, 0.09, 359.79, 621.03, 33.6412061, 72.9955925, 0.9999976, 0.0009395338, 0.0008436941, -0.001792201
 111293798, 0.1, 0.09, 359.79, 621.29, 33.6412061, 72.9955925, 0.9999977, 0.0008865756, 0.0008537191, -0.001775942
 111393758, 0.09, 0.1, 359.79, 621.53, 33.6412061, 72.9955925, 0.9999977, 0.0008022771, 0.0008914968, -0.001762511
 111493718, 0.08, 0.09, 359.8, 621.78, 33.6412061, 72.9955925, 0.9999979, 0.0007319181, 0.0007921503, -0.001744634
 111593678, 0.09, 0.07, 359.8, 622.03, 33.6412061, 72.9955925, 0.999998, 0.0008023352, 0.0006884795, -0.001728517
 111693638, 0.09, 0.06, 359.8, 622.27, 33.6412061, 72.9955925, 0.999998, 0.0008629833, 0.0005917742, -0.001712879
 111793598, 0.1, 0.05, 359.8, 622.52, 33.6412061, 72.9955925, 0.999998, 0.0009213726, 0.0005184838, -0.00169613
 111893558, 0.11, 0.07, 359.8, 622.78, 33.6412061, 72.9955925, 0.9999979, 0.000979221, 0.000628293, -0.001689003
 111993518, 0.11, 0.09, 359.8, 623.03, 33.6412061, 72.9955925, 0.9999977, 0.0009828381, 0.000808987, -0.001717547
 112093478, 0.1, 0.09, 359.79, 623.27, 33.6412061, 72.9955924, 0.9999976, 0.0008800866, 0.0008695199, -0.001776529
 112193438, 0.1, 0.1, 359.78, 623.52, 33.6412061, 72.9955924, 0.9999974, 0.000943709, 0.0009005894, -0.001860421
 112293398, 0.11, 0.09, 359.77, 623.77, 33.6412061, 72.9955923, 0.9999973, 0.0009984849, 0.0008417194, -0.001948058
 112393358, 0.12, 0.09, 359.77, 624.02, 33.6412061, 72.9955923, 0.9999971, 0.00109681, 0.0007883082, -0.002006453
 112493318, 0.12, 0.08, 359.76, 624.28, 33.6412061, 72.9955923, 0.999997, 0.001133177, 0.0007319204, -0.002038208
 112593278, 0.13, 0.07, 359.76, 624.52, 33.6412061, 72.9955923, 0.999997, 0.0011821, 0.0006916665, -0.002044237
 112694071, 0.13, 0.09, 359.76, 624.77, 33.6412061, 72.9955923, 0.9999968, 0.001205237, 0.0008366919, -0.002035655
 112794031, 0.13, 0.11, 359.77, 625.02, 33.6412061, 72.9955923, 0.9999968, 0.001222997, 0.0009705613, -0.002001504
 112893991, 0.14, 0.12, 359.77, 625.27, 33.6412061, 72.9955923, 0.9999967, 0.001251088, 0.001062681, -0.001967296
 112993951, 0.14, 0.12, 359.78, 625.52, 33.6412061, 72.9955923, 0.9999968, 0.001247487, 0.001059135, -0.001910924
 113093911, 0.13, 0.1, 359.78, 625.77, 33.6412061, 72.9955923, 0.9999973, 0.001144986, 0.0008951614, -0.001844624
 113193871, 0.12, 0.09, 359.79, 626.02, 33.6412061, 72.9955923, 0.9999975, 0.001101409, 0.0007916484, -0.001772558
 113293831, 0.12, 0.09, 359.8, 626.27, 33.6412061, 72.9955923, 0.9999976, 0.001115758, 0.0008271395, -0.001713594
 113393791, 0.13, 0.1, 359.8, 626.51, 33.6412061, 72.9955923, 0.9999975, 0.001185113, 0.0008752445, -0.001680878
 113493751, 0.13, 0.1, 359.8, 626.76, 33.6412061, 72.9955923, 0.9999976, 0.00115985, 0.0008759288, -0.00167192
 113593711, 0.12, 0.09, 359.8, 627.01, 33.6412061, 72.9955923, 0.9999976, 0.001124282, 0.0008384823, -0.001687632
 113693671, 0.12, 0.09, 359.8, 627.26, 33.6412061, 72.9955923, 0.9999976, 0.001129272, 0.0008237488, -0.001712026
 113793631, 0.13, 0.09, 359.8, 627.51, 33.6412061, 72.9955923, 0.9999974, 0.001171742, 0.0008486588, -0.001735756
 113893591, 0.12, 0.09, 359.79, 627.76, 33.6412061, 72.9955923, 0.9999974, 0.001135648, 0.000851477, -0.00176055
 113993551, 0.12, 0.09, 359.79, 627.99, 33.6412061, 72.9955923, 0.9999974, 0.00113137, 0.0008331694, -0.001781046
 114093511, 0.12, 0.09, 359.79, 628.23, 33.6412061, 72.9955923, 0.9999975, 0.001050176, 0.0008222962, -0.001799951
 114193471, 0.12, 0.09, 359.79, 628.46, 33.6412061, 72.9955923, 0.9999974, 0.001077313, 0.0008632424, -0.001812138
 114293431, 0.12, 0.08, 359.79, 628.69, 33.6412061, 72.9955923, 0.9999975, 0.001081814, 0.0007623879, -0.001810533
 114393391, 0.13, 0.08, 359.79, 628.9, 33.6412061, 72.9955923, 0.9999974, 0.001156708, 0.0007620341, -0.001795007
 114493351, 0.12, 0.08, 359.79, 629.12, 33.6412061, 72.9955923, 0.9999975, 0.001131176, 0.0007449188, -0.001769518
 114593311, 0.12, 0.08, 359.8, 629.33, 33.6412061, 72.9955923, 0.9999977, 0.001063413, 0.0007139824, -0.001739654
 114693271, 0.1, 0.08, 359.8, 629.53, 33.6412061, 72.9955923, 0.9999979, 0.0009274196, 0.0007548995, -0.001704086
 114794064, 0.11, 0.09, 359.8, 629.72, 33.6412061, 72.9955923, 0.9999978, 0.0009838819, 0.0008010775, -0.001665807
 114894024, 0.11, 0.09, 359.81, 629.92, 33.6412061, 72.9955923, 0.9999979, 0.0009932013, 0.0008260416, -0.001620315
 114993984, 0.12, 0.1, 359.82, 630.09, 33.6412061, 72.9955923, 0.9999978, 0.00105918, 0.0008755127, -0.001570866
 115093944, 0.11, 0.09, 359.82, 630.27, 33.6412061, 72.9955923, 0.999998, 0.0009683739, 0.0008028298, -0.001518721
 115193904, 0.11, 0.09, 359.83, 630.46, 33.6412061, 72.9955923, 0.9999981, 0.0009920218, 0.0008125326, -0.00147368
 115293864, 0.11, 0.09, 359.83, 630.61, 33.6412061, 72.9955923, 0.9999981, 0.001008582, 0.0008589348, -0.001435439
 115393824, 0.11, 0.1, 359.83, 630.78, 33.6412061, 72.9955923, 0.9999981, 0.001028337, 0.0008864645, -0.001402591
 115493784, 0.11, 0.1, 359.84, 630.94, 33.6412061, 72.9955923, 0.999998, 0.001038759, 0.0009560128, -0.001372589
 115593744, 0.12, 0.11, 359.84, 631.08, 33.6412061, 72.9955923, 0.999998, 0.001062941, 0.001025365, -0.001348121
 115693704, 0.11, 0.11, 359.84, 631.23, 33.6412061, 72.9955923, 0.9999982, 0.001024244, 0.0009624245, -0.001336967
 115793664, 0.11, 0.1, 359.84, 631.37, 33.6412061, 72.9955923, 0.9999982, 0.0009781405, 0.0009507174, -0.001335765
 115893624, 0.1, 0.09, 359.84, 631.5, 33.6412061, 72.9955924, 0.9999983, 0.0009104583, 0.0008068372, -0.001352044
 115993584, 0.1, 0.09, 359.84, 631.63, 33.6412061, 72.9955924, 0.9999983, 0.0008986273, 0.0007899659, -0.001375742
 116093544, 0.09, 0.09, 359.83, 631.76, 33.6412061, 72.9955925, 0.9999983, 0.0008644811, 0.0008418496, -0.001401169
 116193504, 0.08, 0.09, 359.83, 631.88, 33.6412061, 72.9955925, 0.9999984, 0.000744927, 0.0008186608, -0.001421456
 116293464, 0.07, 0.09, 359.83, 631.98, 33.6412061, 72.9955925, 0.9999983, 0.0006968164, 0.0008551418, -0.001442427
 116393424, 0.07, 0.1, 359.83, 632.1, 33.6412061, 72.9955925, 0.9999983, 0.0006789034, 0.000903344, -0.001462089
 116493384, 0.07, 0.09, 359.83, 632.19, 33.6412061, 72.9955925, 0.9999983, 0.0006556166, 0.0008360217, -0.001477742
 116593344, 0.07, 0.08, 359.82, 632.29, 33.6412061, 72.9955925, 0.9999984, 0.0006260683, 0.0007610372, -0.001492232
 116693304, 0.04, 0.07, 359.82, 632.38, 33.6412061, 72.9955925, 0.9999986, 0.0004368212, 0.0006517134, -0.001502213
 116793264, 0.04, 0.07, 359.82, 632.47, 33.6412061, 72.9955925, 0.9999986, 0.0003779906, 0.0006863047, -0.001511884
 116894057, 0.04, 0.08, 359.82, 632.55, 33.6412061, 72.9955925, 0.9999985, 0.000390871, 0.0007680156, -0.001518801
 116994017, 0.05, 0.09, 359.82, 632.62, 33.6412061, 72.9955925, 0.9999983, 0.0004826585, 0.0008554108, -0.001519566
 117093977, 0.05, 0.09, 359.82, 632.69, 33.6412061, 72.9955925, 0.9999984, 0.0004583707, 0.0008612677, -0.001514884
 117193937, 0.05, 0.09, 359.82, 632.75, 33.6412061, 72.9955925, 0.9999984, 0.0004385785, 0.0008606412, -0.001508518
 117293897, 0.05, 0.1, 359.82, 632.81, 33.6412061, 72.9955925, 0.9999984, 0.0004756493, 0.0008788599, -0.001499744
 117393857, 0.06, 0.1, 359.82, 632.86, 33.6412061, 72.9955925, 0.9999983, 0.000564366, 0.0008822049, -0.001492393
 117493817, 0.08, 0.09, 359.83, 632.9, 33.6412061, 72.9955925, 0.9999983, 0.0007046732, 0.0007865122, -0.001482299
 117593777, 0.09, 0.08, 359.83, 632.94, 33.6412061, 72.9955925, 0.9999983, 0.0008109265, 0.0007771164, -0.001475052
 117693737, 0.09, 0.09, 359.83, 632.97, 33.6412061, 72.9955925, 0.9999983, 0.0008296613, 0.0007964903, -0.001468467
 117793697, 0.1, 0.09, 359.83, 632.99, 33.6412061, 72.9955925, 0.9999982, 0.00089125, 0.0008273632, -0.001462491
 117893657, -0.26, -0.9, 359.83, 633.01, 33.6412061, 72.9955925, 0.9999648, -0.002348484, -0.007925292, -0.001462986
 117993617, -0.94, -2.74, 359.84, 633.02, 33.6412061, 72.9955925, 0.9996776, -0.008247429, -0.02396626, -0.001506302
 118093577, -1.44, -4.11, 359.87, 633.03, 33.6412061, 72.9955925, 0.9992765, -0.01260876, -0.03584855, -0.001560707
 118193537, -1.73, -4.92, 359.89, 633.05, 33.6412061, 72.9955925, 0.9989593, -0.01519135, -0.04297597, -0.001595871
 118293497, -1.93, -5.48, 359.9, 633.06, 33.6412062, 72.9955925, 0.9987124, -0.01687606, -0.04781256, -0.001669926
 118393457, -2.06, -5.92, 359.76, 633.07, 33.6412063, 72.9955924, 0.9984984, -0.01809204, -0.0516205, -0.00300632
 118493417, -2.09, -6.3, 359.08, 633.08, 33.6412068, 72.9955921, 0.9982809, -0.01872777, -0.05481358, -0.008943118
 118593377, -1.99, -6.68, 357.47, 633.09, 33.6412071, 72.995592, 0.9978819, -0.01868919, -0.05790282, -0.02301607
 118693337, -1.74, -7.05, 354.89, 633.09, 33.6412077, 72.9955918, 0.9969592, -0.01788389, -0.06074528, -0.04541437
 118793297, -1.34, -7.37, 351.6, 633.1, 33.6412081, 72.9955916, 0.9951296, -0.01641852, -0.0633054, -0.07375488
 118894090, -0.85, -7.64, 347.88, 633.1, 33.6412091, 72.9955912, 0.9921272, -0.01443168, -0.0655044, -0.1057562
 118994050, -0.31, -7.82, 344.04, 633.11, 33.6412096, 72.9955909, 0.9879873, -0.01215124, -0.06722875, -0.1386139
 119094010, 0.23, -7.95, 340.3, 633.11, 33.6412108, 72.9955904, 0.9829193, -0.009854242, -0.06872708, -0.1704383
 119193970, 0.74, -8.03, 336.9, 633.11, 33.6412115, 72.9955901, 0.9774179, -0.007677332, -0.06997257, -0.1992463
 119293930, 1.18, -8.06, 334.01, 633.11, 33.6412129, 72.9955896, 0.9721053, -0.005768729, -0.07081693, -0.2235238
 119393890, 1.52, -8.07, 331.81, 633.12, 33.6412138, 72.9955892, 0.9676427, -0.004266313, -0.07155755, -0.2419276
 119493850, 1.76, -8.09, 330.36, 633.12, 33.6412154, 72.9955885, 0.9644943, -0.003220957, -0.07216056, -0.2540339
 119593810, 1.88, -8.13, 329.66, 633.12, 33.6412165, 72.995588, 0.9629015, -0.002690896, -0.07277266, -0.2598416
 119693770, 1.91, -8.2, 329.67, 633.12, 33.6412181, 72.9955873, 0.9628848, -0.002645612, -0.07337637, -0.2597338
 119793730, 1.84, -8.28, 330.32, 633.12, 33.6412194, 72.9955867, 0.9642899, -0.003019124, -0.07396206, -0.2542941
 119893690, 1.69, -8.4, 331.52, 633.12, 33.6412212, 72.9955859, 0.9668366, -0.003736183, -0.07463029, -0.2442198
 119993650, 1.47, -8.53, 333.18, 633.12, 33.6412227, 72.9955853, 0.9701803, -0.004737121, -0.07539456, -0.2303117
 120093610, 1.21, -8.7, 335.17, 633.12, 33.6412247, 72.9955846, 0.9739234, -0.005968004, -0.07637969, -0.2135504
 120193570, 0.91, -8.87, 337.39, 633.11, 33.6412263, 72.995584, 0.9777526, -0.007396187, -0.07743236, -0.1948063
 120293530, 0.58, -9.04, 339.69, 633.11, 33.6412283, 72.9955832, 0.9813374, -0.008918384, -0.07852503, -0.1753031
 120393490, 0.25, -9.22, 341.94, 633.11, 33.6412301, 72.9955825, 0.9844413, -0.01039988, -0.07974116, -0.1562319
 120493450, -0.03, -9.39, 344, 633.11, 33.6412323, 72.9955816, 0.9869431, -0.0117111, -0.08104875, -0.1386983
 120593410, -0.28, -9.57, 345.77, 633.11, 33.6412343, 72.9955808, 0.9888113, -0.01277134, -0.08249929, -0.1236246
 120693370, -0.47, -9.78, 347.16, 633.11, 33.6412367, 72.9955799, 0.9900675, -0.01365234, -0.08426709, -0.1117098
 120793330, -0.6, -10, 348.14, 633.11, 33.6412387, 72.9955791, 0.9908028, -0.01421772, -0.08614752, -0.1033746
 120893290, -0.64, -10.23, 348.67, 633.11, 33.6412413, 72.9955781, 0.9910873, -0.01440589, -0.08823193, -0.09876065
 120994083, -0.61, -10.49, 348.78, 633.1, 33.6412435, 72.9955772, 0.9909828, -0.01429162, -0.09047014, -0.09779578
 121094043, -0.51, -10.74, 348.5, 633.1, 33.6412462, 72.9955763, 0.990542, -0.01387343, -0.09274691, -0.1001605
 121194003, -0.36, -11.04, 347.88, 633.1, 33.6412486, 72.9955753, 0.9897683, -0.01328113, -0.09533436, -0.105326
 121293963, -0.15, -11.35, 347.01, 633.1, 33.6412513, 72.9955743, 0.9886975, -0.01248161, -0.09811943, -0.1126676
 121393923, 0.1, -11.64, 345.97, 633.1, 33.6412538, 72.9955733, 0.9874071, -0.01145137, -0.1007976, -0.121391
 121493883, 0.39, -11.95, 344.84, 633.09, 33.641257, 72.9955722, 0.9859197, -0.01035114, -0.1037211, -0.1307557
 121593843, 0.69, -12.27, 343.73, 633.09, 33.6412596, 72.9955712, 0.9843408, -0.00917535, -0.1067, -0.1400143
 121693803, 0.98, -12.59, 342.7, 633.09, 33.6412628, 72.99557, 0.9827768, -0.008019799, -0.1097287, -0.1484755
 121793763, 1.26, -12.9, 341.84, 633.09, 33.6412657, 72.9955689, 0.98135, -0.006916438, -0.1127092, -0.1555666
 121893723, 1.51, -13.21, 341.18, 633.08, 33.6412691, 72.9955678, 0.980158, -0.005870272, -0.1156951, -0.1608426
 121993683, 1.71, -13.53, 340.78, 633.08, 33.6412721, 72.9955667, 0.9792839, -0.005011164, -0.1186389, -0.1640205
 122093643, 1.86, -13.85, 340.64, 633.08, 33.6412757, 72.9955655, 0.9787738, -0.004358832, -0.1215537, -0.164947
 122193603, 1.96, -14.21, 340.77, 633.08, 33.6412789, 72.9955644, 0.9785958, -0.003853515, -0.1247945, -0.1635904
 122293563, 2.03, -14.56, 341.16, 633.07, 33.6412826, 72.9955632, 0.97878, -0.003335249, -0.1279041, -0.1600598
 122393523, 2.06, -14.91, 341.78, 633.07, 33.6412859, 72.995562, 0.9792558, -0.002856087, -0.1309588, -0.1545954
 122493483, 2.05, -14.84, 342.61, 633.07, 33.6412899, 72.9955608, 0.9804236, -0.001972719, -0.1303273, -0.147582
 122593443, 1.9, -12.21, 343.66, 633.06, 33.6412934, 72.9955597, 0.9843549, 0.001207189, -0.1076767, -0.1394621
 122693403, 1.79, -9.54, 344.8, 633.06, 33.6412976, 72.9955585, 0.9878326, 0.004460245, -0.08451804, -0.1304742
 122793363, 1.78, -7.83, 345.93, 633.06, 33.6413013, 72.9955573, 0.9901642, 0.00702764, -0.0697326, -0.1210903
 122893323, 1.83, -6.68, 347.03, 633.05, 33.6413054, 72.9955563, 0.9918958, 0.009267871, -0.05975145, -0.1117436
 122993283, 1.91, -5.75, 348.09, 633.05, 33.6413092, 72.9955551, 0.9932997, 0.01142006, -0.05162474, -0.1027629
 123094076, 2.04, -4.86, 349.07, 633.05, 33.6413131, 72.9955541, 0.9944767, 0.01368283, -0.04395077, -0.09432518
 123194036, 2.2, -3.99, 349.96, 633.03, 33.6413169, 72.995553, 0.9954342, 0.01611509, -0.03641716, -0.08674639
 123293996, 2.39, -3.2, 350.74, 633.03, 33.6413203, 72.9955523, 0.9961782, 0.01859753, -0.02956394, -0.08005737
 123393956, 2.61, -2.45, 351.42, 633.02, 33.641324, 72.9955513, 0.9967492, 0.02115331, -0.0230872, -0.07423373
 123493916, 2.83, -1.74, 352.01, 633.02, 33.6413273, 72.9955507, 0.9971774, 0.02359733, -0.0169414, -0.0692335
 123593876, 3.06, -1.11, 352.52, 633.02, 33.6413309, 72.9955498, 0.9974862, 0.02606338, -0.01144841, -0.06489161
 123693836, 3.31, -0.55, 352.98, 633.01, 33.641334, 72.9955493, 0.9977086, 0.0285578, -0.006573522, -0.0609822
 123793796, 3.56, -0.01, 353.43, 633.01, 33.6413374, 72.9955486, 0.9978759, 0.03107323, -0.001946528, -0.05722161
 123893756, 3.84, 0.46, 353.9, 633.01, 33.6413403, 72.9955484, 0.9980057, 0.03374679, 0.002231802, -0.05329859
 123993716, 4.16, 0.89, 354.42, 633, 33.6413435, 72.9955478, 0.998113, 0.03667262, 0.006066231, -0.04887454
 124093676, 4.51, 1.27, 355.04, 633, 33.641346, 72.9955476, 0.9982116, 0.03979551, 0.009445936, -0.04359733
 124193636, 4.92, 1.6, 355.81, 633, 33.6413491, 72.9955472, 0.9982893, 0.04343161, 0.01245701, -0.03710756
 124293596, 5.4, 1.88, 356.75, 632.99, 33.6413515, 72.9955473, 0.99833, 0.04761065, 0.0150714, -0.02903882
 124393556, 6, 2.14, 357.93, 632.99, 33.6413543, 72.995547, 0.9982734, 0.05267191, 0.01775571, -0.01898783
 124493516, 6.69, 2.64, 359.41, 632.99, 33.6413565, 72.9955474, 0.9980056, 0.05853331, 0.02274829, -0.006414398
 124593476, 7.55, 3.24, 1.25, 632.99, 33.6413591, 72.9955473, 0.9973891, 0.06552126, 0.02897225, 0.009079646
 124693436, 8.6, 3.75, 3.49, 632.99, 33.6413611, 72.9955479, 0.9962565, 0.07396998, 0.03492856, 0.02795339
 124793396, 9.95, 4.2, 6.23, 632.99, 33.6413635, 72.995548, 0.9942582, 0.08460736, 0.04120692, 0.05093425
 124893356, 11.65, 4.67, 9.58, 632.99, 33.641365, 72.9955489, 0.9908767, 0.09773235, 0.0488817, 0.07888125
 124993316, 13.76, 5.25, 13.74, 632.99, 33.6413672, 72.9955493, 0.9852759, 0.1134443, 0.05949888, 0.1132323
 125093276, 16.18, 6, 18.88, 632.97, 33.6413684, 72.9955507, 0.9765049, 0.1301224, 0.07424946, 0.1548979
 125194069, 18.49, 6.93, 25.1, 632.97, 33.6413703, 72.9955515, 0.963765, 0.1436131, 0.09315059, 0.2045856
 125294029, 19.97, 7.76, 32.16, 632.97, 33.641371, 72.9955534, 0.9473767, 0.1477862, 0.1120249, 0.2609348
 125393989, 20.09, 8.01, 39.8, 632.96, 33.6413725, 72.9955545, 0.9277358, 0.1402402, 0.1239394, 0.322921
 125493949, 18.88, 7.47, 47.75, 632.96, 33.6413724, 72.9955569, 0.9044339, 0.1236728, 0.1250306, 0.3886794
 125593909, 16.95, 6.29, 55.84, 632.96, 33.6413734, 72.9955584, 0.8764052, 0.104633, 0.1169401, 0.455292
 125693869, 15.35, 4.26, 63.91, 632.96, 33.6413724, 72.9955609, 0.8428811, 0.09372726, 0.101936, 0.5199767
 125793829, 15.26, 0.26, 71.56, 632.96, 33.6413728, 72.9955627, 0.8042417, 0.106374, 0.07954524, 0.5792689
 125893789, 13.93, -3.78, 79.21, 632.96, 33.6413716, 72.9955649, 0.7617754, 0.1142879, 0.05206851, 0.6355513
 125993749, 11.54, -6.68, 87.04, 632.96, 33.6413715, 72.9955669, 0.7161501, 0.112715, 0.02709425, 0.6882516
 126093709, 9.09, -8.48, 94.87, 632.96, 33.64137, 72.9955691, 0.6680611, 0.1078341, 0.008377897, 0.7362037
 126193669, 6.82, -9.59, 102.45, 632.96, 33.6413694, 72.9955711, 0.6190549, 0.1021967, -0.006053902, 0.7786463
 126293629, 4.66, -10.24, 109.61, 632.96, 33.6413678, 72.9955735, 0.5705805, 0.09621947, -0.01828374, 0.8153805
 126393589, 2.65, -10.58, 116.13, 632.96, 33.6413669, 72.9955756, 0.5247305, 0.09050327, -0.02921185, 0.8459395
 126493549, 0.91, -10.65, 121.69, 632.96, 33.6413655, 72.9955781, 0.4843974, 0.08498202, -0.03830317, 0.8698679
 126593509, -0.51, -10.57, 126.09, 632.96, 33.6413643, 72.9955804, 0.4517125, 0.08009899, -0.04575856, 0.8873816
 126693469, -1.6, -10.42, 129.26, 632.96, 33.6413627, 72.9955833, 0.4277712, 0.07606874, -0.05155236, 0.899204
 126793429, -2.39, -10.28, 131.22, 632.95, 33.6413615, 72.9955857, 0.4128196, 0.07302523, -0.05593581, 0.9061559
 126893389, -2.89, -10.24, 132.07, 632.95, 33.6413599, 72.9955887, 0.4064759, 0.07131568, -0.05922617, 0.9089465
 126993349, -3.15, -10.3, 131.9, 632.95, 33.6413586, 72.9955914, 0.4079691, 0.0708454, -0.0616095, 0.9081555
 127093309, -3.17, -10.47, 130.85, 632.95, 33.641357, 72.9955945, 0.4162802, 0.07152499, -0.0630894, 0.9042205
 127193269, -3, -10.74, 129.05, 632.95, 33.6413556, 72.9955973, 0.4302318, 0.07329793, -0.06384514, 0.8974697
 127294062, -2.63, -11.07, 126.65, 632.95, 33.641354, 72.9956006, 0.448666, 0.07595089, -0.06376339, 0.8881804
