Time,ATT_DesRoll,ATT_Roll,ATT_DesPitch,ATT_Pitch,ATT_DesYaw,ATT_Yaw,ATT_ErrRP,ATT_ErrYaw,ATT_AEKF
 74893364, 0, 0.06, 0, 0.05, 0.66, 0.66, 0, 0, 3
 74993324, 0, 0.06, 0, 0.05, 0.66, 0.66, 0, 0, 3
 75093284, 0, 0.06, 0, 0.05, 0.67, 0.67, 0, 0, 3
 75194077, 0, 0.06, 0, 0.05, 0.67, 0.67, 0, 0, 3
 75294037, 0, 0.06, 0, 0.05, 0.67, 0.67, 0, 0, 3
 75393997, 0, 0.06, 0, 0.05, 0.67, 0.67, 0, 0, 3
 75493957, 0, 0.06, 0, 0.05, 0.67, 0.67, 0, 0, 3
 75593917, 0, 0.07, 0, 0.05, 0.67, 0.67, 0, 0, 3
 75693877, 0, 0.07, 0, 0.05, 0.67, 0.67, 0, 0, 3
 75793837, 0, 0.07, 0, 0.06, 0.67, 0.67, 0, 0, 3
 75893797, 0, 0.07, 0, 0.06, 0.67, 0.67, 0, 0, 3
 75993757, 0, 0.07, 0, 0.06, 0.67, 0.67, 0, 0, 3
 76093717, 0, 0.07, 0, 0.06, 0.67, 0.67, 0, 0, 3
 76193677, 0, 0.07, 0, 0.06, 0.67, 0.67, 0, 0, 3
 76293637, 0, 0.07, 0, 0.06, 0.67, 0.67, 0, 0, 3
 76393597, 0, 0.07, 0, 0.06, 0.67, 0.67, 0, 0, 3
 76493557, 0, 0.07, 0, 0.06, 0.67, 0.67, 0, 0, 3
 76593517, 0, 0.08, 0, 0.07, 0.67, 0.67, 0, 0, 3
 76693477, 0, 0.08, 0, 0.07, 0.67, 0.67, 0, 0, 3
 76793437, 0, 0.08, 0, 0.07, 0.68, 0.68, 0, 0, 3
 76893397, 0, 0.08, 0, 0.07, 0.68, 0.68, 0, 0, 3
 76993357, 0, 0.08, 0, 0.07, 0.68, 0.68, 0, 0, 3
 77093317, 0, 0.08, 0, 0.07, 0.68, 0.68, 0, 0, 3
 77193277, 0, 0.09, 0, 0.07, 0.68, 0.68, 0, 0, 3
 77294070, 0, 0.09, 0, 0.08, 0.68, 0.68, 0, 0, 3
 77394030, 0, 0.09, 0, 0.08, 0.68, 0.68, 0, 0, 3
 77493990, 0, 0.09, 0, 0.08, 0.68, 0.68, 0, 0, 3
 77593950, 0, 0.09, 0, 0.08, 0.68, 0.68, 0, 0, 3
 77693910, 0, 0.09, 0, 0.08, 0.68, 0.68, 0, 0, 3
 77793870, 0, 0.1, 0, 0.09, 0.68, 0.68, 0, 0, 3
 77893830, 0, 0.1, 0, 0.09, 0.68, 0.68, 0, 0, 3
 77993790, 0, 0.1, 0, 0.09, 0.68, 0.68, 0, 0, 3
 78093750, 0, 0.1, 0, 0.09, 0.68, 0.68, 0, 0, 3
 78193710, 0, 0.1, 0, 0.09, 0.69, 0.69, 0, 0, 3
 78293670, 0, 0.11, 0, 0.09, 0.69, 0.69, 0, 0, 3
 78393630, 0, 0.11, 0, 0.1, 0.69, 0.69, 0, 0, 3
 78493590, 0, 0.11, 0, 0.1, 0.69, 0.69, 0, 0, 3
 78593550, 0, 0.11, 0, 0.1, 0.69, 0.69, 0, 0, 3
 78693510, 0, 0.11, 0, 0.1, 0.69, 0.69, 0, 0, 3
 78793470, 0, 0.11, 0, 0.1, 0.69, 0.69, 0, 0, 3
 78893430, 0, 0.12, 0, 0.1, 0.69, 0.69, 0, 0, 3
 78993390, -0.02, 0.12, -0.02, 0.11, 0.69, 0.69, 0, 0, 3
 79093350, -0.02, 0.12, -0.02, 0.11, 0.69, 0.69, 0, 0, 3
 79193310, -0.03, 0.12, -0.03, 0.11, 0.69, 0.7, 0, 0, 3
 79293270, -0.04, 0.12, -0.04, 0.11, 0.69, 0.7, 0, 0, 3
 79394063, -0.05, 0.13, -0.05, 0.11, 0.69, 0.7, 0, 0, 3
 79494023, -0.05, 0.13, -0.05, 0.12, 0.69, 0.7, 0, 0, 3
 79593983, -0.06, 0.13, -0.06, 0.12, 0.69, 0.7, 0, 0, 3
 79693943, -0.08, 0.13, -0.07, 0.12, 0.69, 0.7, 0, 0, 3
 79793903, -0.09, 0.13, -0.09, 0.12, 0.69, 0.7, 0, 0, 3
 79893863, -0.11, 0.13, -0.11, 0.12, 0.69, 0.7, 0, 0, 3
 79993823, -0.13, 0.14, -0.12, 0.12, 0.69, 0.7, 0, 0, 3
 80093783, -0.14, 0.02, -0.14, 0.02, 0.69, 0.7, 0, 0, 3
 80193743, -0.13, -0.11, -0.13, -0.11, 0.69, 0.7, 0, 0, 3
 80293703, -0.08, -0.17, -0.08, -0.16, 0.69, 0.7, 0, 0, 3
 80393663, 0, -0.15, -0.01, -0.14, 0.69, 0.7, 0, 0, 3
 80493623, 0.07, -0.09, 0.06, -0.08, 0.69, 0.69, 0, 0, 3
 80593583, 0.14, -0.01, 0.12, -0.02, 0.69, 0.69, 0, 0, 3
 80693543, 0.19, 0.04, 0.17, 0.02, 0.69, 0.69, 0, 0, 3
 80793503, 0.22, 0.08, 0.2, 0.07, 0.69, 0.68, 0, 0, 3
 80893463, 0.24, 0.11, 0.22, 0.1, 0.69, 0.68, 0, 0, 3
 80993423, 0.26, 0.14, 0.24, 0.12, 0.69, 0.68, 0, 0, 3
 81093383, 0.26, 0.16, 0.25, 0.14, 0.69, 0.67, 0, 0, 3
 81193343, 0.27, 0.17, 0.26, 0.16, 0.69, 0.67, 0, 0, 3
 81293303, 0.28, 0.19, 0.27, 0.18, 0.69, 0.67, 0, 0, 3
 81393263, 0.28, 0.2, 0.27, 0.19, 0.18, 0.16, 0, 0, 3
 81494056, 0.29, 0.21, 0.28, 0.21, 0.18, 0.16, 0, 0, 3
 81594016, 0.29, 0.21, 0.29, 0.22, 0.18, 0.17, 0, 0, 3
 81693976, 0.29, 0.22, 0.3, 0.23, 0.18, 0.17, 0, 0, 3
 81793936, 0.29, 0.23, 0.3, 0.25, 0.18, 0.18, 0, 0, 3
 81893896, 0.29, 0.24, 0.31, 0.25, 0.18, 0.18, 0, 0, 3
 81993856, 0.29, 0.24, 0.31, 0.26, 0.18, 0.18, 0, 0, 3
 82093816, 0.29, 0.24, 0.31, 0.26, 0.18, 0.18, 0, 0, 3
 82193776, 0.29, 0.25, 0.3, 0.26, 0.18, 0.18, 0, 0, 3
 82293736, 0.29, 0.25, 0.3, 0.26, 0.18, 0.18, 0, 0, 3
 82393696, 0.29, 0.25, 0.3, 0.26, 0.18, 0.18, 0, 0, 3
 82493656, 0.28, 0.26, 0.3, 0.27, 0.18, 0.18, 0, 0, 3
 82593616, 0.28, 0.27, 0.3, 0.27, 0.18, 0.18, 0, 0, 3
 82693576, 0.27, 0.27, 0.29, 0.26, 0.18, 0.18, 0, 0, 3
 82793536, 0.26, 0.24, 0.28, 0.26, 0.18, 0.18, 0, 0, 3
 82893496, 0.25, 0.23, 0.28, 0.25, 0.18, 0.18, 0, 0, 3
 82993456, 0.25, 0.22, 0.27, 0.25, 0.18, 0.18, 0, 0, 3
 83093416, 0.24, 0.22, 0.27, 0.25, 0.18, 0.17, 0, 0, 3
 83193376, 0.24, 0.22, 0.26, 0.25, 0.18, 0.17, 0, 0, 3
 83293336, 0.24, 0.21, 0.26, 0.24, 0.18, 0.17, 0, 0, 3
 83393296, 0.23, 0.21, 0.25, 0.24, 0.18, 0.17, 0, 0, 3
 83494089, 0.23, 0.21, 0.24, 0.23, 0.18, 0.18, 0, 0, 3
 83594049, 0.22, 0.2, 0.23, 0.22, 0.18, 0.18, 0, 0, 3
 83694009, 0.22, 0.2, 0.23, 0.21, 0.18, 0.18, 0, 0, 3
 83793969, 0.22, 0.2, 0.22, 0.21, 0.18, 0.18, 0, 0, 3
 83893929, 0.22, 0.2, 0.22, 0.21, 0.18, 0.18, 0, 0, 3
 83993889, 0.22, 0.2, 0.21, 0.21, 0.18, 0.18, 0, 0, 3
 84093849, 0.21, 0.19, 0.21, 0.21, 0.18, 0.18, 0, 0, 3
 84193809, 0.21, 0.19, 0.2, 0.2, 0.18, 0.18, 0, 0, 3
 84293769, 0.21, 0.2, 0.19, 0.19, 0.18, 0.18, 0, 0, 3
 84393729, 0.21, 0.2, 0.18, 0.18, 0.18, 0.18, 0, 0, 3
 84493689, 0.21, 0.19, 0.17, 0.15, 0.18, 0.18, 0, 0, 3
 84593649, 0.21, 0.19, 0.17, 0.15, 0.18, 0.18, 0, 0, 3
 84693609, 0.21, 0.21, 0.17, 0.15, 0.18, 0.18, 0, 0, 3
 84793569, 0.2, 0.2, 0.17, 0.15, 0.18, 0.18, 0, 0, 3
 84893529, 0.2, 0.2, 0.16, 0.15, 0.18, 0.18, 0, 0, 3
 84993489, 0.2, 0.2, 0.15, 0.15, 0.18, 0.18, 0, 0, 3
 85093449, 0.19, 0.19, 0.14, 0.13, 0.18, 0.18, 0, 0, 3
 85193409, 0.19, 0.18, 0.13, 0.11, 0.18, 0.18, 0, 0, 3
 85293369, 0.19, 0.18, 0.13, 0.11, 0.18, 0.17, 0, 0, 3
 85393329, 0.19, 0.18, 0.13, 0.12, 0.18, 0.17, 0, 0, 3
 85493289, 0.19, 0.19, 0.12, 0.11, 0.18, 0.17, 0, 0, 3
 85594082, 0.19, 0.19, 0.12, 0.12, 0.18, 0.17, 0, 0, 3
 85694042, 0.19, 0.19, 0.12, 0.12, 0.18, 0.17, 0, 0, 3
 85794002, 0.19, 0.19, 0.12, 0.12, 0.18, 0.17, 0, 0, 3
 85893962, 0.19, 0.17, 0.12, 0.11, 0.18, 0.17, 0, 0, 3
 85993922, 0.18, 0.17, 0.12, 0.1, 0.18, 0.17, 0, 0, 3
 86093882, 0.18, 0.17, 0.14, 0.12, 0.18, 0.17, 0, 0, 3
 86193842, 0.18, 0.18, 0.14, 0.14, 0.18, 0.17, 0, 0, 3
 86293802, 0.18, 0.17, 0.15, 0.14, 0.18, 0.17, 0, 0, 3
 86393762, 0.18, 0.17, 0.15, 0.15, 0.18, 0.17, 0, 0, 3
 86493722, 0.17, 0.16, 0.15, 0.15, 0.18, 0.17, 0, 0, 3
 86593682, 0.17, 0.16, 0.15, 0.15, 0.18, 0.17, 0, 0, 3
 86693642, 0.18, 0.16, 0.15, 0.16, 0.18, 0.18, 0, 0, 3
 86793602, 0.18, 0.16, 0.16, 0.16, 0.18, 0.18, 0, 0, 3
 86893562, 0.18, 0.17, 0.16, 0.16, 0.18, 0.18, 0, 0, 3
 86993522, 0.18, 0.17, 0.16, 0.17, 0.18, 0.18, 0, 0, 3
 87093482, 0.18, 0.16, 0.16, 0.16, 0.18, 0.18, 0, 0, 3
 87193442, 0.18, 0.17, 0.16, 0.16, 0.18, 0.18, 0, 0, 3
 87293402, 0.19, 0.17, 0.17, 0.16, 0.18, 0.18, 0, 0, 3
 87393362, 0.19, 0.18, 0.17, 0.16, 0.18, 0.18, 0, 0, 3
 87493322, 0.19, 0.18, 0.18, 0.17, 0.18, 0.18, 0, 0, 3
 87593282, 0.19, 0.18, 0.18, 0.17, 0.18, 0.18, 0, 0, 3
 87694075, 0.2, 0.18, 0.18, 0.17, 0.18, 0.18, 0, 0, 3
 87794035, 0.2, 0.19, 0.18, 0.17, 0.18, 0.18, 0, 0, 3
 87893995, 0.2, 0.18, 0.19, 0.19, 0.18, 0.17, 0, 0, 3
 87993955, 0.21, 0.19, 0.19, 0.19, 0.18, 0.18, 0, 0, 3
 88093915, 0.21, 0.19, 0.19, 0.19, 0.18, 0.18, 0, 0, 3
 88193875, 0.21, 0.21, 0.19, 0.18, 0.18, 0.18, 0, 0, 3
 88293835, 0.21, 0.22, 0.19, 0.17, 0.18, 0.18, 0, 0, 3
 88393795, 0.21, 0.22, 0.19, 0.17, 0.18, 0.18, 0, 0, 3
 88493755, 0.2, 0.21, 0.2, 0.18, 0.18, 0.18, 0, 0, 3
 88593715, 0.2, 0.21, 0.2, 0.18, 0.18, 0.18, 0, 0, 3
 88693675, 0.2, 0.2, 0.2, 0.19, 0.18, 0.18, 0, 0, 3
 88793635, 0.2, 0.2, 0.21, 0.2, 0.18, 0.18, 0, 0, 3
 88893595, 0.2, 0.2, 0.21, 0.2, 0.18, 0.18, 0, 0, 3
 88993555, 0.2, 0.19, 0.22, 0.21, 0.18, 0.18, 0, 0, 3
 89093515, 0.2, 0.19, 0.22, 0.22, 0.18, 0.18, 0, 0, 3
 89193475, 0.19, 0.18, 0.23, 0.22, 0.18, 0.18, 0, 0, 3
 89293435, 0.2, 0.18, 0.23, 0.22, 0.18, 0.17, 0, 0, 3
 89393395, 0.2, 0.18, 0.23, 0.22, 0.18, 0.17, 0, 0, 3
 89493355, 0.21, 0.19, 0.23, 0.22, 0.18, 0.17, 0, 0, 3
 89593315, 0.21, 0.2, 0.23, 0.22, 0.18, 0.17, 0, 0, 3
 89693275, 0.22, 0.21, 0.23, 0.21, 0.18, 0.17, 0, 0, 3
 89794068, 0.22, 0.22, 0.23, 0.22, 0.18, 0.17, 0, 0, 3
 89894028, 0.22, 0.22, 0.24, 0.23, 0.18, 0.18, 0, 0, 3
 89993988, 0.22, 0.22, 0.24, 0.23, 0.18, 0.18, 0, 0, 3
 90093948, 0.22, 0.21, 0.24, 0.22, 0.18, 0.18, 0, 0, 3
 90193908, 0.23, 0.21, 0.25, 0.23, 0.18, 0.18, 0, 0, 3
 90293868, 0.24, 0.22, 0.25, 0.23, 0.18, 0.18, 0, 0, 3
 90393828, 0.25, 0.25, 0.25, 0.24, 0.18, 0.18, 0, 0, 3
 90493788, 0.26, 0.25, 0.25, 0.24, 0.18, 0.18, 0, 0, 3
 90593748, 0.26, 0.25, 0.24, 0.24, 0.18, 0.18, 0, 0, 3
 90693708, 0.26, 0.26, 0.23, 0.24, 0.18, 0.18, 0, 0, 3
 90793668, 0.26, 0.26, 0.23, 0.23, 0.18, 0.18, 0, 0, 3
 90893628, 0.26, 0.26, 0.23, 0.23, 0.18, 0.18, 0, 0, 3
 90993588, 0.26, 0.24, 0.23, 0.22, 0.18, 0.18, 0, 0, 3
 91093548, 0.26, 0.23, 0.24, 0.22, 0.18, 0.18, 0, 0, 3
 91193508, 0.26, 0.23, 0.24, 0.23, 0.18, 0.18, 0, 0, 3
 91293468, 0.26, 0.24, 0.24, 0.23, 0.18, 0.18, 0, 0, 3
 91393428, 0.26, 0.25, 0.24, 0.23, 0.18, 0.18, 0, 0, 3
 91493388, 0.26, 0.24, 0.23, 0.23, 0.18, 0.17, 0, 0, 3
 91593348, 0.26, 0.24, 0.23, 0.22, 0.18, 0.17, 0, 0, 3
 91693308, 0.26, 0.24, 0.23, 0.22, 0.18, 0.17, 0, 0, 3
 91793268, 0.25, 0.24, 0.23, 0.22, 0.18, 0.17, 0, 0, 3
 91894061, 0.25, 0.23, 0.23, 0.22, 0.18, 0.17, 0, 0, 3
 91994021, 0.24, 0.24, 0.23, 0.22, 0.18, 0.17, 0, 0, 3
 92093981, 0.24, 0.23, 0.23, 0.22, 0.18, 0.17, 0, 0, 3
 92193941, 0.23, 0.23, 0.22, 0.21, 0.18, 0.17, 0, 0, 3
 92293901, 0.23, 0.22, 0.22, 0.21, 0.18, 0.17, 0, 0, 3
 92393861, 0.23, 0.21, 0.22, 0.21, 0.18, 0.17, 0, 0, 3
 92493821, 0.22, 0.21, 0.22, 0.19, 0.18, 0.17, 0, 0, 3
 92593781, 0.22, 0.2, 0.22, 0.19, 0.18, 0.18, 0, 0, 3
 92693741, 0.22, 0.2, 0.22, 0.2, 0.18, 0.18, 0, 0, 3
 92793701, 0.22, 0.2, 0.21, 0.21, 0.18, 0.18, 0, 0, 3
 92893661, 0.21, 0.2, 0.21, 0.21, 0.18, 0.18, 0, 0, 3
 92993621, 0.21, 0.2, 0.2, 0.2, 0.18, 0.18, 0, 0, 3
 93093581, 0.21, 0.18, 0.2, 0.19, 0.18, 0.18, 0, 0, 3
 93193541, 0.21, 0.18, 0.19, 0.18, 0.18, 0.18, 0, 0, 3
 93293501, 0.21, 0.19, 0.19, 0.18, 0.18, 0.18, 0, 0, 3
 93393461, 0.21, 0.2, 0.19, 0.18, 0.18, 0.18, 0, 0, 3
 93493421, 0.21, 0.19, 0.18, 0.18, 0.18, 0.18, 0, 0, 3
 93593381, 0.2, 0.2, 0.18, 0.18, 0.18, 0.17, 0, 0, 3
 93693341, 0.2, 0.19, 0.18, 0.17, 0.18, 0.17, 0, 0, 3
 93793301, 0.2, 0.19, 0.18, 0.17, 0.18, 0.17, 0, 0, 3
 93893261, 0.2, 0.18, 0.17, 0.17, 0.18, 0.17, 0, 0, 3
 93994054, 0.2, 0.18, 0.17, 0.16, 0.18, 0.17, 0, 0, 3
 94094014, 0.2, 0.18, 0.16, 0.15, 0.18, 0.17, 0, 0, 3
 94193974, 0.19, 0.19, 0.16, 0.15, 0.18, 0.17, 0, 0, 3
 94293934, 0.19, 0.18, 0.15, 0.14, 0.18, 0.18, 0, 0, 3
 94393894, 0.19, 0.19, 0.15, 0.15, 0.18, 0.18, 0, 0, 3
 94493854, 0.19, 0.19, 0.15, 0.14, 0.18, 0.18, 0, 0, 3
 94593814, 0.19, 0.18, 0.15, 0.14, 0.18, 0.18, 0, 0, 3
 94693774, 0.19, 0.18, 0.15, 0.14, 0.18, 0.18, 0, 0, 3
 94793734, 0.19, 0.18, 0.15, 0.14, 0.18, 0.17, 0, 0, 3
 94893694, 0.19, 0.18, 0.15, 0.14, 0.18, 0.17, 0, 0, 3
 94993654, 0.2, 0.18, 0.15, 0.14, 0.18, 0.17, 0, 0, 3
 95093614, 0.19, 0.18, 0.15, 0.14, 0.18, 0.17, 0, 0, 3
 95193574, 0.19, 0.18, 0.15, 0.14, 0.18, 0.17, 0, 0, 3
 95293534, 0.19, 0.18, 0.14, 0.13, 0.18, 0.17, 0, 0, 3
 95393494, 0.19, 0.18, 0.14, 0.13, 0.18, 0.17, 0, 0, 3
 95493454, 0.19, 0.18, 0.14, 0.13, 0.18, 0.16, 0, 0, 3
 95593414, 0.19, 0.18, 0.14, 0.13, 0.18, 0.16, 0, 0, 3
 95693374, 0.19, 0.18, 0.14, 0.13, 0.18, 0.16, 0, 0, 3
 95793334, 0.19, 0.18, 0.14, 0.13, 0.18, 0.16, 0, 0, 3
 95893294, 0.19, 0.18, 0.14, 0.12, 0.18, 0.16, 0, 0, 3
 95994087, 0.19, 0.18, 0.14, 0.13, 0.18, 0.17, 0, 0, 3
 96094047, 0.19, 0.17, 0.14, 0.13, 0.18, 0.17, 0, 0, 3
 96194007, 0.19, 0.17, 0.14, 0.13, 0.18, 0.17, 0, 0, 3
 96293967, 0.19, 0.18, 0.14, 0.14, 0.18, 0.17, 0, 0, 3
 96393927, 0.19, 0.18, 0.14, 0.14, 0.18, 0.17, 0, 0, 3
 96493887, 0.19, 0.18, 0.15, 0.14, 0.18, 0.17, 0, 0, 3
 96593847, 0.19, 0.18, 0.15, 0.14, 0.18, 0.17, 0, 0, 3
 96693807, 0.18, 0.19, 0.15, 0.15, 0.18, 0.17, 0, 0, 3
 96793767, 0.18, 0.19, 0.15, 0.15, 0.18, 0.17, 0, 0, 3
 96893727, 0.17, 0.18, 0.15, 0.15, 0.18, 0.17, 0, 0, 3
 96993687, 0.17, 0.18, 0.15, 0.15, 0.18, 0.17, 0, 0, 3
 97093647, 0.17, 0.16, 0.15, 0.13, 0.18, 0.17, 0, 0, 3
 97193607, 0.17, 0.16, 0.15, 0.13, 0.18, 0.17, 0, 0, 3
 97293567, 0.18, 0.17, 0.15, 0.14, 0.18, 0.17, 0, 0, 3
 97393527, 0.18, 0.17, 0.15, 0.14, 0.18, 0.17, 0, 0, 3
 97493487, 0.18, 0.17, 0.15, 0.13, 0.18, 0.17, 0, 0, 3
 97593447, 0.18, 0.17, 0.16, 0.13, 0.18, 0.17, 0, 0, 3
 97693407, 0.18, 0.17, 0.16, 0.14, 0.18, 0.17, 0, 0, 3
 97793367, 0.18, 0.17, 0.16, 0.15, 0.18, 0.17, 0, 0, 3
 97893327, 0.18, 0.17, 0.16, 0.14, 0.18, 0.17, 0, 0, 3
 97993287, 0.18, 0.17, 0.16, 0.14, 0.18, 0.17, 0, 0, 3
 98094080, 0.17, 0.18, 0.16, 0.14, 0.18, 0.16, 0, 0, 3
 98194040, 0.17, 0.18, 0.16, 0.14, 0.18, 0.16, 0, 0, 3
 98294000, 0.17, 0.16, 0.16, 0.14, 0.18, 0.16, 0, 0, 3
 98393960, 0.17, 0.15, 0.17, 0.14, 0.18, 0.16, 0, 0, 3
 98493920, 0.18, 0.15, 0.17, 0.15, 0.18, 0.16, 0, 0, 3
 98593880, 0.18, 0.16, 0.17, 0.16, 0.18, 0.16, 0, 0, 3
 98693840, 0.18, 0.17, 0.16, 0.15, 0.18, 0.16, 0, 0, 3
 98793800, 0.18, 0.17, 0.16, 0.15, 0.18, 0.17, 0, 0, 3
 98893760, 0.18, 0.16, 0.16, 0.15, 0.18, 0.17, 0, 0, 3
 98993720, 0.18, 0.17, 0.15, 0.15, 0.18, 0.18, 0, 0, 3
 99093680, 0.18, 0.16, 0.15, 0.15, 0.18, 0.19, 0, 0, 3
 99193640, 0.17, 0.16, 0.15, 0.15, 0.18, 0.19, 0, 0, 3
 99293600, 0.17, 0.16, 0.14, 0.14, 0.18, 0.19, 0, 0, 3
 99393560, 0.16, 0.15, 0.14, 0.14, 0.18, 0.19, 0, 0, 3
 99493520, 0.15, 0.13, 0.13, 0.14, 0.18, 0.19, 0, 0, 3
 99593480, 0.15, 0.13, 0.13, 0.14, 0.18, 0.19, 0, 0, 3
 99693440, 0.14, 0.13, 0.13, 0.14, 0.18, 0.19, 0, 0, 3
 99793400, 0.14, 0.12, 0.13, 0.14, 0.18, 0.19, 0, 0, 3
 99893360, 0.14, 0.12, 0.13, 0.14, 0.18, 0.18, 0, 0, 3
 99993320, 0.13, 0.12, 0.13, 0.14, 0.18, 0.18, 0, 0, 3
 100093280, 0.14, 0.12, 0.13, 0.13, 0.18, 0.18, 0, 0, 3
 100194073, 0.14, 0.12, 0.13, 0.13, 0.18, 0.18, 0, 0, 3
 100294033, 0.14, 0.13, 0.13, 0.13, 0.18, 0.17, 0, 0, 3
 100393993, 0.14, 0.13, 0.13, 0.13, 0.18, 0.17, 0, 0, 3
 100493953, 0.14, 0.13, 0.13, 0.12, 0.18, 0.17, 0, 0, 3
 100593913, 0.14, 0.13, 0.13, 0.13, 0.18, 0.17, 0, 0, 3
 100693873, 0.14, 0.13, 0.14, 0.12, 0.18, 0.17, 0, 0, 3
 100793833, 0.14, 0.13, 0.14, 0.13, 0.18, 0.17, 0, 0, 3
 100893793, 0.15, 0.14, 0.14, 0.13, 0.18, 0.17, 0, 0, 3
 100993753, 0.15, 0.14, 0.14, 0.13, 0.18, 0.17, 0, 0, 3
 101093713, 0.15, 0.14, 0.15, 0.13, 0.18, 0.17, 0, 0, 3
 101193673, 0.15, 0.15, 0.15, 0.13, 0.18, 0.17, 0, 0, 3
 101293633, 0.15, 0.15, 0.15, 0.13, 0.18, 0.17, 0, 0, 3
 101393593, 0.15, 0.15, 0.15, 0.14, 0.18, 0.17, 0, 0, 3
 101493553, 0.16, 0.15, 0.15, 0.14, 0.18, 0.17, 0, 0, 3
 101593513, 0.16, 0.15, 0.15, 0.14, 0.18, 0.17, 0, 0, 3
 101693473, 0.15, 0.15, 0.15, 0.14, 0.18, 0.18, 0, 0, 3
 101793433, 0.15, 0.15, 0.15, 0.14, 0.18, 0.18, 0, 0, 3
 101893393, 0.16, 0.14, 0.15, 0.14, 0.18, 0.18, 0, 0, 3
 101993353, 0.16, 0.15, 0.15, 0.14, 0.18, 0.17, 0, 0, 3
 102093313, 0.16, 0.15, 0.15, 0.14, 0.18, 0.17, 0, 0, 3
 102193273, 0.16, 0.15, 0.15, 0.14, 0.18, 0.17, 0, 0, 3
 102294066, 0.16, 0.15, 0.15, 0.13, 0.18, 0.17, 0, 0, 3
 102394026, 0.16, 0.15, 0.15, 0.14, 0.18, 0.18, 0, 0, 3
 102493986, 0.16, 0.15, 0.15, 0.14, 0.18, 0.18, 0, 0, 3
 102593946, 0.16, 0.15, 0.15, 0.14, 0.18, 0.17, 0, 0, 3
 102693906, 0.16, 0.15, 0.14, 0.13, 0.18, 0.17, 0, 0, 3
 102793866, 0.17, 0.15, 0.15, 0.13, 0.18, 0.17, 0, 0, 3
 102893826, 0.16, 0.15, 0.14, 0.13, 0.18, 0.17, 0, 0, 3
 102993786, 0.16, 0.15, 0.14, 0.13, 0.18, 0.18, 0, 0, 3
 103093746, 0.17, 0.16, 0.14, 0.13, 0.18, 0.18, 0, 0, 3
 103193706, 0.17, 0.16, 0.14, 0.13, 0.18, 0.18, 0, 0, 3
 103293666, 0.18, 0.17, 0.14, 0.13, 0.18, 0.18, 0, 0, 3
 103393626, 0.18, 0.17, 0.14, 0.13, 0.18, 0.18, 0, 0, 3
 103493586, 0.19, 0.18, 0.14, 0.13, 0.18, 0.18, 0, 0, 3
 103593546, 0.2, 0.19, 0.14, 0.13, 0.18, 0.17, 0, 0, 3
 103693506, 0.2, 0.19, 0.14, 0.13, 0.18, 0.17, 0, 0, 3
 103793466, 0.2, 0.19, 0.14, 0.13, 0.18, 0.17, 0, 0, 3
 103893426, 0.2, 0.19, 0.13, 0.12, 0.18, 0.16, 0, 0, 3
 103993386, 0.2, 0.19, 0.13, 0.12, 0.18, 0.16, 0, 0, 3
 104093346, 0.2, 0.19, 0.13, 0.12, 0.18, 0.16, 0, 0, 3
 104193306, 0.2, 0.19, 0.13, 0.12, 0.18, 0.16, 0, 0, 3
 104293266, 0.2, 0.19, 0.13, 0.12, 0.18, 0.16, 0, 0, 3
 104394059, 0.19, 0.18, 0.13, 0.12, 0.18, 0.16, 0, 0, 3
 104494019, 0.19, 0.18, 0.13, 0.12, 0.18, 0.16, 0, 0, 3
 104593979, 0.19, 0.18, 0.13, 0.12, 0.18, 0.16, 0, 0, 3
 104693939, 0.19, 0.18, 0.13, 0.13, 0.18, 0.17, 0, 0, 3
 104793899, 0.18, 0.17, 0.13, 0.12, 0.18, 0.17, 0, 0, 3
 104893859, 0.18, 0.17, 0.13, 0.13, 0.18, 0.17, 0, 0, 3
 104993819, 0.18, 0.17, 0.13, 0.13, 0.18, 0.17, 0, 0, 3
 105093779, 0.17, 0.16, 0.13, 0.13, 0.18, 0.17, 0, 0, 3
 105193739, 0.17, 0.16, 0.13, 0.13, 0.18, 0.17, 0, 0, 3
 105293699, 0.17, 0.16, 0.14, 0.13, 0.18, 0.17, 0, 0, 3
 105393659, 0.17, 0.16, 0.14, 0.13, 0.18, 0.17, 0, 0, 3
 105493619, 0.17, 0.16, 0.14, 0.12, 0.18, 0.17, 0, 0, 3
 105593579, 0.17, 0.16, 0.14, 0.13, 0.18, 0.17, 0, 0, 3
 105693539, 0.17, 0.16, 0.14, 0.13, 0.18, 0.17, 0, 0, 3
 105793499, 0.17, 0.15, 0.14, 0.12, 0.18, 0.17, 0, 0, 3
 105893459, 0.16, 0.15, 0.14, 0.13, 0.18, 0.17, 0, 0, 3
 105993419, 0.16, 0.16, 0.14, 0.13, 0.18, 0.17, 0, 0, 3
 106093379, 0.16, 0.15, 0.14, 0.13, 0.18, 0.17, 0, 0, 3
 106193339, 0.16, 0.16, 0.14, 0.13, 0.18, 0.16, 0, 0, 3
 106293299, 0.16, 0.16, 0.13, 0.13, 0.18, 0.16, 0, 0, 3
 106394092, 0.15, 0.15, 0.13, 0.13, 0.18, 0.16, 0, 0, 3
 106494052, 0.15, 0.15, 0.13, 0.12, 0.18, 0.16, 0, 0, 3
 106594012, 0.15, 0.14, 0.13, 0.12, 0.18, 0.16, 0, 0, 3
 106693972, 0.16, 0.14, 0.14, 0.12, 0.18, 0.16, 0, 0, 3
 106793932, 0.16, 0.15, 0.13, 0.13, 0.18, 0.16, 0, 0, 3
 106893892, 0.16, 0.15, 0.13, 0.12, 0.18, 0.16, 0, 0, 3
 106993852, 0.16, 0.15, 0.13, 0.12, 0.18, 0.17, 0, 0, 3
 107093812, 0.16, 0.15, 0.13, 0.12, 0.18, 0.17, 0, 0, 3
 107193772, 0.16, 0.15, 0.13, 0.12, 0.18, 0.17, 0, 0, 3
 107293732, 0.16, 0.15, 0.13, 0.12, 0.18, 0.17, 0, 0, 3
 107393692, 0.16, 0.15, 0.13, 0.12, 0.18, 0.17, 0, 0, 3
 107493652, 0.16, 0.15, 0.13, 0.12, 0.18, 0.17, 0, 0, 3
 107593612, 0.16, 0.15, 0.13, 0.13, 0.18, 0.17, 0, 0, 3
 107693572, 0.16, 0.14, 0.13, 0.12, 0.18, 0.17, 0, 0, 3
 107793532, 0.15, 0.14, 0.13, 0.12, 0.18, 0.16, 0, 0, 3
 107893492, 0.15, 0.13, 0.13, 0.12, 0.18, 0.16, 0, 0, 3
 107993452, 0.14, 0.13, 0.13, 0.12, 0.18, 0.17, 0, 0, 3
 108093412, 0.13, 0.12, 0.13, 0.12, 0.18, 0.17, 0, 0, 3
 108193372, 0.12, 0.11, 0.13, 0.12, 0.18, 0.18, 0, 0, 3
 108293332, 0.12, 0.1, 0.13, 0.12, 0.18, 0.18, 0, 0, 3
 108393292, 0.12, 0.11, 0.13, 0.12, 0.18, 0.19, 0, 0, 3
 108494085, 0.12, 0.1, 0.13, 0.12, 0.18, 0.19, 0, 0, 3
 108594045, 0.12, 0.1, 0.13, 0.12, 0.18, 0.19, 0, 0, 3
 108694005, 0.11, 0.1, 0.13, 0.12, 0.18, 0.19, 0, 0, 3
 108793965, 0.12, 0.1, 0.13, 0.12, 0.18, 0.19, 0, 0, 3
 108893925, 0.12, 0.1, 0.13, 0.12, 0.18, 0.19, 0, 0, 3
 108993885, 0.12, 0.11, 0.13, 0.12, 0.18, 0.19, 0, 0, 3
 109093845, 0.12, 0.11, 0.13, 0.12, 0.18, 0.18, 0, 0, 3
 109193805, 0.13, 0.11, 0.13, 0.13, 0.18, 0.18, 0, 0, 3
 109293765, 0.13, 0.12, 0.13, 0.12, 0.18, 0.18, 0, 0, 3
 109393725, 0.13, 0.12, 0.13, 0.12, 0.18, 0.18, 0, 0, 3
 109493685, 0.13, 0.12, 0.13, 0.12, 0.18, 0.18, 0, 0, 3
 109593645, 0.13, 0.12, 0.13, 0.11, 0.18, 0.17, 0, 0, 3
 109693605, 0.14, 0.12, 0.13, 0.12, 0.18, 0.17, 0, 0, 3
 109793565, 0.14, 0.14, 0.13, 0.12, 0.18, 0.17, 0, 0, 3
 109893525, 0.13, 0.14, 0.13, 0.12, 0.18, 0.16, 0, 0, 3
 109993485, 0.13, 0.15, 0.13, 0.12, 0.18, 0.16, 0, 0, 3
 110093445, 0.13, 0.13, 0.12, 0.12, 0.18, 0.16, 0, 0, 3
 110193405, 0.13, 0.12, 0.12, 0.12, 0.18, 0.16, 0, 0, 3
 110293365, 0.13, 0.12, 0.13, 0.12, 0.18, 0.16, 0, 0, 3
 110393325, 0.13, 0.12, 0.13, 0.13, 0.18, 0.17, 0, 0, 3
 110493285, 0.14, 0.12, 0.12, 0.12, 0.18, 0.17, 0, 0, 3
 110594078, 0.14, 0.12, 0.12, 0.12, 0.18, 0.17, 0, 0, 3
 110694038, 0.14, 0.13, 0.12, 0.12, 0.18, 0.17, 0, 0, 3
 110793998, 0.14, 0.13, 0.12, 0.12, 0.18, 0.17, 0, 0, 3
 110893958, 0.14, 0.13, 0.12, 0.12, 0.18, 0.17, 0, 0, 3
 110993918, 0.14, 0.13, 0.12, 0.11, 0.18, 0.17, 0, 0, 3
 111093878, 0.14, 0.13, 0.11, 0.11, 0.18, 0.18, 0, 0, 3
 111193838, 0.15, 0.14, 0.11, 0.12, 0.18, 0.18, 0, 0, 3
 111293798, 0.14, 0.14, 0.11, 0.12, 0.18, 0.18, 0, 0, 3
 111393758, 0.14, 0.13, 0.11, 0.12, 0.18, 0.18, 0, 0, 3
 111493718, 0.14, 0.12, 0.11, 0.11, 0.18, 0.18, 0, 0, 3
 111593678, 0.15, 0.13, 0.11, 0.1, 0.18, 0.19, 0, 0, 3
 111693638, 0.15, 0.13, 0.11, 0.09, 0.18, 0.19, 0, 0, 3
 111793598, 0.15, 0.14, 0.12, 0.08, 0.18, 0.19, 0, 0, 3
 111893558, 0.15, 0.15, 0.13, 0.09, 0.18, 0.19, 0, 0, 3
 111993518, 0.14, 0.15, 0.13, 0.11, 0.18, 0.19, 0, 0, 3
 112093478, 0.14, 0.14, 0.13, 0.12, 0.18, 0.18, 0, 0, 3
 112193438, 0.15, 0.14, 0.13, 0.13, 0.18, 0.17, 0, 0, 3
 112293398, 0.15, 0.15, 0.13, 0.12, 0.18, 0.16, 0, 0, 3
 112393358, 0.16, 0.16, 0.13, 0.11, 0.18, 0.15, 0, 0, 3
 112493318, 0.17, 0.16, 0.13, 0.1, 0.18, 0.15, 0, 0, 3
 112593278, 0.17, 0.17, 0.14, 0.1, 0.18, 0.15, 0, 0, 3
 112694071, 0.18, 0.17, 0.14, 0.12, 0.18, 0.15, 0, 0, 3
 112794031, 0.18, 0.17, 0.14, 0.13, 0.18, 0.15, 0, 0, 3
 112893991, 0.18, 0.17, 0.14, 0.14, 0.18, 0.15, 0, 0, 3
 112993951, 0.17, 0.17, 0.13, 0.14, 0.18, 0.16, 0, 0, 3
 113093911, 0.17, 0.16, 0.12, 0.12, 0.18, 0.16, 0, 0, 3
 113193871, 0.17, 0.16, 0.12, 0.11, 0.18, 0.17, 0, 0, 3
 113293831, 0.18, 0.16, 0.12, 0.11, 0.18, 0.18, 0, 0, 3
 113393791, 0.18, 0.17, 0.12, 0.12, 0.18, 0.18, 0, 0, 3
 113493751, 0.18, 0.16, 0.12, 0.12, 0.18, 0.18, 0, 0, 3
 113593711, 0.17, 0.16, 0.12, 0.12, 0.18, 0.18, 0, 0, 3
 113693671, 0.17, 0.16, 0.11, 0.11, 0.18, 0.17, 0, 0, 3
 113793631, 0.17, 0.16, 0.11, 0.12, 0.18, 0.17, 0, 0, 3
 113893591, 0.17, 0.16, 0.11, 0.12, 0.18, 0.16, 0, 0, 3
 113993551, 0.17, 0.16, 0.11, 0.12, 0.18, 0.16, 0, 0, 3
 114093511, 0.17, 0.15, 0.11, 0.11, 0.18, 0.16, 0, 0, 3
 114193471, 0.17, 0.15, 0.11, 0.12, 0.18, 0.15, 0, 0, 3
 114293431, 0.17, 0.15, 0.11, 0.1, 0.18, 0.15, 0, 0, 3
 114393391, 0.17, 0.16, 0.11, 0.11, 0.18, 0.15, 0, 0, 3
 114493351, 0.17, 0.16, 0.11, 0.1, 0.18, 0.15, 0, 0, 3
 114593311, 0.16, 0.15, 0.11, 0.1, 0.18, 0.16, 0, 0, 3
 114693271, 0.16, 0.13, 0.12, 0.1, 0.18, 0.16, 0, 0, 3
 114794064, 0.16, 0.14, 0.12, 0.11, 0.18, 0.16, 0, 0, 3
 114894024, 0.16, 0.14, 0.13, 0.11, 0.18, 0.17, 0, 0, 3
 114993984, 0.16, 0.15, 0.13, 0.12, 0.18, 0.17, 0, 0, 3
 115093944, 0.16, 0.14, 0.13, 0.11, 0.18, 0.17, 0, 0, 3
 115193904, 0.16, 0.14, 0.13, 0.11, 0.18, 0.18, 0, 0, 3
 115293864, 0.16, 0.14, 0.13, 0.12, 0.18, 0.18, 0, 0, 3
 115393824, 0.16, 0.15, 0.13, 0.12, 0.18, 0.18, 0, 0, 3
 115493784, 0.16, 0.15, 0.13, 0.13, 0.18, 0.19, 0, 0, 3
 115593744, 0.15, 0.15, 0.12, 0.14, 0.18, 0.19, 0, 0, 3
 115693704, 0.15, 0.14, 0.12, 0.13, 0.18, 0.19, 0, 0, 3
 115793664, 0.15, 0.14, 0.12, 0.13, 0.18, 0.19, 0, 0, 3
 115893624, 0.14, 0.13, 0.12, 0.11, 0.18, 0.19, 0, 0, 3
 115993584, 0.14, 0.13, 0.11, 0.11, 0.18, 0.18, 0, 0, 3
 116093544, 0.14, 0.13, 0.11, 0.12, 0.18, 0.18, 0, 0, 3
 116193504, 0.12, 0.11, 0.11, 0.11, 0.18, 0.18, 0, 0, 3
 116293464, 0.11, 0.11, 0.11, 0.12, 0.18, 0.18, 0, 0, 3
 116393424, 0.11, 0.11, 0.11, 0.12, 0.18, 0.17, 0, 0, 3
 116493384, 0.1, 0.11, 0.11, 0.12, 0.18, 0.17, 0, 0, 3
 116593344, 0.09, 0.1, 0.1, 0.11, 0.18, 0.17, 0, 0, 3
 116693304, 0.09, 0.08, 0.1, 0.1, 0.18, 0.17, 0, 0, 3
 116793264, 0.09, 0.08, 0.11, 0.1, 0.18, 0.17, 0, 0, 3
 116894057, 0.09, 0.08, 0.11, 0.11, 0.18, 0.17, 0, 0, 3
 116994017, 0.09, 0.09, 0.11, 0.12, 0.18, 0.17, 0, 0, 3
 117093977, 0.1, 0.09, 0.11, 0.12, 0.18, 0.17, 0, 0, 3
 117193937, 0.1, 0.08, 0.11, 0.12, 0.18, 0.17, 0, 0, 3
 117293897, 0.11, 0.09, 0.11, 0.12, 0.18, 0.17, 0, 0, 3
 117393857, 0.11, 0.1, 0.11, 0.12, 0.18, 0.17, 0, 0, 3
 117493817, 0.12, 0.11, 0.11, 0.11, 0.18, 0.17, 0, 0, 3
 117593777, 0.12, 0.13, 0.11, 0.11, 0.18, 0.17, 0, 0, 3
 117693737, 0.12, 0.13, 0.11, 0.11, 0.18, 0.18, 0, 0, 3
 117793697, 0.11, 0.14, 0.1, 0.12, 0.18, 0.18, 0, 0, 3
 117893657, -0.33, -0.23, -1.13, -0.88, 0.18, 0.18, 0, 0, 3
 117993617, -0.97, -0.9, -2.88, -2.72, 0.21, 0.2, 0, 0, 3
 118093577, -1.39, -1.4, -4.05, -4.07, 0.23, 0.23, 0, 0, 3
 118193537, -1.65, -1.69, -4.78, -4.88, 0.25, 0.25, 0, 0, 3
 118293497, -1.74, -1.87, -5.33, -5.41, 359.32, 0.25, 0, 0, 3
 118393457, -1.51, -2, -5.87, -5.82, 355.7, 0.11, 0, 0, 3
 118493417, -0.95, -2.03, -6.38, -6.19, 349.88, 359.42, 0, 0, 3
 118593377, -0.44, -1.93, -6.78, -6.56, 345.31, 357.78, 0, 0, 3
 118693337, -0.15, -1.67, -7.08, -6.92, 342.96, 355.13, 0, 0, 3
 118793297, 0.01, -1.28, -7.32, -7.24, 341.79, 351.8, 0, 0, 3
 118894090, 0.11, -0.8, -7.52, -7.5, 341.22, 348.03, 0, 0.01, 3
 118994050, 0.17, -0.26, -7.66, -7.68, 340.95, 344.13, 0, 0.01, 3
 119094010, 0.21, 0.26, -7.79, -7.81, 340.85, 340.3, 0, 0.02, 3
 119193970, 0.23, 0.77, -7.91, -7.88, 340.82, 336.84, 0, 0.02, 3
 119293930, 0.25, 1.2, -7.98, -7.91, 340.84, 333.86, 0, 0.02, 3
 119393890, 0.26, 1.54, -8.07, -7.93, 340.88, 331.62, 0, 0.02, 3
 119493850, 0.27, 1.77, -8.14, -7.95, 340.93, 330.11, 0, 0.02, 3
 119593810, 0.26, 1.9, -8.21, -7.99, 340.99, 329.4, 0, 0.02, 3
 119693770, 0.26, 1.92, -8.28, -8.06, 341.06, 329.38, 0, 0.01, 3
 119793730, 0.26, 1.85, -8.36, -8.15, 341.13, 330.04, 0, 0.01, 3
 119893690, 0.26, 1.7, -8.44, -8.27, 341.2, 331.23, 0, 0.01, 3
 119993650, 0.26, 1.49, -8.54, -8.41, 341.28, 332.9, 0, 0.01, 3
 120093610, 0.27, 1.23, -8.67, -8.58, 341.36, 334.91, 0, 0.01, 3
 120193570, 0.27, 0.92, -8.81, -8.76, 341.44, 337.14, 0, 0.01, 3
 120293530, 0.28, 0.6, -8.95, -8.94, 341.53, 339.45, 0, 0.02, 3
 120393490, 0.3, 0.27, -9.12, -9.12, 341.62, 341.71, 0, 0.02, 3
 120493450, 0.33, -0.01, -9.29, -9.29, 341.71, 343.77, 0, 0.02, 3
 120593410, 0.36, -0.25, -9.48, -9.47, 341.8, 345.54, 0, 0.02, 3
 120693370, 0.4, -0.45, -9.69, -9.69, 341.9, 346.93, 0, 0.02, 3
 120793330, 0.45, -0.57, -9.92, -9.91, 342.01, 347.9, 0, 0.02, 3
 120893290, 0.5, -0.62, -10.16, -10.15, 342.12, 348.42, 0, 0.01, 3
 120994083, 0.55, -0.59, -10.41, -10.4, 342.23, 348.52, 0, 0.01, 3
 121094043, 0.59, -0.49, -10.66, -10.66, 342.35, 348.23, 0, 0.01, 3
 121194003, 0.63, -0.34, -10.95, -10.95, 342.48, 347.61, 0, 0.01, 3
 121293963, 0.67, -0.13, -11.24, -11.27, 342.61, 346.71, 0, 0.01, 3
 121393923, 0.71, 0.12, -11.54, -11.56, 342.76, 345.66, 0, 0, 3
 121493883, 0.75, 0.4, -11.86, -11.87, 342.91, 344.51, 0, 0, 3
 121593843, 0.78, 0.7, -12.18, -12.19, 343.07, 343.38, 0, 0, 3
 121693803, 0.82, 1, -12.51, -12.51, 343.24, 342.34, 0, 0, 3
 121793763, 0.85, 1.27, -12.85, -12.82, 343.43, 341.46, 0, 0, 3
 121893723, 0.88, 1.52, -13.18, -13.14, 343.62, 340.78, 0, 0, 3
 121993683, 0.92, 1.72, -13.51, -13.45, 343.83, 340.37, 0, 0, 3
 122093643, 0.96, 1.87, -13.85, -13.77, 344.06, 340.22, 0, 0, 3
 122193603, 1.01, 1.97, -14.22, -14.13, 344.3, 340.34, 0, 0, 3
 122293563, 1.09, 2.04, -14.57, -14.48, 344.56, 340.72, 0, 0, 3
 122393523, 1.19, 2.07, -14.92, -14.83, 344.84, 341.34, 0, 0, 3
 122493483, 1.31, 2.05, -14.59, -14.75, 345.16, 342.16, 0, 0, 3
 122593443, 1.43, 1.9, -11.75, -12.12, 345.53, 343.22, 0, 0, 3
 122693403, 1.55, 1.79, -9.35, -9.46, 345.93, 344.34, 0, 0, 3
 122793363, 1.67, 1.78, -7.87, -7.76, 346.34, 345.47, 0, 0, 3
 122893323, 1.81, 1.83, -6.81, -6.66, 346.77, 346.57, 0.01, 0, 3
 122993283, 1.96, 1.91, -5.88, -5.77, 347.23, 347.62, 0.01, 0, 3
 123094076, 2.12, 2.03, -4.97, -4.92, 347.73, 348.58, 0.01, 0, 3
 123194036, 2.29, 2.2, -4.09, -4.07, 348.26, 349.46, 0.01, 0, 3
 123293996, 2.47, 2.38, -3.29, -3.3, 348.84, 350.23, 0.01, 0, 3
 123393956, 2.66, 2.6, -2.54, -2.56, 349.46, 350.9, 0.01, 0, 3
 123493916, 2.86, 2.81, -1.84, -1.86, 350.13, 351.47, 0.01, 0, 3
 123593876, 3.07, 3.04, -1.22, -1.24, 350.86, 351.98, 0.01, 0, 3
 123693836, 3.3, 3.29, -0.65, -0.68, 351.66, 352.43, 0, 0, 3
 123793796, 3.55, 3.54, -0.14, -0.15, 352.55, 352.87, 0, 0, 3
 123893756, 3.83, 3.82, 0.3, 0.31, 353.53, 353.33, 0, 0, 3
 123993716, 4.14, 4.13, 0.69, 0.75, 354.62, 353.85, 0, 0, 3
 124093676, 4.5, 4.47, 1.02, 1.12, 355.85, 354.47, 0, 0, 3
 124193636, 4.93, 4.87, 1.29, 1.45, 357.26, 355.24, 0, 0, 3
 124293596, 5.44, 5.35, 1.48, 1.73, 358.88, 356.19, 0, 0, 3
 124393556, 6.07, 5.94, 1.65, 1.99, 0.76, 357.38, 0, 0, 3
 124493516, 6.82, 6.63, 2.07, 2.49, 3.02, 358.88, 0, 0, 3
 124593476, 7.75, 7.47, 2.47, 3.09, 5.73, 0.72, 0, 0, 3
 124693436, 8.9, 8.51, 2.7, 3.6, 9.04, 2.98, 0, 0, 3
 124793396, 10.36, 9.84, 2.77, 4.06, 13.13, 5.74, 0, 0, 3
 124893356, 12.2, 11.53, 2.67, 4.53, 18.22, 9.13, 0, 0, 3
 124993316, 14.44, 13.62, 2.48, 5.12, 24.25, 13.31, 0, 0, 3
 125093276, 16.94, 16, 2.48, 5.88, 30.49, 18.48, 0, 0, 3
 125194069, 19.23, 18.26, 2.85, 6.82, 36.93, 24.66, 0, 0.01, 3
 125294029, 20.58, 19.69, 3.47, 7.65, 43.55, 31.76, 0.01, 0.01, 3
 125393989, 20.47, 19.76, 3.98, 7.91, 50.17, 39.42, 0.01, 0.02, 3
 125493949, 19.02, 18.5, 4.08, 7.35, 56.6, 47.45, 0.01, 0.03, 3
 125593909, 16.89, 16.53, 3.77, 6.16, 62.83, 55.58, 0.01, 0.04, 3
 125693869, 15.36, 14.96, 2.27, 4.11, 68.66, 63.7, 0.02, 0.04, 3
 125793829, 15.15, 14.9, -1.08, 0.08, 73.96, 71.41, 0.02, 0.04, 3
 125893789, 13.64, 13.64, -4.23, -3.96, 79.35, 79.08, 0.02, 0.04, 3
 125993749, 11.53, 11.32, -6.42, -6.87, 85.03, 86.93, 0.02, 0.04, 3
 126093709, 9.53, 8.91, -7.83, -8.62, 90.92, 94.79, 0.02, 0.04, 3
 126193669, 7.65, 6.67, -8.83, -9.67, 96.89, 102.4, 0.02, 0.04, 3
 126293629, 6.02, 4.55, -9.46, -10.3, 101.58, 109.61, 0.03, 0.04, 3
 126393589, 4.79, 2.59, -9.81, -10.64, 104.26, 116.16, 0.03, 0.04, 3
 126493549, 3.8, 0.86, -10.02, -10.71, 105.87, 121.77, 0.02, 0.04, 3
 126593509, 3.02, -0.55, -10.18, -10.63, 106.92, 126.2, 0.02, 0.04, 3
 126693469, 2.38, -1.63, -10.33, -10.49, 107.7, 129.41, 0.02, 0.04, 3
 126793429, 1.86, -2.4, -10.46, -10.36, 108.34, 131.4, 0.02, 0.03, 3
 126893389, 1.44, -2.89, -10.62, -10.32, 108.92, 132.26, 0.02, 0.03, 3
 126993349, 1.1, -3.14, -10.8, -10.39, 109.47, 132.09, 0.02, 0.02, 3
 127093309, 0.84, -3.15, -11, -10.57, 110.02, 131.05, 0.01, 0.02, 3
 127193269, 0.65, -2.97, -11.22, -10.84, 110.58, 129.25, 0.01, 0.01, 3
 127294062, 0.52, -2.59, -11.45, -11.16, 111.15, 126.86, 0.01, 0.01, 3
 127394022, 0.45, -2.04, -11.73, -11.55, 111.73, 124, 0.01, 0.01, 3
 127493982, 0.44, -1.34, -12.04, -11.97, 112.34, 120.85, 0.01, 0.02, 3
 127593942, 0.46, -0.53, -12.35, -12.35, 112.96, 117.54, 0.01, 0.02, 3
 127693902, 0.51, 0.35, -12.69, -12.7, 113.61, 114.31, 0.01, 0.02, 3
 127793862, 0.6, 1.24, -13.05, -13.01, 114.29, 111.37, 0.01, 0.02, 3
 127893822, 0.72, 2.11, -13.4, -13.26, 115, 108.91, 0.01, 0.02, 3
 127993782, 0.89, 2.91, -13.74, -13.48, 115.73, 107.1, 0.01, 0.02, 3
 128093742, 1.09, 3.6, -14.09, -13.68, 116.5, 106.04, 0, 0.01, 3
 128193702, 1.35, 4.16, -14.44, -13.9, 117.29, 105.75, 0, 0.01, 3
 128293662, 1.64, 4.62, -14.79, -14.16, 118.13, 106.21, 0, 0.01, 3
 128393622, 1.98, 4.96, -15.16, -14.48, 118.99, 107.36, 0, 0.01, 3
 128493582, 2.35, 5.18, -15.55, -14.87, 119.9, 109.12, 0, 0.01, 3
 128593542, 2.77, 5.31, -15.93, -15.29, 120.85, 111.41, 0, 0.01, 3
 128693502, 3.23, 5.35, -16.31, -15.76, 121.84, 114.13, 0, 0.01, 3
 128793462, 3.74, 5.36, -16.72, -16.28, 122.88, 117.15, 0, 0.01, 3
 128893422, 4.31, 5.34, -17.1, -16.8, 123.97, 120.37, 0, 0.01, 3
 128993382, 4.89, 5.28, -16.03, -16.24, 125.17, 123.73, 0, 0.01, 3
 129093342, 5.44, 5.28, -13.63, -13.98, 126.5, 127.12, 0, 0.02, 3
 129193302, 5.96, 5.46, -11.98, -12.25, 127.85, 130.22, 0, 0.03, 3
 129293262, 6.45, 5.73, -10.99, -11.28, 129.21, 132.94, 0.01, 0.03, 3
 129394055, 6.9, 6.06, -10.27, -10.67, 130.59, 135.27, 0.01, 0.03, 3
 129494015, 7.32, 6.43, -9.68, -10.2, 131.99, 137.2, 0.01, 0.03, 3
 129593975, 7.7, 6.84, -9.14, -9.73, 133.42, 138.76, 0.01, 0.03, 3
 129693935, 8.04, 7.26, -8.65, -9.26, 134.87, 139.98, 0.01, 0.03, 3
 129793895, 8.34, 7.68, -8.25, -8.83, 136.34, 140.88, 0.01, 0.02, 3
 129893855, 8.6, 8.09, -7.94, -8.44, 137.83, 141.54, 0.01, 0.02, 3
 129993815, 8.81, 8.47, -7.69, -8.06, 139.33, 142.03, 0.01, 0.02, 3
 130093775, 8.97, 8.79, -7.5, -7.72, 140.86, 142.44, 0.01, 0.02, 3
 130193735, 9.09, 9.06, -7.38, -7.43, 142.4, 142.84, 0.01, 0.02, 3
 130293695, 9.15, 9.26, -7.32, -7.2, 143.95, 143.3, 0, 0.02, 3
 130393655, 9.18, 9.4, -7.31, -7.03, 145.51, 143.89, 0, 0.01, 3
 130493615, 9.18, 9.49, -7.36, -6.96, 147.08, 144.66, 0, 0.01, 3
 130593575, 9.16, 9.54, -7.44, -6.94, 148.67, 145.64, 0, 0.01, 3
 130693535, 9.11, 9.52, -7.55, -6.99, 150.26, 146.87, 0, 0.01, 3
 130793495, 9.05, 9.48, -7.7, -7.11, 151.86, 148.33, 0, 0.01, 3
 130893455, 8.97, 9.4, -7.88, -7.32, 153.46, 150.02, 0, 0.01, 3
 130993415, 8.88, 9.3, -8.09, -7.58, 155.07, 151.92, 0, 0.01, 3
 131093375, 8.79, 9.16, -8.35, -7.92, 156.68, 153.98, 0, 0.01, 3
 131193335, 8.68, 8.99, -8.65, -8.31, 158.28, 156.17, 0, 0.01, 3
 131293295, 8.57, 8.79, -8.95, -8.73, 159.89, 158.44, 0, 0.01, 3
 131394088, 8.46, 8.58, -9.27, -9.17, 161.49, 160.75, 0, 0.01, 3
 131494048, 8.35, 8.36, -9.6, -9.6, 163.09, 163.05, 0, 0.01, 3
 131594008, 8.26, 8.15, -9.97, -10.07, 164.68, 165.29, 0, 0.01, 3
 131693968, 8.16, 7.94, -10.37, -10.55, 166.26, 167.45, 0, 0.01, 3
 131793928, 8.06, 7.74, -10.76, -10.99, 167.83, 169.48, 0, 0.01, 3
 131893888, 7.98, 7.57, -11.2, -11.46, 169.39, 171.37, 0, 0.01, 3
 131993848, 7.9, 7.42, -11.65, -11.93, 170.93, 173.1, 0, 0.01, 3
 132093808, 7.82, 7.32, -12.11, -12.39, 172.46, 174.69, 0, 0.01, 3
 132193768, 7.75, 7.27, -12.58, -12.85, 173.97, 176.13, 0, 0.01, 3
 132293728, 7.67, 7.22, -13.07, -13.31, 175.47, 177.44, 0, 0.01, 3
 132393688, 7.59, 7.19, -13.56, -13.77, 176.95, 178.64, 0, 0.01, 3
 132493648, 7.51, 7.19, -14.07, -14.24, 178.4, 179.77, 0, 0.01, 3
 132593608, 7.44, 7.2, -14.62, -14.74, 179.84, 180.84, 0, 0.01, 3
 132693568, 7.37, 7.22, -15.16, -15.24, 181.25, 181.88, 0, 0.01, 3
 132793528, 7.31, 7.25, -15.7, -15.73, 182.65, 182.92, 0, 0.01, 3
 132893488, 7.25, 7.28, -16.25, -16.24, 184.01, 183.97, 0, 0.01, 3
 132993448, 7.19, 7.29, -16.79, -16.76, 185.36, 185.06, 0, 0.01, 3
 133093408, 7.13, 7.28, -17.35, -17.28, 186.67, 186.19, 0, 0.01, 3
 133193368, 6.07, 6.4, -18.03, -17.94, 187.75, 187.35, 0, 0.01, 3
 133293328, 4.71, 4.85, -18.8, -18.77, 188.54, 188.54, 0, 0.01, 3
 133393288, 3.86, 3.66, -19.43, -19.47, 189.1, 189.73, 0, 0.01, 3
 133494081, 3.38, 2.87, -19.94, -20.03, 189.54, 190.86, 0, 0, 3
 133594041, 3.09, 2.35, -20.39, -20.49, 189.92, 191.86, 0, 0, 3
 133694001, 2.9, 1.98, -20.85, -20.96, 190.29, 192.68, 0, 0, 3
 133793961, 2.77, 1.75, -21.29, -21.41, 190.67, 193.32, 0, 0, 3
 133893921, 2.69, 1.65, -21.69, -21.8, 191.07, 193.77, 0, 0, 3
 133993881, 2.68, 1.69, -22.12, -22.21, 191.48, 194.03, 0, 0, 3
 134093841, 2.73, 1.85, -22.54, -22.63, 191.92, 194.14, 0, 0, 3
 134193801, 2.83, 2.13, -22.94, -23.01, 192.39, 194.13, 0, 0, 3
 134293761, 3, 2.52, -23.33, -23.38, 192.9, 194.05, 0, 0, 3
 134393721, 3.23, 3, -23.71, -23.73, 193.44, 193.94, 0, 0, 3
 134493681, 3.53, 3.57, -24.08, -24.07, 194.03, 193.84, 0, 0, 3
 134593641, 3.9, 4.2, -24.44, -24.39, 194.65, 193.82, 0, 0, 3
 134693601, 4.34, 4.89, -24.83, -24.74, 195.33, 193.89, 0, 0, 3
 134793561, 4.82, 5.55, -23.4, -23.67, 196.15, 194.25, 0, 0, 3
 134893521, 5.3, 6.03, -20.42, -20.63, 197.13, 194.98, 0, 0, 3
 134993481, 5.75, 6.49, -18.29, -18.16, 198.15, 195.82, 0, 0, 3
 135093441, 6.22, 6.94, -16.89, -16.55, 199.21, 196.73, 0.01, 0, 3
 135193401, 6.72, 7.42, -15.81, -15.4, 200.32, 197.76, 0.01, 0, 3
 135293361, 7.25, 7.9, -14.84, -14.42, 201.5, 198.94, 0.01, 0, 3
 135393321, 7.81, 8.39, -13.89, -13.48, 202.75, 200.28, 0.01, 0.01, 3
 135493281, 8.38, 8.88, -12.95, -12.56, 204.08, 201.78, 0.01, 0.01, 3
 135594074, 8.95, 9.38, -12.03, -11.68, 205.48, 203.4, 0.01, 0.01, 3
 135694034, 9.52, 9.87, -11.15, -10.82, 206.96, 205.14, 0.01, 0.01, 3
 135793994, 10.1, 10.38, -10.34, -10.04, 208.51, 206.97, 0.01, 0.01, 3
 135893954, 10.65, 10.89, -9.57, -9.3, 210.13, 208.88, 0.01, 0.01, 3
 135993914, 11.17, 11.35, -8.84, -8.6, 211.83, 210.84, 0.01, 0.01, 3
 136093874, 11.66, 11.8, -8.17, -7.98, 213.59, 212.83, 0.01, 0.01, 3
 136193834, 12.11, 12.21, -7.55, -7.4, 215.41, 214.84, 0.01, 0.01, 3
 136293794, 12.49, 12.58, -6.97, -6.85, 217.29, 216.88, 0.01, 0.01, 3
 136393754, 12.82, 12.89, -6.41, -6.32, 219.22, 218.93, 0.01, 0.01, 3
 136493714, 13.06, 13.13, -5.89, -5.81, 221.2, 220.99, 0.01, 0.01, 3
 136593674, 13.23, 13.28, -5.4, -5.34, 223.21, 223.05, 0.01, 0.01, 3
 136693634, 13.32, 13.38, -4.93, -4.88, 225.24, 225.11, 0, 0.01, 3
 136793594, 13.35, 13.4, -4.49, -4.46, 227.28, 227.18, 0, 0.01, 3
 136893554, 13.27, 13.31, -4.04, -4.02, 229.33, 229.25, 0.01, 0.01, 3
 136993514, 13.11, 13.15, -3.6, -3.58, 231.38, 231.33, 0.01, 0.01, 3
 137093474, 12.88, 12.91, -3.16, -3.15, 233.4, 233.4, 0.01, 0.01, 3
 137193434, 12.56, 12.58, -2.71, -2.72, 235.4, 235.47, 0.01, 0.01, 3
 137293394, 12.18, 12.19, -2.27, -2.3, 237.36, 237.52, 0.01, 0.01, 3
 137393354, 11.75, 11.75, -1.83, -1.89, 239.27, 239.54, 0.01, 0.01, 3
 137493314, 11.29, 11.28, -2.18, -2.03, 241.05, 241.42, 0.01, 0.01, 3
 137593274, 10.86, 10.83, -3.94, -3.72, 242.66, 242.97, 0.01, 0.01, 3
 137694067, 10.45, 10.39, -5.34, -5.31, 244.3, 244.54, 0.01, 0.01, 3
 137794027, 10.07, 10, -6.32, -6.41, 245.96, 246.2, 0.01, 0.01, 3
 137893987, 9.71, 9.63, -7.14, -7.26, 247.63, 247.9, 0.01, 0.01, 3
 137993947, 9.34, 9.27, -7.91, -8.04, 249.29, 249.61, 0.01, 0.01, 3
 138093907, 8.99, 8.91, -8.7, -8.81, 250.94, 251.29, 0.01, 0.01, 3
 138193867, 8.65, 8.56, -9.52, -9.61, 252.57, 252.96, 0.01, 0.01, 3
 138293827, 8.33, 8.23, -10.35, -10.42, 254.18, 254.6, 0.01, 0.01, 3
 138393787, 8.02, 7.9, -11.17, -11.24, 255.78, 256.22, 0.01, 0.01, 3
 138493747, 7.73, 7.61, -11.98, -12.06, 257.35, 257.82, 0.01, 0.01, 3
 138593707, 7.46, 7.32, -12.8, -12.87, 258.9, 259.4, 0.01, 0.01, 3
 138693667, 7.21, 7.07, -13.61, -13.69, 260.42, 260.96, 0.01, 0.01, 3
 138793627, 6.99, 6.83, -14.43, -14.51, 261.92, 262.49, 0.01, 0.01, 3
 138893587, 6.8, 6.63, -15.27, -15.35, 263.38, 263.99, 0.01, 0.01, 3
 138993547, 6.61, 6.43, -16.07, -16.15, 264.82, 265.46, 0.01, 0.01, 3
 139093507, 6.46, 6.25, -16.87, -16.95, 266.22, 266.9, 0.01, 0.01, 3
 139193467, 6.33, 6.11, -17.65, -17.73, 267.59, 268.3, 0.01, 0.01, 3
 139293427, 6.22, 5.98, -18.3, -18.4, 268.93, 269.68, 0.01, 0.01, 3
 139393387, 6.14, 5.88, -18.92, -19.02, 270.23, 271.02, 0.01, 0.01, 3
 139493347, 6.07, 5.8, -19.48, -19.58, 271.5, 272.32, 0, 0.01, 3
 139593307, 6.02, 5.73, -19.99, -20.09, 272.73, 273.57, 0, 0.01, 3
 139693267, 5.98, 5.68, -20.47, -20.57, 273.92, 274.78, 0, 0.01, 3
 139794060, 5.94, 5.63, -20.89, -20.99, 275.08, 275.94, 0, 0.01, 3
 139894020, 5.92, 5.6, -21.33, -21.41, 276.19, 277.05, 0, 0.01, 3
 139993980, 5.63, 5.4, -21.7, -21.78, 277.22, 278.11, 0, 0.01, 3
 140093940, 4.44, 4.22, -22.08, -22.14, 278.08, 279.13, 0, 0.01, 3
 140193900, 3.57, 3.11, -22.48, -22.54, 278.71, 280.07, 0, 0, 3
 140293860, 3.16, 2.46, -22.88, -22.93, 279.17, 280.9, 0, 0, 3
 140393820, 3.01, 2.15, -23.25, -23.33, 279.57, 281.59, 0, 0, 3
 140493780, 3.01, 2.08, -23.6, -23.69, 279.96, 282.14, 0, 0, 3
 140593740, 3.1, 2.16, -23.94, -24.03, 280.37, 282.53, 0, 0, 3
 140693700, 3.27, 2.4, -24.27, -24.36, 280.81, 282.78, 0, 0, 3
 140793660, 3.53, 2.79, -24.6, -24.68, 281.3, 282.92, 0, 0, 3
 140893620, 3.88, 3.34, -24.96, -25, 281.84, 282.98, 0, 0, 3
 140993580, 4.34, 4.03, -25.32, -25.35, 282.43, 283, 0, 0, 3
 141093540, 4.87, 4.84, -24.43, -24.77, 283.16, 283.1, 0, 0, 3
 141193500, 5.42, 5.61, -21.46, -21.84, 284.08, 283.49, 0, 0, 3
 141293460, 5.97, 6.33, -19.16, -19.2, 285.09, 283.96, 0, 0.01, 3
 141393420, 6.53, 7.04, -17.66, -17.43, 286.16, 284.47, 0, 0.01, 3
 141493380, 7.12, 7.75, -16.55, -16.18, 287.3, 285.08, 0.01, 0.01, 3
 141593340, 7.74, 8.43, -15.53, -15.08, 288.54, 285.87, 0.01, 0.01, 3
 141693300, 8.37, 9.11, -14.51, -14.01, 289.88, 286.88, 0.01, 0.01, 3
 141793260, 9.02, 9.75, -13.52, -12.96, 291.31, 288.11, 0.01, 0.01, 3
 141894053, 9.65, 10.35, -12.53, -11.95, 292.83, 289.56, 0.01, 0.01, 3
 141994013, 10.29, 10.91, -11.65, -11.02, 294.44, 291.22, 0.01, 0.01, 3
 142093973, 10.9, 11.46, -10.83, -10.21, 296.12, 293.08, 0.01, 0.01, 3
 142193933, 11.46, 11.96, -10.04, -9.44, 297.88, 295.12, 0.01, 0.01, 3
 142293893, 11.97, 12.39, -9.32, -8.79, 299.7, 297.3, 0.01, 0.01, 3
 142393853, 12.43, 12.76, -8.65, -8.2, 301.57, 299.59, 0.01, 0, 3
 142493813, 12.8, 13.05, -8.03, -7.66, 303.47, 301.96, 0.01, 0, 3
 142593773, 13.09, 13.27, -7.45, -7.18, 305.4, 304.39, 0.01, 0, 3
 142693733, 13.28, 13.4, -6.89, -6.75, 307.34, 306.82, 0.01, 0, 3
 142793693, 13.37, 13.43, -6.37, -6.34, 309.27, 309.25, 0.01, 0, 3
 142893653, 13.37, 13.37, -5.86, -5.94, 311.19, 311.62, 0.01, 0, 3
 142993613, 13.27, 13.23, -5.38, -5.57, 313.07, 313.92, 0.01, 0, 3
 143093573, 13.07, 13, -4.9, -5.18, 314.91, 316.13, 0.01, 0, 3
 143193533, 12.77, 12.68, -4.42, -4.75, 316.71, 318.23, 0.01, 0, 3
 143293493, 12.37, 12.28, -3.94, -4.32, 318.44, 320.19, 0.01, 0, 3
 143393453, 11.92, 11.81, -3.84, -4.07, 320.07, 321.98, 0.01, 0, 3
 143493413, 11.49, 11.31, -5.99, -5.95, 321.42, 323.19, 0.01, 0, 3
 143593373, 11.08, 10.85, -8.14, -8.23, 322.74, 324.25, 0.01, 0, 3
 143693333, 10.68, 10.44, -9.67, -9.91, 324.11, 325.37, 0.01, 0, 3
 143793293, 10.29, 10.06, -10.89, -11.15, 325.49, 326.53, 0.01, 0, 3
 143894086, 9.89, 9.69, -12.04, -12.25, 326.86, 327.67, 0.01, 0, 3
 143994046, 9.48, 9.33, -13.18, -13.33, 328.21, 328.8, 0.01, 0, 3
 144094006, 9.09, 8.97, -14.38, -14.48, 329.54, 329.92, 0.01, 0, 3
 144193966, 8.71, 8.63, -15.57, -15.64, 330.84, 331.05, 0.01, 0, 3
 144293926, 8.32, 8.28, -16.6, -16.66, 332.14, 332.21, 0.01, 0, 3
 144393886, 7.97, 7.95, -17.55, -17.59, 333.41, 333.4, 0.01, 0, 3
 144493846, 7.62, 7.61, -18.42, -18.46, 334.65, 334.62, 0.01, 0, 3
 144593806, 7.28, 7.27, -19.21, -19.26, 335.86, 335.87, 0.01, 0, 3
 144693766, 6.95, 6.9, -19.94, -19.99, 337.04, 337.14, 0.01, 0, 3
 144793726, 6.65, 6.55, -20.62, -20.67, 338.19, 338.41, 0.01, 0, 3
 144893686, 6.36, 6.22, -21.25, -21.31, 339.29, 339.67, 0.01, 0, 3
 144993646, 6.08, 5.88, -21.83, -21.9, 340.35, 340.9, 0.01, 0, 3
 145093606, 5.84, 5.56, -22.41, -22.48, 341.37, 342.1, 0.01, 0, 3
 145193566, 5.62, 5.26, -22.91, -23, 342.35, 343.24, 0.01, 0, 3
 145293526, 5.41, 4.99, -23.37, -23.47, 343.28, 344.33, 0.01, 0, 3
 145393486, 5.22, 4.74, -23.8, -23.9, 344.18, 345.34, 0.01, 0, 3
 145493446, 5.06, 4.54, -24.18, -24.29, 345.03, 346.28, 0, 0, 3
 145593406, 4.92, 4.37, -24.57, -24.66, 345.84, 347.13, 0, 0, 3
 145693366, 4.79, 4.24, -24.96, -25.05, 346.61, 347.89, 0, 0, 3
 145793326, 4.68, 4.14, -25.34, -25.42, 347.34, 348.58, 0, 0, 3
 145893286, 4.58, 4.07, -25.71, -25.76, 348.04, 349.19, 0, 0, 3
 145994079, 4.48, 4.03, -26.05, -26.1, 348.71, 349.74, 0, 0, 3
 146094039, 4.38, 4, -26.38, -26.42, 349.34, 350.23, 0, 0, 3
 146193999, 4.28, 3.97, -26.74, -26.76, 349.95, 350.67, 0, 0, 3
 146293959, 4.2, 3.94, -27.08, -27.11, 350.52, 351.09, 0, 0, 3
 146393919, 4.12, 3.94, -27.39, -27.41, 351.07, 351.48, 0, 0, 3
 146493879, 4.05, 3.93, -27.75, -27.75, 351.59, 351.85, 0, 0, 3
 146593839, 3.97, 3.91, -28.11, -28.1, 352.09, 352.22, 0, 0, 3
 146693799, 3.9, 3.88, -28.46, -28.45, 352.56, 352.59, 0, 0, 3
 146793759, 3.83, 3.84, -28.81, -28.8, 353.01, 352.96, 0, 0, 3
 146893719, 3.75, 3.79, -29.16, -29.14, 353.44, 353.35, 0, 0, 3
 146993679, 3.67, 3.72, -29.47, -29.46, 353.86, 353.75, 0, 0, 3
 147093639, 3, 3.2, -29.69, -29.68, 354.29, 354.16, 0, 0, 3
 147193599, 1.69, 1.88, -29.84, -29.86, 354.66, 354.58, 0, 0, 3
 147293559, 0.78, 0.74, -29.92, -29.95, 354.82, 355.01, 0, 0, 3
 147393519, 0.23, -0.06, -29.96, -29.98, 354.84, 355.4, 0, 0, 3
 147493479, -0.11, -0.62, -29.97, -29.99, 354.78, 355.72, 0, 0, 3
 147593439, -0.35, -1.02, -29.98, -29.98, 354.7, 355.95, 0, 0, 3
 147693399, -0.52, -1.29, -29.98, -29.98, 354.61, 356.06, 0, 0, 3
 147793359, -0.63, -1.43, -29.98, -29.97, 354.52, 356.05, 0, 0, 3
 147893319, -0.67, -1.45, -29.99, -29.97, 354.44, 355.93, 0, 0, 3
 147993279, -0.63, -1.33, -29.99, -29.98, 354.37, 355.71, 0, 0, 3
 148094072, -0.5, -1.09, -29.99, -29.98, 354.32, 355.41, 0, 0, 3
 148194032, -0.29, -0.71, -29.99, -29.98, 354.3, 355.05, 0, 0.01, 3
 148293992, 0, -0.23, -29.95, -29.95, 354.3, 354.67, 0, 0.01, 3
 148393952, 0.39, 0.36, -29.84, -29.86, 354.34, 354.3, 0, 0.01, 3
 148493912, 0.89, 1.07, -29.71, -29.71, 354.43, 353.96, 0, 0.01, 3
 148593872, 1.5, 1.87, -29.62, -29.6, 354.57, 353.69, 0, 0.01, 3
 148693832, 2.25, 2.79, -29.52, -29.47, 354.77, 353.52, 0, 0.01, 3
 148793792, 3.14, 3.83, -29.31, -29.29, 355.04, 353.46, 0, 0.01, 3
 148893752, 4.19, 4.95, -27.87, -27.98, 355.45, 353.64, 0, 0.01, 3
 148993712, 5.36, 6.15, -26.34, -26.31, 356, 354.01, 0, 0.01, 3
 149093672, 6.66, 7.49, -25.24, -25.04, 356.68, 354.52, 0, 0.01, 3
 149193632, 8.09, 8.96, -24.4, -24.07, 357.5, 355.16, 0, 0.01, 3
 149293592, 9.68, 10.58, -23.67, -23.25, 358.49, 355.97, 0.01, 0.01, 3
 149393552, 11.38, 12.33, -22.91, -22.39, 359.67, 356.99, 0.01, 0.01, 3
 149493512, 13.18, 14.16, -22.15, -21.52, 1.05, 358.24, 0.01, 0.01, 3
 149593472, 15.05, 16.05, -21.42, -20.67, 2.66, 359.73, 0.01, 0.01, 3
 149693432, 16.93, 17.95, -20.71, -19.83, 4.51, 1.45, 0.01, 0.01, 3
 149793392, 18.78, 19.83, -20.11, -19.08, 6.58, 3.42, 0.01, 0.01, 3
 149893352, 20.56, 21.61, -19.61, -18.45, 8.86, 5.62, 0.01, 0.01, 3
 149993312, 22.17, 23.22, -19.02, -17.81, 11.38, 8.12, 0.01, 0.01, 3
 150093272, 23.53, 24.5, -17.95, -16.77, 14.19, 11.09, 0.01, 0.01, 3
 150194065, 24.59, 25.46, -16.8, -15.64, 17.18, 14.37, 0.01, 0, 3
 150294025, 25.36, 26.12, -15.84, -14.73, 20.23, 17.76, 0.01, 0, 3
 150393985, 25.81, 26.5, -15.27, -14.2, 23.24, 21.14, 0.01, 0, 3
 150493945, 25.95, 26.55, -15.22, -14.24, 26.12, 24.4, 0.01, 0.01, 3
 150593905, 25.82, 26.32, -15.61, -14.78, 28.83, 27.49, 0.01, 0.01, 3
 150693865, 25.44, 25.8, -16.34, -15.74, 31.37, 30.45, 0.01, 0.01, 3
 150793825, 24.84, 25.07, -17.32, -16.97, 33.73, 33.33, 0.01, 0.01, 3
 150893785, 24.06, 24.09, -18.43, -18.39, 35.94, 36.11, 0.01, 0, 3
 150993745, 23.12, 22.88, -18.77, -19.24, 38.18, 39.11, 0.01, 0, 3
 151093705, 22.04, 21.47, -18.27, -19.19, 40.44, 42.34, 0.02, 0.01, 3
 151193665, 20.9, 20.03, -17.44, -18.64, 42.6, 45.49, 0.02, 0.01, 3
 151293625, 19.72, 18.63, -16.54, -17.89, 44.6, 48.35, 0.02, 0.01, 3
 151393585, 18.53, 17.31, -15.63, -17.05, 46.44, 50.84, 0.02, 0.01, 3
 151493545, 17.29, 16.02, -14.67, -16.09, 48.13, 52.95, 0.02, 0.01, 3
 151593505, 16.05, 14.8, -14.31, -15.4, 49.59, 54.56, 0.02, 0.01, 3
 151693465, 14.89, 13.57, -16.71, -17.32, 50.57, 55.13, 0.02, 0.01, 3
 151793425, 13.75, 12.46, -18.76, -19.39, 51.55, 55.44, 0.02, 0.01, 3
 151893385, 12.62, 11.48, -19.98, -20.63, 52.6, 55.78, 0.02, 0.01, 3
 151993345, 11.5, 10.58, -20.75, -21.28, 53.65, 56.12, 0.02, 0.01, 3
 152093305, 10.42, 9.74, -21.38, -21.75, 54.67, 56.41, 0.03, 0.01, 3
 152193265, 9.37, 8.95, -22.01, -22.21, 55.65, 56.66, 0.03, 0.01, 3
 152294058, 8.35, 8.18, -22.6, -22.68, 56.58, 56.92, 0.02, 0.01, 3
 152394018, 7.4, 7.46, -23.23, -23.22, 57.46, 57.22, 0.02, 0.01, 3
 152493978, 6.51, 6.76, -23.85, -23.79, 58.29, 57.59, 0.02, 0, 3
 152593938, 5.68, 6.07, -24.41, -24.34, 59.08, 58.07, 0.02, 0, 3
 152693898, 4.91, 5.39, -25, -24.91, 59.83, 58.64, 0.02, 0, 3
 152793858, 4.22, 4.73, -25.58, -25.5, 60.53, 59.31, 0.02, 0, 3
 152893818, 3.6, 4.07, -26.16, -26.09, 61.19, 60.07, 0.02, 0, 3
 152993778, 3.05, 3.43, -26.72, -26.69, 61.8, 60.9, 0.02, 0, 3
 153093738, 2.56, 2.8, -27.28, -27.27, 62.38, 61.79, 0.02, 0, 3
 153193698, 2.14, 2.22, -27.82, -27.83, 62.91, 62.69, 0.02, 0, 3
 153293658, 1.79, 1.69, -28.35, -28.37, 63.41, 63.58, 0.01, 0, 3
 153393618, 1.5, 1.2, -28.91, -28.92, 63.86, 64.44, 0.01, 0, 3
 153493578, 1.24, 0.77, -29.37, -29.43, 64.28, 65.22, 0.01, 0, 3
 153593538, 0.36, -0.13, -29.65, -29.68, 64.71, 65.93, 0.01, 0, 3
 153693498, -0.5, -1.18, -29.81, -29.83, 65.01, 66.52, 0.01, 0, 3
 153793458, -1.01, -1.91, -29.88, -29.88, 65.17, 66.99, 0.01, 0, 3
 153893418, -1.25, -2.31, -29.92, -29.89, 65.24, 67.31, 0.01, 0, 3
 153993378, -1.35, -2.49, -29.94, -29.89, 65.27, 67.47, 0.01, 0, 3
 154093338, -1.36, -2.49, -29.95, -29.9, 65.28, 67.46, 0.01, 0, 3
 154193298, -1.29, -2.34, -29.96, -29.91, 65.3, 67.31, 0.01, 0, 3
 154294091, -1.17, -2.06, -29.97, -29.93, 65.32, 67.03, 0.01, 0, 3
 154394051, -0.99, -1.68, -29.98, -29.95, 65.36, 66.66, 0.01, 0, 3
 154494011, -0.75, -1.2, -29.98, -29.97, 65.41, 66.24, 0, 0, 3
 154593971, -0.47, -0.66, -29.99, -29.99, 65.48, 65.8, 0, 0, 3
 154693931, -0.14, -0.07, -29.99, -30, 65.58, 65.38, 0, 0, 3
 154793891, 0.24, 0.55, -29.99, -30, 65.7, 65.01, 0, 0, 3
 154893851, 0.69, 1.21, -29.98, -29.97, 65.86, 64.73, 0, 0, 3
 154993811, 1.2, 1.9, -29.96, -29.95, 66.05, 64.56, 0, 0, 3
 155093771, 1.78, 2.62, -29.93, -29.89, 66.27, 64.52, 0, 0, 3
 155193731, 2.44, 3.37, -29.89, -29.83, 66.54, 64.62, 0, 0, 3
 155293691, 3.16, 4.14, -29.82, -29.75, 66.86, 64.86, 0, 0, 3
 155393651, 3.97, 4.93, -29.58, -29.55, 67.24, 65.24, 0, 0, 3
 155493611, 4.85, 5.68, -28.16, -28.25, 67.73, 65.88, 0, 0, 3
 155593571, 5.76, 6.46, -26.69, -26.68, 68.33, 66.66, 0, 0, 3
 155693531, 6.71, 7.31, -25.63, -25.49, 68.99, 67.5, 0.01, 0, 3
 155793491, 7.71, 8.23, -24.82, -24.62, 69.74, 68.38, 0.01, 0.01, 3
 155893451, 8.74, 9.2, -24.05, -23.85, 70.59, 69.34, 0.01, 0.01, 3
 155993411, 9.8, 10.21, -23.29, -23.09, 71.53, 70.38, 0.01, 0.01, 3
 156093371, 10.89, 11.25, -22.56, -22.36, 72.59, 71.49, 0.01, 0.01, 3
 156193331, 11.97, 12.34, -21.84, -21.62, 73.76, 72.68, 0.01, 0.01, 3
 156293291, 13.03, 13.4, -21.13, -20.9, 75.04, 73.96, 0.01, 0.01, 3
 156394084, 14.06, 14.44, -20.45, -20.19, 76.44, 75.31, 0.01, 0.01, 3
 156494044, 15.03, 15.44, -19.76, -19.46, 77.96, 76.77, 0.01, 0.01, 3
 156594004, 15.94, 16.38, -19.16, -18.81, 79.58, 78.3, 0.01, 0.01, 3
 156693964, 16.78, 17.24, -18.59, -18.19, 81.3, 79.94, 0.01, 0.01, 3
 156793924, 17.51, 17.99, -18.02, -17.58, 83.12, 81.69, 0.01, 0.01, 3
 156893884, 18.14, 18.62, -17.52, -17.04, 85, 83.53, 0.01, 0.01, 3
 156993844, 18.65, 19.13, -17.05, -16.55, 86.96, 85.47, 0.01, 0.01, 3
 157093804, 19.04, 19.52, -16.59, -16.11, 88.96, 87.51, 0, 0.02, 3
 157193764, 19.29, 19.74, -16.15, -15.68, 91.01, 89.65, 0, 0.02, 3
 157293724, 19.4, 19.79, -15.7, -15.29, 93.07, 91.87, 0, 0.02, 3
 157393684, 19.37, 19.7, -15.26, -14.92, 95.13, 94.15, 0, 0.02, 3
 157493644, 19.22, 19.46, -14.81, -14.56, 97.18, 96.47, 0, 0.02, 3
 157593604, 18.98, 19.13, -14.38, -14.24, 99.2, 98.79, 0, 0.02, 3
 157693564, 18.6, 18.66, -13.91, -13.88, 101.17, 101.12, 0.01, 0.02, 3
 157793524, 18.1, 18.09, -13.41, -13.5, 103.1, 103.41, 0.01, 0.02, 3
 157893484, 17.52, 17.41, -12.89, -13.09, 104.97, 105.64, 0.01, 0.02, 3
 157993444, 16.83, 16.66, -12.32, -12.62, 106.77, 107.8, 0.01, 0.02, 3
 158093404, 16.1, 15.85, -11.75, -12.12, 108.49, 109.84, 0.01, 0.02, 3
 158193364, 15.31, 15.01, -11.18, -11.59, 110.13, 111.75, 0.01, 0.02, 3
 158293324, 14.47, 14.13, -10.58, -11.02, 111.69, 113.52, 0.01, 0.02, 3
 158393284, 13.58, 13.24, -9.95, -10.39, 113.17, 115.14, 0.01, 0.02, 3
 158494077, 12.71, 12.35, -10.62, -10.65, 114.41, 116.41, 0.01, 0.02, 3
 158594037, 11.91, 11.51, -13.63, -13.47, 115.36, 117, 0.01, 0.01, 3
 158693997, 11.17, 10.79, -15.94, -16.01, 116.36, 117.62, 0.01, 0.01, 3
 158793957, 10.46, 10.12, -17.38, -17.61, 117.43, 118.42, 0.01, 0.01, 3
 158893917, 9.77, 9.48, -18.4, -18.65, 118.51, 119.29, 0.02, 0.01, 3
 158993877, 9.12, 8.9, -19.34, -19.54, 119.57, 120.17, 0.02, 0.01, 3
 159093837, 8.5, 8.32, -20.26, -20.39, 120.61, 121.05, 0.02, 0.01, 3
 159193797, 7.91, 7.77, -21.15, -21.23, 121.61, 121.93, 0.02, 0.01, 3
 159293757, 7.35, 7.23, -22, -22.07, 122.59, 122.82, 0.02, 0.01, 3
 159393717, 6.84, 6.73, -22.81, -22.86, 123.53, 123.72, 0.02, 0, 3
 159493677, 6.35, 6.25, -23.57, -23.62, 124.45, 124.63, 0.02, 0, 3
 159593637, 5.91, 5.8, -24.29, -24.33, 125.33, 125.54, 0.02, 0, 3
 159693597, 5.51, 5.38, -25.03, -25.06, 126.17, 126.44, 0.02, 0, 3
 159793557, 5.15, 4.97, -25.68, -25.72, 126.98, 127.34, 0.02, 0, 3
 159893517, 4.81, 4.59, -26.28, -26.33, 127.75, 128.22, 0.01, 0, 3
 159993477, 4.53, 4.25, -26.86, -26.92, 128.49, 129.07, 0.01, 0, 3
 160093437, 4.27, 3.93, -27.37, -27.44, 129.2, 129.89, 0.01, 0, 3
 160193397, 4.05, 3.66, -27.89, -27.95, 129.87, 130.65, 0.01, 0, 3
 160293357, 3.87, 3.44, -28.4, -28.46, 130.5, 131.36, 0.01, 0, 3
 160393317, 3.72, 3.27, -28.88, -28.94, 131.1, 132.01, 0.01, 0, 3
 160493277, 3.58, 3.13, -29.31, -29.38, 131.67, 132.6, 0.01, 0, 3
 160594070, 3.45, 3, -29.56, -29.65, 132.22, 133.14, 0.01, 0, 3
 160694030, 3.34, 2.9, -29.7, -29.78, 132.75, 133.63, 0, 0, 3
 160793990, 3.26, 2.85, -29.77, -29.83, 133.25, 134.07, 0, 0, 3
 160893950, 3.2, 2.83, -29.81, -29.85, 133.72, 134.46, 0, 0, 3
 160993910, 3.14, 2.83, -29.83, -29.86, 134.17, 134.8, 0, 0, 3
 161093870, 3.1, 2.82, -29.84, -29.86, 134.6, 135.12, 0, 0, 3
 161193830, 3.07, 2.83, -29.85, -29.86, 135, 135.4, 0, 0, 3
 161293790, 3.04, 2.87, -29.85, -29.86, 135.39, 135.67, 0, 0, 3
 161393750, 3.01, 2.91, -29.86, -29.86, 135.75, 135.93, 0, 0, 3
 161493710, 2.58, 2.65, -29.89, -29.89, 136.13, 136.19, 0, 0, 3
 161593670, 1.72, 1.86, -29.94, -29.93, 136.49, 136.44, 0, 0, 3
 161693630, 1.16, 1.2, -29.97, -29.96, 136.7, 136.71, 0, 0, 3
 161793590, 0.85, 0.78, -29.98, -29.97, 136.81, 136.97, 0, 0, 3
 161893550, 0.69, 0.51, -29.98, -29.98, 136.87, 137.2, 0, 0, 3
 161993510, 0.6, 0.34, -29.99, -29.98, 136.92, 137.39, 0, 0, 3
 162093470, 0.57, 0.25, -29.99, -29.98, 136.96, 137.53, 0, 0, 3
 162193430, 0.57, 0.24, -29.98, -29.98, 137.01, 137.63, 0, 0, 3
 162293390, 0.6, 0.28, -29.95, -29.98, 137.06, 137.67, 0, 0, 3
 162393350, 0.67, 0.38, -29.88, -29.92, 137.12, 137.67, 0, 0, 3
 162493310, 0.77, 0.53, -29.8, -29.82, 137.19, 137.64, 0, 0, 3
 162593270, 0.89, 0.72, -29.71, -29.72, 137.27, 137.58, 0, 0, 3
 162694063, 1.04, 0.95, -29.58, -29.59, 137.37, 137.51, 0, 0, 3
 162794023, 1.22, 1.22, -29.5, -29.49, 137.48, 137.44, 0, 0, 3
 162893983, 1.43, 1.52, -29.44, -29.43, 137.61, 137.38, 0, 0, 3
 162993943, 1.67, 1.84, -29.34, -29.33, 137.76, 137.36, 0, 0, 3
 163093903, 1.94, 2.17, -29.27, -29.24, 137.93, 137.37, 0, 0, 3
 163193863, 2.24, 2.53, -29.23, -29.19, 138.13, 137.44, 0, 0, 3
 163293823, 2.57, 2.92, -29.18, -29.13, 138.35, 137.55, 0, 0, 3
 163393783, 2.93, 3.31, -29.12, -29.07, 138.59, 137.72, 0, 0, 3
 163493743, 3.33, 3.73, -29.07, -29.02, 138.87, 137.96, 0, 0, 3
 163593703, 3.77, 4.18, -29.01, -28.97, 139.18, 138.26, 0, 0, 3
 163693663, 4.26, 4.65, -28.95, -28.9, 139.52, 138.62, 0, 0, 3
 163793623, 4.78, 5.16, -28.91, -28.85, 139.9, 139.04, 0, 0, 3
 163893583, 5.36, 5.73, -28.89, -28.83, 140.31, 139.5, 0, 0, 3
 163993543, 5.97, 6.32, -28.6, -28.63, 140.79, 140.04, 0, 0, 3
 164093503, 6.6, 6.88, -27.07, -27.24, 141.4, 140.77, 0, 0, 3
 164193463, 7.23, 7.45, -25.64, -25.71, 142.08, 141.55, 0, 0.01, 3
 164293423, 7.87, 8.06, -24.64, -24.59, 142.8, 142.3, 0, 0.01, 3
 164393383, 8.52, 8.71, -23.95, -23.84, 143.56, 143.03, 0, 0.01, 3
 164493343, 9.19, 9.4, -23.3, -23.18, 144.39, 143.79, 0, 0.01, 3
 164593303, 9.85, 10.09, -22.64, -22.52, 145.28, 144.6, 0, 0.01, 3
 164693263, 10.5, 10.78, -21.97, -21.83, 146.25, 145.48, 0, 0.01, 3
 164794056, 11.12, 11.43, -21.25, -21.1, 147.3, 146.42, 0, 0.02, 3
 164894016, 11.75, 12.08, -20.6, -20.42, 148.41, 147.43, 0, 0.02, 3
 164993976, 12.35, 12.7, -19.98, -19.76, 149.6, 148.51, 0, 0.02, 3
 165093936, 12.9, 13.27, -19.32, -19.08, 150.86, 149.7, 0, 0.02, 3
 165193896, 13.43, 13.81, -18.72, -18.44, 152.19, 150.95, 0, 0.02, 3
 165293856, 13.92, 14.3, -18.14, -17.83, 153.57, 152.29, 0, 0.02, 3
 165393816, 14.37, 14.75, -17.58, -17.25, 155.02, 153.72, 0, 0.02, 3
 165493776, 14.76, 15.14, -17.03, -16.69, 156.53, 155.24, 0, 0.02, 3
 165593736, 15.08, 15.47, -16.49, -16.15, 158.09, 156.83, 0, 0.02, 3
 165693696, 15.33, 15.71, -15.96, -15.64, 159.7, 158.5, 0, 0.02, 3
 165793656, 15.51, 15.85, -15.43, -15.14, 161.34, 160.25, 0, 0.02, 3
 165893616, 15.63, 15.91, -14.94, -14.67, 163.01, 162.05, 0, 0.02, 3
 165993576, 15.69, 15.92, -14.44, -14.23, 164.7, 163.89, 0, 0.02, 3
 166093536, 15.66, 15.84, -13.92, -13.75, 166.41, 165.78, 0, 0.02, 3
 166193496, 15.56, 15.69, -13.41, -13.29, 168.11, 167.69, 0, 0.02, 3
 166293456, 15.38, 15.47, -12.89, -12.84, 169.82, 169.6, 0, 0.02, 3
 166393416, 15.13, 15.17, -12.36, -12.35, 171.51, 171.51, 0, 0.02, 3
 166493376, 14.82, 14.81, -11.86, -11.9, 173.18, 173.38, 0, 0.02, 3
 166593336, 14.45, 14.4, -11.34, -11.45, 174.82, 175.22, 0, 0.01, 3
 166693296, 14.01, 13.93, -10.81, -10.97, 176.43, 177, 0, 0.01, 3
 166794089, 13.52, 13.41, -10.26, -10.45, 177.99, 178.73, 0, 0.01, 3
 166894049, 12.97, 12.84, -9.68, -9.88, 179.52, 180.41, 0.01, 0.01, 3
 166994009, 12.39, 12.25, -9.13, -9.33, 180.99, 181.99, 0.01, 0.01, 3
 167093969, 11.78, 11.63, -8.59, -8.79, 182.4, 183.49, 0.01, 0.01, 3
 167193929, 11.15, 11, -8.49, -8.51, 183.71, 184.84, 0.01, 0.01, 3
 167293889, 10.6, 10.43, -10.85, -10.59, 184.75, 185.67, 0.01, 0.01, 3
 167393849, 10.09, 9.92, -13.09, -12.99, 185.79, 186.43, 0.01, 0, 3
 167493809, 9.62, 9.48, -14.62, -14.7, 186.87, 187.32, 0.01, 0, 3
 167593769, 9.19, 9.07, -15.8, -15.92, 187.98, 188.3, 0.01, 0, 3
 167693729, 8.77, 8.69, -16.91, -17.02, 189.07, 189.3, 0.02, 0, 3
 167793689, 8.38, 8.31, -18.03, -18.1, 190.15, 190.32, 0.02, 0, 3
 167893649, 8.02, 7.96, -19.15, -19.2, 191.21, 191.34, 0.02, 0, 3
 167993609, 7.7, 7.65, -20.22, -20.26, 192.26, 192.38, 0.02, 0, 3
 168093569, 7.39, 7.33, -21.17, -21.23, 193.3, 193.44, 0.02, 0, 3
 168193529, 7.1, 7.01, -22.03, -22.1, 194.32, 194.51, 0.02, 0, 3
 168293489, 6.83, 6.72, -22.84, -22.91, 195.32, 195.59, 0.02, 0, 3
 168393449, 6.59, 6.43, -23.58, -23.66, 196.3, 196.66, 0.02, 0, 3
 168493409, 6.37, 6.17, -24.29, -24.36, 197.25, 197.72, 0.01, 0, 3
 168593369, 6.19, 5.93, -24.99, -25.06, 198.18, 198.75, 0.01, 0, 3
 168693329, 6.02, 5.72, -25.64, -25.71, 199.07, 199.74, 0.01, 0, 3
 168793289, 5.87, 5.52, -26.23, -26.32, 199.94, 200.7, 0.01, 0, 3
 168894082, 5.74, 5.35, -26.78, -26.88, 200.78, 201.61, 0.01, 0, 3
 168994042, 5.62, 5.2, -27.27, -27.35, 201.59, 202.48, 0.01, 0, 3
 169094002, 5.53, 5.09, -27.78, -27.85, 202.37, 203.28, 0.01, 0, 3
 169193962, 5.45, 5.01, -28.26, -28.33, 203.12, 204.04, 0.01, 0, 3
 169293922, 5.38, 4.94, -28.68, -28.75, 203.85, 204.74, 0.01, 0, 3
 169393882, 5.33, 4.91, -29.1, -29.17, 204.55, 205.38, 0.01, 0, 3
 169493842, 5.26, 4.89, -29.33, -29.42, 205.23, 205.99, 0, 0, 3
 169593802, 5.2, 4.87, -29.46, -29.54, 205.89, 206.58, 0, 0, 3
 169693762, 5.14, 4.85, -29.53, -29.6, 206.53, 207.13, 0, 0, 3
 169793722, 5.1, 4.84, -29.56, -29.62, 207.14, 207.65, 0, 0, 3
 169893682, 5.05, 4.84, -29.59, -29.64, 207.73, 208.14, 0, 0, 3
 169993642, 5, 4.85, -29.6, -29.64, 208.3, 208.62, 0, 0, 3
 170093602, 4.96, 4.84, -29.61, -29.64, 208.85, 209.08, 0, 0, 3
 170193562, 4.9, 4.83, -29.62, -29.64, 209.38, 209.54, 0, 0, 3
 170293522, 4.84, 4.8, -29.63, -29.64, 209.89, 209.98, 0, 0, 3
 170393482, 4.77, 4.76, -29.65, -29.65, 210.39, 210.43, 0, 0, 3
 170493442, 4.69, 4.69, -29.66, -29.66, 210.87, 210.88, 0, 0, 3
 170593402, 4.61, 4.62, -29.67, -29.67, 211.33, 211.33, 0, 0, 3
 170693362, 4.51, 4.51, -29.68, -29.69, 211.77, 211.79, 0, 0, 3
 170793322, 4.39, 4.39, -29.7, -29.7, 212.2, 212.24, 0, 0, 3
 170893282, 4.26, 4.24, -29.72, -29.72, 212.61, 212.69, 0, 0, 3
 170994075, 3.94, 3.93, -29.76, -29.75, 213.02, 213.13, 0, 0, 3
 171094035, 3.65, 3.59, -29.79, -29.79, 213.39, 213.55, 0, 0, 3
 171193995, 3.51, 3.38, -29.81, -29.82, 213.7, 213.96, 0, 0, 3
 171293955, 3.46, 3.26, -29.76, -29.8, 213.99, 214.35, 0, 0, 3
 171393915, 3.47, 3.23, -29.68, -29.7, 214.28, 214.71, 0, 0, 3
 171493875, 3.52, 3.26, -29.63, -29.63, 214.56, 215.03, 0, 0, 3
