Time,SIM_Roll,SIM_Pitch,SIM_Yaw,SIM_Alt,SIM_Lat,SIM_Lng,SIM_Q1,SIM_Q2,SIM_Q3,SIM_Q4
 74893364, 0, 0, 0, 558.09, 33.6412058, 72.9955928, 1, 0, 0, 0
 74993324, 0, 0, 0, 558.09, 33.6412058, 72.9955928, 1, 0, 0, 0
 75093284, 0, 0, 0, 558.09, 33.6412058, 72.9955928, 1, 0, 0, 0
 75194077, 0, 0, 0, 558.09, 33.6412058, 72.9955928, 1, 0, 0, 0
 75294037, 0, 0, 0, 558.09, 33.6412058, 72.9955928, 1, 0, 0, 0
 75393997, 0, 0, 0, 558.09, 33.6412058, 72.9955928, 1, 0, 0, 0
 75493957, 0, 0, 0, 558.09, 33.6412058, 72.9955928, 1, 0, 0, 0
 75593917, 0, 0, 0, 558.09, 33.6412058, 72.9955928, 1, 0, 0, 0
 75693877, 0, 0, 0, 558.09, 33.6412058, 72.9955928, 1, 0, 0, 0
 75793837, 0, 0, 0, 558.09, 33.6412058, 72.9955928, 1, 0, 0, 0
 75893797, 0, 0, 0, 558.09, 33.6412058, 72.9955928, 1, 0, 0, 0
 75993757, 0, 0, 0, 558.09, 33.6412058, 72.9955928, 1, 0, 0, 0
 76093717, 0, 0, 0, 558.09, 33.6412058, 72.9955928, 1, 0, 0, 0
 76193677, 0, 0, 0, 558.09, 33.6412058, 72.9955928, 1, 0, 0, 0
 76293637, 0, 0, 0, 558.09, 33.6412058, 72.9955928, 1, 0, 0, 0
 76393597, 0, 0, 0, 558.09, 33.6412058, 72.9955928, 1, 0, 0, 0
 76493557, 0, 0, 0, 558.09, 33.6412058, 72.9955928, 1, 0, 0, 0
 76593517, 0, 0, 0, 558.09, 33.6412058, 72.9955928, 1, 0, 0, 0
 76693477, 0, 0, 0, 558.09, 33.6412058, 72.9955928, 1, 0, 0, 0
 76793437, 0, 0, 0, 558.09, 33.6412058, 72.9955928, 1, 0, 0, 0
 76893397, 0, 0, 0, 558.09, 33.6412058, 72.9955928, 1, 0, 0, 0
 76993357, 0, 0, 0, 558.09, 33.6412058, 72.9955928, 1, 0, 0, 0
 77093317, 0, 0, 0, 558.09, 33.6412058, 72.9955928, 1, 0, 0, 0
 77193277, 0, 0, 0, 558.09, 33.6412058, 72.9955928, 1, 0, 0, 0
 77294070, 0, 0, 0, 558.09, 33.6412058, 72.9955928, 1, 0, 0, 0
 77394030, 0, 0, 0, 558.09, 33.6412058, 72.9955928, 1, 0, 0, 0
 77493990, 0, 0, 0, 558.09, 33.6412058, 72.9955928, 1, 0, 0, 0
 77593950, 0, 0, 0, 558.09, 33.6412058, 72.9955928, 1, 0, 0, 0
 77693910, 0, 0, 0, 558.09, 33.6412058, 72.9955928, 1, 0, 0, 0
 77793870, 0, 0, 0, 558.09, 33.6412058, 72.9955928, 1, 0, 0, 0
 77893830, 0, 0, 0, 558.09, 33.6412058, 72.9955928, 1, 0, 0, 0
 77993790, 0, 0, 0, 558.09, 33.6412058, 72.9955928, 1, 0, 0, 0
 78093750, 0, 0, 0, 558.09, 33.6412058, 72.9955928, 1, 0, 0, 0
 78193710, 0, 0, 0, 558.09, 33.6412058, 72.9955928, 1, 0, 0, 0
 78293670, 0, 0, 0, 558.09, 33.6412058, 72.9955928, 1, 0, 0, 0
 78393630, 0, 0, 0, 558.09, 33.6412058, 72.9955928, 1, 0, 0, 0
 78493590, 0, 0, 0, 558.09, 33.6412058, 72.9955928, 1, 0, 0, 0
 78593550, 0, 0, 0, 558.09, 33.6412058, 72.9955928, 1, 0, 0, 0
 78693510, 0, 0, 0, 558.09, 33.6412058, 72.9955928, 1, 0, 0, 0
 78793470, 0, 0, 0, 558.09, 33.6412058, 72.9955928, 1, 0, 0, 0
 78893430, 0, 0, 360, 558.09, 33.6412058, 72.9955928, 1, 0, 0, -5.381546E-10
 78993390, 0, 0, 360, 558.09, 33.6412058, 72.9955928, 1, 0, 0, -2.691823E-09
 79093350, 0, 0, 360, 558.09, 33.6412058, 72.9955928, 1, 0, 0, -1.763243E-08
 79193310, 0, 0, 360, 558.09, 33.6412058, 72.9955928, 1, 0, 0, -4.807194E-08
 79293270, 0, 0, 360, 558.09, 33.6412058, 72.9955928, 1, 0, 0, -8.976741E-08
 79394063, 0, 0, 360, 558.09, 33.6412058, 72.9955928, 1, 0, 0, -1.284531E-07
 79494023, 0, 0, 360, 558.09, 33.6412058, 72.9955928, 1, 0, 0, -1.67062E-07
 79593983, 0, 0, 359.99, 558.1, 33.6412058, 72.9955928, 1, 0, 0, -2.344078E-07
 79693943, 0, 0, 359.99, 558.1, 33.6412058, 72.9955928, 1, 0, 0, -2.968419E-07
 79793903, 0, 0, 359.99, 558.12, 33.6412058, 72.9955928, 1, 0, 0, -3.77262E-07
 79893863, 0, 0, 359.99, 558.15, 33.6412058, 72.9955928, 1, 0, 0, -4.653094E-07
 79993823, 0, 0, 359.99, 558.19, 33.6412058, 72.9955928, 1, 0, 0, -5.625498E-07
 80093783, -0.11, -0.11, 359.99, 558.26, 33.6412058, 72.9955928, 0.999999, -0.001016178, -0.0009665391, -6.200011E-06
 80193743, -0.26, -0.24, 359.99, 558.38, 33.6412058, 72.9955928, 0.9999951, -0.002295664, -0.002133064, -2.325265E-05
 80293703, -0.32, -0.29, 359.99, 558.55, 33.6412058, 72.9955928, 0.9999927, -0.002810966, -0.002588854, -4.981972E-05
 80393663, -0.3, -0.27, 359.99, 558.73, 33.6412058, 72.9955928, 0.9999936, -0.00262855, -0.002435397, -8.296737E-05
 80493623, -0.24, -0.22, 359.98, 558.92, 33.6412058, 72.9955928, 0.9999958, -0.002096226, -0.001981264, -0.0001219435
 80593583, -0.16, -0.16, 359.98, 559.12, 33.6412058, 72.9955928, 0.9999979, -0.00147193, -0.001424054, -0.000161419
 80693543, -0.11, -0.11, 359.97, 559.32, 33.6412058, 72.9955928, 0.999999, -0.0009700268, -0.0009962782, -0.0002020766
 80793503, -0.07, -0.07, 359.97, 559.53, 33.6412058, 72.9955928, 0.9999996, -0.0006166803, -0.0006298759, -0.0002461251
 80893463, -0.03, -0.04, 359.96, 559.75, 33.6412059, 72.9955928, 0.9999998, -0.0003427982, -0.0003828789, -0.0002881056
 80993423, -0.01, -0.01, 359.96, 559.99, 33.6412059, 72.9955928, 0.9999999, -0.0001126021, -0.0001480995, -0.0003242322
 81093383, 0, 0, 359.95, 560.23, 33.6412059, 72.9955927, 0.9999999, 3.751506E-05, 1.914515E-05, -0.0003624644
 81193343, 0.02, 0.02, 359.95, 560.47, 33.6412059, 72.9955927, 0.9999999, 0.0001866807, 0.0001920393, -0.0003975848
 81293303, 0.03, 0.03, 359.95, 560.73, 33.6412061, 72.9955927, 0.9999998, 0.0003088431, 0.0003354268, -0.000423554
 81393263, 0.04, 0.04, 359.94, 560.99, 33.6412061, 72.9955927, 0.9999998, 0.0003746502, 0.0004281775, -0.000439667
 81494056, 0.04, 0.06, 359.94, 561.25, 33.6412061, 72.9955926, 0.9999996, 0.0004211838, 0.0005259978, -0.0004474054
 81594016, 0.05, 0.07, 359.94, 561.51, 33.6412061, 72.9955926, 0.9999996, 0.0004779286, 0.0006471527, -0.0004487225
 81693976, 0.06, 0.08, 359.94, 561.78, 33.6412061, 72.9955926, 0.9999995, 0.0005265599, 0.00073391, -0.0004465526
 81793936, 0.06, 0.09, 359.94, 562.04, 33.6412061, 72.9955926, 0.9999993, 0.0005946806, 0.0008336211, -0.0004446058
 81893896, 0.07, 0.1, 359.94, 562.3, 33.6412062, 72.9955926, 0.9999993, 0.0006466517, 0.0008877589, -0.0004456698
 81993856, 0.07, 0.1, 359.94, 562.55, 33.6412062, 72.9955925, 0.9999992, 0.0006886556, 0.0009526517, -0.0004514405
 82093816, 0.07, 0.1, 359.94, 562.8, 33.6412062, 72.9955925, 0.9999992, 0.0006827295, 0.0009455441, -0.0004605846
 82193776, 0.08, 0.11, 359.94, 563.04, 33.6412062, 72.9955925, 0.9999992, 0.0007364948, 0.0009649132, -0.0004664201
 82293736, 0.08, 0.1, 359.94, 563.27, 33.6412062, 72.9955925, 0.9999992, 0.0007066133, 0.0009068069, -0.0004732816
 82393696, 0.08, 0.1, 359.94, 563.5, 33.6412062, 72.9955925, 0.9999992, 0.0007436377, 0.0009439435, -0.0004831904
 82493656, 0.09, 0.11, 359.94, 563.72, 33.6412062, 72.9955925, 0.999999, 0.0007989194, 0.001015255, -0.0004962055
 82593616, 0.1, 0.11, 359.94, 563.93, 33.6412062, 72.9955925, 0.999999, 0.0008754771, 0.0009735709, -0.000518863
 82693576, 0.1, 0.1, 359.93, 564.13, 33.6412062, 72.9955925, 0.999999, 0.0008761291, 0.0009215904, -0.0005432884
 82793536, 0.07, 0.1, 359.93, 564.33, 33.6412062, 72.9955925, 0.9999992, 0.0006851537, 0.0009133964, -0.0005738606
 82893496, 0.05, 0.09, 359.93, 564.52, 33.6412062, 72.9955925, 0.9999993, 0.0005240072, 0.0008477621, -0.0006080906
 82993456, 0.05, 0.09, 359.92, 564.7, 33.6412062, 72.9955925, 0.9999993, 0.000479514, 0.000843684, -0.0006425928
 83093416, 0.05, 0.09, 359.92, 564.88, 33.6412062, 72.9955925, 0.9999993, 0.0004496892, 0.0008282755, -0.0006785411
 83193376, 0.04, 0.09, 359.91, 565.05, 33.6412062, 72.9955925, 0.9999993, 0.0004355214, 0.0007899568, -0.0007135504
 83293336, 0.04, 0.08, 359.91, 565.21, 33.6412062, 72.9955925, 0.9999993, 0.0003971205, 0.000727942, -0.0007389368
 83393296, 0.04, 0.08, 359.91, 565.37, 33.6412062, 72.9955925, 0.9999994, 0.0003866576, 0.0006993674, -0.000734642
 83494089, 0.03, 0.07, 359.91, 565.53, 33.6412062, 72.9955925, 0.9999995, 0.000348787, 0.0006139429, -0.000719118
 83594049, 0.03, 0.05, 359.91, 565.68, 33.6412062, 72.9955925, 0.9999996, 0.0003000417, 0.0005121626, -0.0007042825
 83694009, 0.03, 0.05, 359.91, 565.82, 33.6412062, 72.9955925, 0.9999996, 0.0002694186, 0.0004684769, -0.0007118701
 83793969, 0.03, 0.05, 359.91, 565.96, 33.6412062, 72.9955925, 0.9999996, 0.0002813364, 0.0004406382, -0.0007333517
 83893929, 0.03, 0.04, 359.91, 566.09, 33.6412062, 72.9955925, 0.9999996, 0.0002689406, 0.00040546, -0.000755842
 83993889, 0.02, 0.05, 359.91, 566.22, 33.6412062, 72.9955925, 0.9999996, 0.0002343042, 0.0004396079, -0.000775181
 84093849, 0.02, 0.04, 359.9, 566.34, 33.6412061, 72.9955925, 0.9999996, 0.0001755257, 0.0003799851, -0.0007920226
 84193809, 0.01, 0.04, 359.9, 566.46, 33.6412061, 72.9955925, 0.9999996, 0.0001258084, 0.0003511106, -0.0008071043
 84293769, 0.02, 0.02, 359.9, 566.57, 33.6412061, 72.9955925, 0.9999996, 0.0001870965, 0.0002069003, -0.0008246226
 84393729, 0.02, 0, 359.9, 566.68, 33.6412061, 72.9955925, 0.9999996, 0.0002283219, 6.693303E-05, -0.0008446302
 84493689, 0.01, -0.01, 359.9, 566.78, 33.6412061, 72.9955925, 0.9999996, 0.0001022472, -0.0001696921, -0.0008651142
 84593649, 0.01, -0.02, 359.89, 566.88, 33.6412061, 72.9955925, 0.9999996, 0.0001377095, -0.0001881537, -0.0008862757
 84693609, 0.02, -0.01, 359.89, 566.97, 33.6412061, 72.9955925, 0.9999995, 0.0002227818, -0.000145316, -0.0009139432
 84793569, 0.01, -0.01, 359.89, 567.06, 33.6412059, 72.9955925, 0.9999995, 0.0001488367, -0.0001571888, -0.0009427093
 84893529, 0.01, -0.02, 359.88, 567.14, 33.6412059, 72.9955925, 0.9999995, 0.0001428109, -0.0001924851, -0.0009723846
 84993489, 0.01, -0.03, 359.88, 567.21, 33.6412059, 72.9955925, 0.9999995, 0.0001634052, -0.000266705, -0.001005986
 85093449, 0, -0.04, 359.88, 567.28, 33.6412059, 72.9955925, 0.9999993, 1.930303E-06, -0.000435918, -0.001042434
 85193409, 0, -0.06, 359.87, 567.35, 33.6412059, 72.9955925, 0.9999992, -1.646772E-05, -0.0005902546, -0.001078175
 85293369, 0, -0.07, 359.87, 567.41, 33.6412059, 72.9955925, 0.9999992, -3.586691E-05, -0.000638869, -0.001108848
 85393329, -0.01, -0.06, 359.86, 567.46, 33.6412059, 72.9955926, 0.9999992, -9.469148E-05, -0.0005892015, -0.001139659
 85493289, 0, -0.07, 359.86, 567.51, 33.6412059, 72.9955926, 0.9999991, -2.8541E-05, -0.0006167704, -0.001170815
 85594082, 0, -0.06, 359.86, 567.55, 33.6412059, 72.9955926, 0.9999991, 1.487676E-05, -0.0005709773, -0.001201023
 85694042, 0, -0.06, 359.85, 567.59, 33.6412059, 72.9955926, 0.999999, -1.859126E-05, -0.0006046524, -0.001228515
 85794002, 0, -0.07, 359.85, 567.62, 33.6412059, 72.9955926, 0.999999, -7.722418E-05, -0.0006280842, -0.001253657
 85893962, -0.02, -0.08, 359.85, 567.64, 33.6412059, 72.9955926, 0.9999989, -0.0002261875, -0.0007322659, -0.001278878
 85993922, -0.02, -0.09, 359.85, 567.66, 33.6412059, 72.9955926, 0.9999987, -0.000249108, -0.0008362152, -0.001300874
 86093882, -0.02, -0.07, 359.84, 567.67, 33.6412059, 72.9955926, 0.9999989, -0.0002393239, -0.0006534263, -0.001322104
 86193842, -0.02, -0.05, 359.84, 567.67, 33.6412059, 72.9955926, 0.9999989, -0.0002354307, -0.0005132408, -0.001342725
 86293802, -0.03, -0.05, 359.84, 567.67, 33.6412059, 72.9955926, 0.9999989, -0.0002916401, -0.0004655349, -0.001362768
 86393762, -0.03, -0.05, 359.84, 567.66, 33.6412059, 72.9955926, 0.9999989, -0.0003233489, -0.0004583954, -0.001375844
 86493722, -0.04, -0.04, 359.84, 567.65, 33.6412059, 72.9955926, 0.9999989, -0.0004117997, -0.0004293331, -0.001383644
 86593682, -0.05, -0.05, 359.84, 567.64, 33.6412059, 72.9955926, 0.9999988, -0.0004517167, -0.0004573124, -0.001392413
 86693642, -0.04, -0.04, 359.83, 567.63, 33.6412059, 72.9955926, 0.9999988, -0.000432443, -0.0004061501, -0.001405058
 86793602, -0.05, -0.04, 359.83, 567.62, 33.6412059, 72.9955926, 0.9999988, -0.0004535511, -0.0004203875, -0.001419074
 86893562, -0.04, -0.04, 359.83, 567.61, 33.6412059, 72.9955926, 0.9999988, -0.0004064103, -0.0003718401, -0.001434336
 86993522, -0.04, -0.03, 359.83, 567.6, 33.6412059, 72.9955926, 0.9999988, -0.0003787451, -0.0003339407, -0.001449304
 87093482, -0.05, -0.04, 359.83, 567.59, 33.6412059, 72.9955926, 0.9999987, -0.0004935237, -0.0004298906, -0.001463861
 87193442, -0.05, -0.04, 359.83, 567.59, 33.6412059, 72.9955926, 0.9999987, -0.000462123, -0.0004326468, -0.001477552
 87293402, -0.04, -0.04, 359.82, 567.58, 33.6412059, 72.9955926, 0.9999987, -0.0003946958, -0.0003993814, -0.001493938
 87393362, -0.04, -0.04, 359.82, 567.58, 33.6412059, 72.9955926, 0.9999987, -0.0003686643, -0.0004089104, -0.001522948
 87493322, -0.04, -0.04, 359.82, 567.57, 33.6412059, 72.9955926, 0.9999986, -0.0003650275, -0.0004106895, -0.001553118
 87593282, -0.04, -0.04, 359.81, 567.57, 33.6412059, 72.9955926, 0.9999986, -0.0003518377, -0.0003846671, -0.001581615
 87694075, -0.04, -0.04, 359.81, 567.57, 33.6412059, 72.9955926, 0.9999985, -0.0004064242, -0.000417858, -0.001611233
 87794035, -0.04, -0.04, 359.81, 567.57, 33.6412059, 72.9955926, 0.9999985, -0.0003542125, -0.0003784639, -0.00163965
 87893995, -0.04, -0.02, 359.8, 567.57, 33.6412059, 72.9955926, 0.9999985, -0.0003751337, -0.0002350485, -0.001665438
 87993955, -0.04, -0.02, 359.8, 567.57, 33.6412059, 72.9955926, 0.9999985, -0.0003525515, -0.0002010553, -0.001685992
 88093915, -0.03, -0.02, 359.8, 567.57, 33.6412059, 72.9955926, 0.9999985, -0.0003118592, -0.0002558111, -0.00170009
 88193875, -0.02, -0.04, 359.8, 567.57, 33.6412059, 72.9955926, 0.9999985, -0.0001897976, -0.000352644, -0.00171007
 88293835, 0, -0.05, 359.8, 567.57, 33.6412059, 72.9955926, 0.9999984, -6.839506E-05, -0.0004489671, -0.001719992
 88393795, 0, -0.04, 359.8, 567.57, 33.6412059, 72.9955926, 0.9999984, -7.794753E-05, -0.0003920929, -0.00173247
 88493755, -0.02, -0.03, 359.79, 567.57, 33.6412059, 72.9955926, 0.9999984, -0.0001756028, -0.0003330375, -0.001753297
 88593715, -0.02, -0.03, 359.79, 567.57, 33.6412061, 72.9955926, 0.9999983, -0.0002142552, -0.0002949077, -0.001777325
 88693675, -0.02, -0.02, 359.79, 567.57, 33.6412061, 72.9955926, 0.9999983, -0.0002561209, -0.000228293, -0.001803744
 88793635, -0.03, -0.01, 359.79, 567.57, 33.6412061, 72.9955926, 0.9999983, -0.0002918145, -0.000168273, -0.001828563
 88893595, -0.03, -0.01, 359.78, 567.57, 33.6412061, 72.9955926, 0.9999982, -0.0003208899, -0.0001294053, -0.001853758
 88993555, -0.03, 0, 359.78, 567.58, 33.6412061, 72.9955926, 0.9999982, -0.0003486387, -5.11624E-05, -0.00187976
 89093515, -0.04, 0, 359.78, 567.6, 33.6412061, 72.9955926, 0.9999981, -0.0004063078, -1.059565E-05, -0.001905522
 89193475, -0.05, 0, 359.77, 567.62, 33.6412061, 72.9955925, 0.999998, -0.0004373673, 3.433377E-05, -0.001931314
 89293435, -0.05, 0, 359.77, 567.66, 33.6412062, 72.9955925, 0.999998, -0.0004606742, 3.452398E-05, -0.001954967
 89393395, -0.05, 0, 359.77, 567.71, 33.6412062, 72.9955925, 0.9999979, -0.0004478205, 3.612645E-05, -0.001981458
 89493355, -0.03, 0, 359.76, 567.77, 33.6412062, 72.9955925, 0.9999979, -0.0003409042, 5.274306E-05, -0.002008155
 89593315, -0.03, 0, 359.76, 567.84, 33.6412062, 72.9955925, 0.9999979, -0.0002778626, 5.316513E-05, -0.002030659
 89693275, -0.02, 0, 359.76, 567.92, 33.6412062, 72.9955925, 0.9999979, -0.0002001865, -4.009686E-05, -0.002049344
 89794068, -0.01, 0, 359.76, 568.02, 33.6412062, 72.9955925, 0.9999979, -0.0001237003, 6.748732E-05, -0.002063463
 89894028, 0, 0.02, 359.76, 568.12, 33.6412062, 72.9955923, 0.9999979, -5.020689E-05, 0.0001926398, -0.002071055
 89993988, 0, 0.02, 359.76, 568.24, 33.6412062, 72.9955923, 0.9999978, -8.004987E-05, 0.0001896039, -0.002077602
 90093948, -0.01, 0.01, 359.76, 568.37, 33.6412062, 72.9955923, 0.9999978, -0.0001582955, 0.0001267915, -0.002084211
 90193908, -0.01, 0.02, 359.75, 568.5, 33.6412062, 72.9955923, 0.9999978, -0.0001367743, 0.0001756071, -0.002096327
 90293868, 0, 0.02, 359.75, 568.65, 33.6412063, 72.9955923, 0.9999977, -2.242937E-05, 0.0001982179, -0.002113381
 90393828, 0.02, 0.04, 359.75, 568.81, 33.6412063, 72.9955923, 0.9999976, 0.0002180619, 0.0003589999, -0.002134586
 90493788, 0.02, 0.04, 359.75, 568.98, 33.6412063, 72.9955923, 0.9999976, 0.0002606489, 0.0003506251, -0.002155875
 90593748, 0.03, 0.03, 359.75, 569.15, 33.6412063, 72.9955923, 0.9999976, 0.0002933906, 0.0003423435, -0.002176292
 90693708, 0.03, 0.03, 359.74, 569.34, 33.6412063, 72.9955923, 0.9999975, 0.0003265843, 0.0003376679, -0.002197491
 90793668, 0.04, 0.03, 359.74, 569.54, 33.6412063, 72.9955923, 0.9999974, 0.0003718958, 0.0003321889, -0.002219866
 90893628, 0.04, 0.03, 359.74, 569.74, 33.6412063, 72.9955923, 0.9999974, 0.0003553819, 0.0003256137, -0.002241292
 90993588, 0.02, 0.03, 359.74, 569.96, 33.6412063, 72.9955923, 0.9999974, 0.0002606766, 0.0002616931, -0.002266321
 91093548, 0.01, 0.03, 359.73, 570.19, 33.6412063, 72.9955923, 0.9999973, 0.0001581374, 0.0002779053, -0.002292435
 91193508, 0.02, 0.04, 359.73, 570.42, 33.6412063, 72.9955923, 0.9999972, 0.000212657, 0.000387463, -0.002321154
 91293468, 0.02, 0.04, 359.73, 570.66, 33.6412063, 72.9955923, 0.9999971, 0.0002555446, 0.0003907902, -0.002352114
 91393428, 0.03, 0.04, 359.72, 570.91, 33.6412063, 72.9955923, 0.999997, 0.0003444153, 0.0004065949, -0.002383957
 91493388, 0.03, 0.04, 359.72, 571.16, 33.6412063, 72.9955923, 0.999997, 0.0003463586, 0.0003824998, -0.002413445
 91593348, 0.03, 0.04, 359.72, 571.41, 33.6412063, 72.9955923, 0.9999969, 0.0003462251, 0.0003707092, -0.002441341
 91693308, 0.04, 0.04, 359.71, 571.67, 33.6412063, 72.9955923, 0.9999968, 0.0003643123, 0.0003826648, -0.002465829
 91793268, 0.03, 0.04, 359.71, 571.92, 33.6412063, 72.9955923, 0.9999968, 0.0002979595, 0.0003693248, -0.002489471
 91894061, 0.03, 0.04, 359.71, 572.17, 33.6412063, 72.9955923, 0.9999967, 0.0003037447, 0.0003731099, -0.002513035
 91994021, 0.03, 0.04, 359.71, 572.42, 33.6412063, 72.9955923, 0.9999967, 0.0003287212, 0.0003668668, -0.002530321
 92093981, 0.03, 0.04, 359.7, 572.67, 33.6412063, 72.9955923, 0.9999967, 0.0003284286, 0.000371405, -0.002542747
 92193941, 0.03, 0.04, 359.7, 572.92, 33.6412063, 72.9955923, 0.9999967, 0.0002748229, 0.0003500976, -0.002551746
 92293901, 0.02, 0.03, 359.7, 573.17, 33.6412063, 72.9955923, 0.9999967, 0.0001918829, 0.0003379828, -0.002559348
 92393861, 0.02, 0.03, 359.7, 573.41, 33.6412063, 72.9955923, 0.9999967, 0.0001782893, 0.0003357631, -0.002567531
 92493821, 0.01, 0.02, 359.7, 573.66, 33.6412063, 72.9955923, 0.9999967, 0.0001434525, 0.0001965886, -0.002570634
 92593781, 0.01, 0.01, 359.7, 573.9, 33.6412063, 72.9955923, 0.9999967, 8.82368E-05, 0.000170999, -0.002572605
 92693741, 0.01, 0.03, 359.7, 574.14, 33.6412063, 72.9955923, 0.9999967, 0.0001044137, 0.0002656701, -0.002577252
 92793701, 0.01, 0.03, 359.7, 574.38, 33.6412063, 72.9955923, 0.9999966, 0.000123279, 0.0003442322, -0.0025721
 92893661, 0.01, 0.04, 359.7, 574.62, 33.6412063, 72.9955923, 0.9999966, 0.0001346318, 0.0003521558, -0.002578829
 92993621, 0.01, 0.03, 359.7, 574.86, 33.6412063, 72.9955923, 0.9999965, 0.0001089891, 0.0003114118, -0.002594289
 93093581, 0, 0.02, 359.7, 575.1, 33.6412063, 72.9955923, 0.9999965, -1.581935E-05, 0.0002299993, -0.002617172
 93193541, 0, 0.01, 359.69, 575.34, 33.6412063, 72.9955923, 0.9999965, -3.162E-05, 0.0001563603, -0.002638717
 93293501, 0, 0.01, 359.69, 575.58, 33.6412063, 72.9955923, 0.9999964, 7.144154E-05, 0.0001683489, -0.002666525
 93393461, 0.01, 0.02, 359.69, 575.82, 33.6412063, 72.9955923, 0.9999964, 0.0001069329, 0.0001842783, -0.002694733
 93493421, 0, 0.01, 359.68, 576.06, 33.6412063, 72.9955923, 0.9999963, 8.419481E-05, 0.0001358723, -0.002720813
 93593381, 0.01, 0.01, 359.68, 576.3, 33.6412063, 72.9955923, 0.9999962, 0.0001082253, 0.000140042, -0.002750393
 93693341, 0, 0.01, 359.68, 576.54, 33.6412062, 72.9955923, 0.9999961, 6.345437E-05, 0.0001099698, -0.002779526
 93793301, 0, 0.01, 359.67, 576.78, 33.6412062, 72.9955923, 0.9999961, 8.228686E-05, 0.0001160037, -0.002805504
 93893261, 0, 0, 359.67, 577.02, 33.6412062, 72.9955923, 0.999996, 3.921353E-05, 7.607973E-05, -0.002830181
 93994054, 0, 0, 359.67, 577.26, 33.6412062, 72.9955923, 0.9999959, 4.213705E-05, 5.208926E-05, -0.002857964
 94094014, 0, 0, 359.67, 577.49, 33.6412062, 72.9955923, 0.9999959, 4.963775E-05, -2.128467E-05, -0.002875026
 94193974, 0, 0, 359.67, 577.73, 33.6412062, 72.9955923, 0.9999959, 7.518742E-05, -5.119063E-05, -0.002858066
 94293934, 0, -0.01, 359.67, 577.97, 33.6412062, 72.9955923, 0.9999959, 5.783861E-05, -9.669484E-05, -0.00283684
 94393894, 0.01, 0, 359.67, 578.21, 33.6412062, 72.9955923, 0.9999959, 0.0001273619, -8.486429E-05, -0.002837447
 94493854, 0.01, 0, 359.67, 578.45, 33.6412062, 72.9955923, 0.9999959, 8.971678E-05, -8.637112E-05, -0.002859095
 94593814, 0, -0.01, 359.66, 578.69, 33.6412062, 72.9955923, 0.9999958, 7.08708E-05, -9.601299E-05, -0.002884684
 94693774, 0, -0.01, 359.66, 578.92, 33.6412062, 72.9955923, 0.9999958, 6.090315E-05, -0.000124434, -0.002913103
 94793734, 0, -0.01, 359.66, 579.16, 33.6412062, 72.9955923, 0.9999956, 5.659244E-05, -0.0001430018, -0.002940213
 94893694, 0, -0.01, 359.66, 579.4, 33.6412062, 72.9955923, 0.9999956, 7.392166E-05, -0.000128287, -0.002965173
 94993654, 0, -0.01, 359.65, 579.64, 33.6412061, 72.9955923, 0.9999955, 8.112297E-05, -0.0001244088, -0.002989347
 95093614, 0, -0.01, 359.65, 579.88, 33.6412061, 72.9955923, 0.9999955, 7.377076E-05, -0.000116256, -0.003012447
 95193574, 0, -0.01, 359.65, 580.11, 33.6412061, 72.9955923, 0.9999954, 7.696934E-05, -0.0001247415, -0.003034144
 95293534, 0, -0.01, 359.64, 580.35, 33.6412061, 72.9955923, 0.9999954, 5.969461E-05, -0.0001608594, -0.003055052
 95393494, 0, -0.02, 359.64, 580.59, 33.6412061, 72.9955923, 0.9999952, 7.335434E-05, -0.0001772955, -0.0030736
 95493454, 0.01, -0.02, 359.64, 580.83, 33.6412061, 72.9955923, 0.9999952, 9.447441E-05, -0.0002088605, -0.003088968
 95593414, 0.01, -0.02, 359.64, 581.06, 33.6412061, 72.9955923, 0.9999952, 0.0001070912, -0.0002071809, -0.00310284
 95693374, 0.01, -0.02, 359.64, 581.3, 33.6412061, 72.9955923, 0.9999951, 8.726028E-05, -0.0002223144, -0.003115063
 95793334, 0.01, -0.02, 359.64, 581.54, 33.6412061, 72.9955923, 0.9999951, 0.0001326433, -0.0001965835, -0.003120852
 95893294, 0.01, -0.02, 359.64, 581.78, 33.6412061, 72.9955923, 0.9999951, 0.0001411208, -0.000221881, -0.003121091
 95994087, 0.01, -0.01, 359.64, 582.01, 33.6412061, 72.9955923, 0.9999951, 0.0001136617, -0.0001695592, -0.003116439
 96094047, 0, -0.01, 359.64, 582.26, 33.6412061, 72.9955923, 0.9999951, 4.632202E-05, -0.0001575684, -0.003113299
 96194007, 0, -0.01, 359.64, 582.5, 33.6412061, 72.9955923, 0.9999952, 4.185879E-05, -0.0001431904, -0.00311137
 96293967, 0, -0.01, 359.64, 582.74, 33.6412061, 72.9955923, 0.9999952, 8.062029E-05, -8.945673E-05, -0.003108512
 96393927, 0.01, -0.01, 359.64, 582.99, 33.6412061, 72.9955923, 0.9999952, 0.0001000644, -0.000106388, -0.003100585
 96493887, 0.01, -0.01, 359.64, 583.23, 33.6412061, 72.9955923, 0.9999952, 0.0001256381, -9.370679E-05, -0.003092382
 96593847, 0.01, 0, 359.64, 583.47, 33.6412061, 72.9955923, 0.9999952, 0.0001551417, -5.475914E-05, -0.003091259
 96693807, 0.02, 0, 359.64, 583.72, 33.6412061, 72.9955923, 0.9999952, 0.0001799716, -1.839703E-05, -0.003093655
 96793767, 0.02, 0, 359.64, 583.95, 33.6412061, 72.9955923, 0.9999952, 0.0001998644, 1.543623E-05, -0.003096114
 96893727, 0.01, 0, 359.64, 584.19, 33.6412061, 72.9955923, 0.9999952, 0.0001740186, 4.705328E-05, -0.003099656
 96993687, 0.01, 0, 359.64, 584.43, 33.6412061, 72.9955923, 0.9999952, 0.000120342, 2.333735E-05, -0.003101629
 97093647, 0, -0.01, 359.64, 584.67, 33.6412061, 72.9955923, 0.9999952, -6.107713E-05, -0.0001288015, -0.003103904
 97193607, 0, -0.01, 359.64, 584.9, 33.6412061, 72.9955923, 0.9999952, -4.684225E-05, -0.0001150638, -0.003105788
 97293567, 0, 0, 359.64, 585.13, 33.6412061, 72.9955923, 0.9999952, 4.026297E-05, -2.699231E-05, -0.00310573
 97393527, 0, 0, 359.64, 585.37, 33.6412061, 72.9955923, 0.9999952, 2.555861E-05, -3.995106E-05, -0.003106303
 97493487, 0, -0.01, 359.64, 585.6, 33.6412061, 72.9955923, 0.9999951, 2.834324E-05, -0.000121412, -0.003115122
 97593447, 0, -0.01, 359.64, 585.84, 33.6412061, 72.9955923, 0.9999951, 6.361432E-05, -0.0001400816, -0.003130104
 97693407, 0, 0, 359.63, 586.07, 33.6412061, 72.9955923, 0.9999951, 6.738475E-05, -5.417584E-05, -0.003151475
 97793367, 0.01, 0, 359.63, 586.31, 33.6412061, 72.9955923, 0.9999949, 9.901834E-05, -1.33808E-05, -0.003171965
 97893327, 0, 0, 359.63, 586.54, 33.6412061, 72.9955923, 0.9999949, 8.257406E-05, -2.789134E-05, -0.003195104
 97993287, 0.01, 0, 359.63, 586.77, 33.6412061, 72.9955923, 0.9999948, 0.0001131097, -4.162375E-05, -0.003219503
 98094080, 0.01, 0, 359.62, 587.01, 33.6412061, 72.9955923, 0.9999947, 0.0001418815, -5.4592E-05, -0.003243963
 98194040, 0.01, 0, 359.62, 587.25, 33.6412061, 72.9955923, 0.9999946, 0.0001656469, -6.662792E-05, -0.003268009
 98294000, 0, 0, 359.62, 587.48, 33.6412061, 72.9955923, 0.9999946, 2.477542E-06, -7.729993E-05, -0.003287219
 98393960, 0, 0, 359.62, 587.72, 33.6412061, 72.9955923, 0.9999945, -5.777355E-05, -3.992104E-05, -0.003305115
 98493920, 0, 0, 359.61, 587.95, 33.6412061, 72.9955923, 0.9999945, -5.251055E-05, 2.137526E-05, -0.003320663
 98593880, 0, 0.01, 359.62, 588.19, 33.6412061, 72.9955923, 0.9999945, 7.200089E-06, 0.0001481647, -0.003316178
 98693840, 0, 0, 359.62, 588.42, 33.6412061, 72.9955923, 0.9999945, 5.827316E-05, 8.266001E-05, -0.00331182
 98793800, 0, 0, 359.62, 588.66, 33.6412061, 72.9955923, 0.9999946, 6.205949E-05, 7.676342E-05, -0.003289306
 98893760, 0, 0, 359.62, 588.89, 33.6412061, 72.9955925, 0.9999948, 3.833682E-05, 5.611901E-05, -0.003245312
 98993720, 0, 0, 359.63, 589.13, 33.6412061, 72.9955925, 0.9999949, 5.341138E-05, 4.980608E-05, -0.003191248
 99093680, 0, 0, 359.64, 589.37, 33.6412061, 72.9955925, 0.9999951, 1.565067E-05, 5.231108E-05, -0.00313923
 99193640, 0, 0, 359.64, 589.6, 33.6412061, 72.9955925, 0.9999951, 3.257452E-06, 4.163881E-05, -0.003121447
 99293600, 0, 0, 359.64, 589.84, 33.6412061, 72.9955925, 0.9999951, -8.314467E-06, 9.556833E-06, -0.003125618
 99393560, -0.01, 0, 359.64, 590.08, 33.6412061, 72.9955925, 0.9999951, -9.628852E-05, -2.260078E-05, -0.003135287
 99493520, -0.02, 0, 359.63, 590.31, 33.6412061, 72.9955925, 0.999995, -0.0002270256, -2.746098E-05, -0.003158252
 99593480, -0.03, 0, 359.63, 590.55, 33.6412061, 72.9955925, 0.9999949, -0.00026227, -9.939268E-06, -0.003181824
 99693440, -0.03, 0, 359.63, 590.79, 33.6412061, 72.9955925, 0.9999948, -0.0003056797, -3.079694E-05, -0.003217671
 99793400, -0.03, 0, 359.62, 591.02, 33.6412061, 72.9955925, 0.9999946, -0.0003440065, 3.130308E-06, -0.003255073
 99893360, -0.04, 0, 359.62, 591.26, 33.6412061, 72.9955925, 0.9999945, -0.0003796941, 3.471536E-05, -0.003292257
 99993320, -0.04, 0, 359.61, 591.5, 33.6412061, 72.9955925, 0.9999943, -0.0003985274, 7.097915E-06, -0.003328544
 100093280, -0.04, -0.01, 359.61, 591.73, 33.6412061, 72.9955925, 0.9999943, -0.0003493917, -9.226663E-05, -0.003361156
 100194073, -0.03, -0.01, 359.61, 591.97, 33.6412061, 72.9955925, 0.9999942, -0.0003177484, -0.0001054841, -0.003394757
 100294033, -0.03, -0.01, 359.6, 592.21, 33.6412061, 72.9955925, 0.999994, -0.0003014622, -8.977629E-05, -0.003429084
 100393993, -0.03, -0.01, 359.6, 592.45, 33.6412061, 72.9955925, 0.999994, -0.0002771666, -0.0001237619, -0.003461613
 100493953, -0.03, -0.01, 359.59, 592.68, 33.6412061, 72.9955925, 0.9999939, -0.0002677988, -0.0001236103, -0.003493097
 100593913, -0.03, -0.01, 359.59, 592.92, 33.6412061, 72.9955925, 0.9999937, -0.0002746825, -0.0001208106, -0.003523488
 100693873, -0.02, -0.01, 359.59, 593.16, 33.6412061, 72.9955925, 0.9999937, -0.000251196, -0.0001185003, -0.003552487
 100793833, -0.02, -0.01, 359.58, 593.4, 33.6412061, 72.9955925, 0.9999936, -0.0002441996, -0.0001101162, -0.003580873
 100893793, -0.02, 0, 359.58, 593.64, 33.6412061, 72.9955925, 0.9999934, -0.0002120597, -6.877517E-05, -0.003604345
 100993753, -0.02, 0, 359.58, 593.87, 33.6412061, 72.9955925, 0.9999934, -0.0001782068, -8.154296E-05, -0.003624633
 101093713, -0.01, 0, 359.58, 594.11, 33.6412061, 72.9955925, 0.9999933, -0.0001536253, -4.163678E-05, -0.003640725
 101193673, -0.01, 0, 359.58, 594.35, 33.6412061, 72.9955925, 0.9999933, -0.000122996, -2.203528E-05, -0.00365315
 101293633, -0.01, 0, 359.58, 594.59, 33.6412061, 72.9955925, 0.9999933, -0.0001029312, -3.008256E-05, -0.003661728
 101393593, -0.01, 0, 359.58, 594.83, 33.6412061, 72.9955925, 0.9999933, -0.000115211, 1.918748E-05, -0.00366229
 101493553, -0.01, 0, 359.58, 595.07, 33.6412061, 72.9955925, 0.9999933, -9.166997E-05, 5.817596E-05, -0.003662352
 101593513, 0, 0, 359.58, 595.31, 33.6412061, 72.9955925, 0.9999933, -8.162997E-05, 5.092158E-05, -0.003664996
 101693473, -0.01, 0, 359.57, 595.54, 33.6412061, 72.9955925, 0.9999933, -0.000116804, 1.967191E-06, -0.003668412
 101793433, -0.01, 0, 359.57, 595.78, 33.6412061, 72.9955925, 0.9999932, -0.0001066583, 1.244045E-05, -0.00367858
 101893393, -0.01, 0, 359.57, 596.02, 33.6412061, 72.9955925, 0.9999931, -0.000122724, 2.832077E-05, -0.003699886
 101993353, -0.01, 0, 359.57, 596.26, 33.6412061, 72.9955925, 0.999993, -9.38991E-05, 4.782225E-05, -0.003728964
 102093313, -0.01, 0, 359.57, 596.5, 33.6412061, 72.9955925, 0.999993, -0.0001099071, 5.529208E-05, -0.003752328
 102193273, -0.01, 0, 359.56, 596.74, 33.6412061, 72.9955925, 0.9999929, -9.711016E-05, 3.729424E-05, -0.003769992
 102294066, 0, 0, 359.56, 596.98, 33.6412061, 72.9955925, 0.9999929, -7.674591E-05, 7.740105E-06, -0.003764917
 102394026, -0.01, 0, 359.57, 597.22, 33.6412061, 72.9955925, 0.999993, -8.712185E-05, 4.611089E-05, -0.003751549
 102493986, 0, 0, 359.56, 597.46, 33.6412061, 72.9955925, 0.9999929, -5.433217E-05, 6.039352E-05, -0.003770367
 102593946, 0, 0, 359.56, 597.69, 33.6412061, 72.9955925, 0.9999927, -5.533901E-05, 3.878446E-05, -0.003802504
 102693906, -0.01, 0, 359.56, 597.93, 33.6412061, 72.9955925, 0.9999926, -8.838974E-05, -3.306201E-05, -0.003838838
 102793866, 0, 0, 359.55, 598.17, 33.6412061, 72.9955925, 0.9999925, -6.078491E-05, 6.748554E-06, -0.003854555
 102893826, 0, 0, 359.56, 598.41, 33.6412061, 72.9955923, 0.9999926, -2.544659E-05, 1.32407E-05, -0.003837766
 102993786, 0, 0, 359.56, 598.65, 33.6412061, 72.9955923, 0.9999927, -3.111166E-05, -3.274875E-06, -0.003808347
 103093746, 0, 0, 359.56, 598.89, 33.6412061, 72.9955923, 0.9999928, 8.861962E-06, 2.707943E-05, -0.003782184
 103193706, 0, 0, 359.56, 599.12, 33.6412061, 72.9955923, 0.9999928, 4.377815E-05, 2.160818E-05, -0.003780409
 103293666, 0.01, 0, 359.56, 599.36, 33.6412061, 72.9955923, 0.9999928, 0.0001198757, 1.270325E-05, -0.003792816
 103393626, 0.01, 0, 359.56, 599.6, 33.6412061, 72.9955923, 0.9999927, 0.000172257, 7.430335E-06, -0.003823088
 103493586, 0.02, 0, 359.55, 599.84, 33.6412061, 72.9955923, 0.9999925, 0.0002214971, -5.229854E-06, -0.00385973
 103593546, 0.03, 0, 359.55, 600.08, 33.6412061, 72.9955923, 0.9999924, 0.0002817739, -3.078307E-06, -0.003896325
 103693506, 0.03, 0, 359.54, 600.31, 33.6412061, 72.9955923, 0.9999922, 0.000325672, 7.754884E-06, -0.003930528
 103793466, 0.03, 0, 359.54, 600.55, 33.6412061, 72.9955923, 0.9999921, 0.0003095022, -9.564589E-06, -0.003959185
 103893426, 0.03, 0, 359.54, 600.79, 33.6412061, 72.9955923, 0.999992, 0.000319968, -3.799905E-05, -0.003985548
 103993386, 0.03, 0, 359.54, 601.03, 33.6412061, 72.9955923, 0.999992, 0.0003456131, -4.060678E-05, -0.004000402
 104093346, 0.03, 0, 359.54, 601.27, 33.6412061, 72.9955923, 0.9999919, 0.0003350202, -3.511563E-05, -0.004007527
 104193306, 0.03, 0, 359.54, 601.51, 33.6412061, 72.9955923, 0.9999919, 0.000332815, -6.542741E-05, -0.004011441
 104293266, 0.03, 0, 359.54, 601.74, 33.6412061, 72.9955923, 0.9999919, 0.0003224726, -6.478601E-05, -0.004010033
 104394059, 0.03, 0, 359.54, 601.98, 33.6412061, 72.9955923, 0.999992, 0.0002966181, -4.260425E-05, -0.004001575
 104494019, 0.02, 0, 359.54, 602.22, 33.6412061, 72.9955923, 0.999992, 0.0002586711, -4.208627E-05, -0.003990072
 104593979, 0.03, 0, 359.54, 602.46, 33.6412061, 72.9955923, 0.9999921, 0.0002828413, -2.046569E-05, -0.003976322
 104693939, 0.02, 0, 359.54, 602.7, 33.6412061, 72.9955923, 0.9999921, 0.000253874, 3.050053E-06, -0.003960282
 104793899, 0.02, 0, 359.54, 602.94, 33.6412061, 72.9955923, 0.9999922, 0.0002186153, -1.61901E-05, -0.003944632
 104893859, 0.02, 0, 359.54, 603.18, 33.6412061, 72.9955923, 0.9999923, 0.0001871517, -4.244766E-06, -0.003930032
 104993819, 0.02, 0, 359.55, 603.41, 33.6412061, 72.9955923, 0.9999923, 0.0001798645, 2.496998E-05, -0.003917362
 105093779, 0.01, 0, 359.55, 603.65, 33.6412061, 72.9955923, 0.9999924, 0.0001290396, 1.955752E-05, -0.003905119
 105193739, 0.01, 0, 359.55, 603.89, 33.6412061, 72.9955923, 0.9999924, 0.0001094619, 8.765654E-06, -0.003893283
 105293699, 0.01, 0, 359.55, 604.13, 33.6412061, 72.9955923, 0.9999924, 0.0001104037, 2.263572E-05, -0.003881682
 105393659, 0.01, 0, 359.55, 604.37, 33.6412061, 72.9955923, 0.9999925, 0.0001009512, 9.746029E-06, -0.003869922
 105493619, 0.01, 0, 359.55, 604.6, 33.6412061, 72.9955923, 0.9999925, 0.0001009674, 7.517073E-06, -0.003857821
 105593579, 0.01, 0, 359.55, 604.84, 33.6412061, 72.9955923, 0.9999926, 9.686431E-05, 1.49507E-05, -0.00384481
 105693539, 0.01, 0, 359.56, 605.08, 33.6412061, 72.9955923, 0.9999926, 0.0001102994, 3.416725E-05, -0.003838641
 105793499, 0.01, 0, 359.55, 605.32, 33.6412061, 72.9955923, 0.9999926, 8.775686E-05, 1.005896E-05, -0.003842281
 105893459, 0, 0, 359.55, 605.56, 33.6412061, 72.9955923, 0.9999925, 7.496206E-05, 3.540557E-05, -0.003854934
 105993419, 0.01, 0, 359.55, 605.79, 33.6412061, 72.9955923, 0.9999925, 0.0001092001, 2.660787E-05, -0.003870003
 106093379, 0.01, 0, 359.55, 606.03, 33.6412061, 72.9955923, 0.9999924, 9.613464E-05, 3.45094E-05, -0.003884623
 106193339, 0.01, 0, 359.55, 606.27, 33.6412061, 72.9955923, 0.9999924, 0.0001512835, 3.581675E-05, -0.003897679
 106293299, 0.01, 0, 359.55, 606.51, 33.6412061, 72.9955923, 0.9999923, 0.0001268519, 3.514905E-05, -0.003916425
 106394092, 0, 0, 359.54, 606.75, 33.6412061, 72.9955923, 0.9999923, 6.615107E-05, 4.164493E-05, -0.003929115
 106494052, 0, 0, 359.54, 606.99, 33.6412061, 72.9955923, 0.9999923, 4.258893E-05, 1.724268E-05, -0.003930303
 106594012, 0, 0, 359.55, 607.23, 33.6412061, 72.9955923, 0.9999923, -2.792316E-06, -2.460227E-05, -0.003924664
 106693972, 0, 0, 359.55, 607.46, 33.6412061, 72.9955923, 0.9999924, 4.651101E-06, 2.86338E-05, -0.003910501
 106793932, 0, 0, 359.55, 607.7, 33.6412061, 72.9955923, 0.9999924, 4.725267E-05, 5.477833E-05, -0.003892093
 106893892, 0, 0, 359.55, 607.94, 33.6412061, 72.9955923, 0.9999925, 4.941631E-05, 2.459009E-05, -0.003874491
 106993852, 0, 0, 359.55, 608.18, 33.6412061, 72.9955923, 0.9999925, 5.790116E-05, 2.160863E-05, -0.003850767
 107093812, 0, 0, 359.56, 608.42, 33.6412061, 72.9955923, 0.9999927, 4.37403E-05, -1.574918E-06, -0.003825596
 107193772, 0, 0, 359.56, 608.65, 33.6412061, 72.9955923, 0.9999928, 6.997927E-05, 4.723728E-06, -0.003801815
 107293732, 0, 0, 359.56, 608.89, 33.6412061, 72.9955923, 0.9999928, 7.040673E-05, -2.784815E-06, -0.003782635
 107393692, 0, 0, 359.56, 609.13, 33.6412061, 72.9955923, 0.9999929, 8.026125E-05, -5.008405E-06, -0.003769613
 107493652, 0, 0, 359.56, 609.37, 33.6412061, 72.9955925, 0.9999929, 6.572507E-05, 1.934479E-05, -0.00377039
 107593612, 0, 0, 359.56, 609.6, 33.6412061, 72.9955925, 0.9999928, 5.053194E-05, 5.054905E-05, -0.003800785
 107693572, 0, 0, 359.55, 609.84, 33.6412061, 72.9955925, 0.9999926, 2.078145E-05, 3.634932E-05, -0.003842221
 107793532, 0, 0, 359.55, 610.08, 33.6412061, 72.9955925, 0.9999925, -9.098897E-06, 2.382624E-05, -0.003868665
 107893492, 0, 0, 359.55, 610.32, 33.6412061, 72.9955925, 0.9999925, -4.793967E-05, 9.678023E-06, -0.003868177
 107993452, -0.01, 0, 359.56, 610.56, 33.6412061, 72.9955925, 0.9999926, -0.0001260027, 1.792071E-06, -0.003833773
 108093412, -0.02, 0, 359.56, 610.79, 33.6412061, 72.9955925, 0.9999928, -0.0001831879, -1.434092E-05, -0.003778543
 108193372, -0.02, 0, 359.57, 611.03, 33.6412061, 72.9955925, 0.999993, -0.000261478, -1.314941E-05, -0.003725885
 108293332, -0.03, 0, 359.57, 611.27, 33.6412061, 72.9955925, 0.9999931, -0.0003191436, -7.450623E-06, -0.003683625
 108393292, -0.03, 0, 359.58, 611.51, 33.6412061, 72.9955925, 0.9999933, -0.0003037098, 1.98488E-05, -0.0036544
 108494085, -0.03, 0, 359.58, 611.75, 33.6412061, 72.9955925, 0.9999933, -0.0003428527, 1.357509E-05, -0.003636718
 108594045, -0.03, 0, 359.58, 611.99, 33.6412061, 72.9955925, 0.9999934, -0.0003105566, 5.509418E-05, -0.003630966
 108694005, -0.03, 0, 359.58, 612.22, 33.6412061, 72.9955925, 0.9999933, -0.0003146664, 3.432856E-05, -0.003634181
 108793965, -0.03, 0, 359.58, 612.46, 33.6412061, 72.9955925, 0.9999933, -0.0003464957, 3.206828E-05, -0.003645858
 108893925, -0.03, 0, 359.58, 612.7, 33.6412061, 72.9955925, 0.9999932, -0.0003307502, 4.05243E-05, -0.003664728
 108993885, -0.03, 0, 359.57, 612.94, 33.6412061, 72.9955925, 0.9999931, -0.0002925973, 5.118858E-05, -0.003686438
 109093845, -0.02, 0, 359.57, 613.17, 33.6412061, 72.9955925, 0.9999931, -0.0002514134, 5.56928E-05, -0.00371294
 109193805, -0.02, 0, 359.57, 613.41, 33.6412061, 72.9955925, 0.999993, -0.0002260483, 8.471561E-05, -0.003745307
 109293765, -0.02, 0, 359.56, 613.65, 33.6412061, 72.9955925, 0.9999928, -0.000202806, 3.459116E-05, -0.003777249
 109393725, -0.02, 0, 359.56, 613.88, 33.6412061, 72.9955925, 0.9999927, -0.0002045499, 4.505242E-05, -0.003802053
 109493685, -0.02, 0, 359.56, 614.12, 33.6412061, 72.9955925, 0.9999927, -0.0002094871, 2.967676E-05, -0.003816179
 109593645, -0.02, 0, 359.55, 614.36, 33.6412061, 72.9955925, 0.9999926, -0.0001786475, -1.306265E-05, -0.003844351
 109693605, -0.01, 0, 359.55, 614.6, 33.6412061, 72.9955925, 0.9999924, -0.000154651, 2.560445E-06, -0.003886802
 109793565, 0, 0, 359.55, 614.83, 33.6412061, 72.9955925, 0.9999923, 1.004081E-05, 4.90012E-05, -0.003923539
 109893525, 0, 0, 359.54, 615.07, 33.6412061, 72.9955925, 0.9999922, 3.08297E-05, 3.916023E-05, -0.00395535
 109993485, 0, 0, 359.54, 615.31, 33.6412061, 72.9955925, 0.9999921, 5.550781E-05, 5.831368E-05, -0.003979922
 110093445, 0, 0, 359.54, 615.54, 33.6412061, 72.9955925, 0.999992, -7.665469E-05, 3.696553E-05, -0.004000755
 110193405, -0.02, 0, 359.54, 615.78, 33.6412061, 72.9955925, 0.999992, -0.0002014304, 1.168379E-05, -0.003993229
 110293365, -0.02, 0, 359.54, 616.02, 33.6412061, 72.9955925, 0.9999921, -0.0001934103, 1.73652E-05, -0.003957916
 110393325, -0.01, 0.01, 359.54, 616.26, 33.6412061, 72.9955925, 0.9999923, -0.0001370554, 0.0001013874, -0.003938122
 110493285, -0.01, 0, 359.55, 616.49, 33.6412061, 72.9955925, 0.9999923, -0.000140385, 8.742876E-05, -0.00391283
 110594078, -0.01, 0, 359.55, 616.73, 33.6412061, 72.9955925, 0.9999924, -0.0001262452, 7.281676E-05, -0.003888076
 110694038, -0.01, 0, 359.55, 616.97, 33.6412061, 72.9955925, 0.9999924, -0.0001133626, 3.987185E-05, -0.003882642
 110793998, 0, 0, 359.55, 617.21, 33.6412061, 72.9955925, 0.9999924, -8.617465E-05, 7.990509E-05, -0.00390081
 110893958, 0, 0, 359.55, 617.44, 33.6412061, 72.9955925, 0.9999923, -6.960399E-05, 3.652705E-05, -0.003915854
 110993918, 0, 0, 359.55, 617.68, 33.6412061, 72.9955925, 0.9999924, -5.407716E-05, 1.285715E-06, -0.003908363
 111093878, 0, 0, 359.55, 617.92, 33.6412061, 72.9955925, 0.9999924, -4.302587E-05, -4.784345E-05, -0.003889864
 111193838, 0, 0, 359.55, 618.16, 33.6412061, 72.9955925, 0.9999925, 3.276467E-05, 4.403662E-05, -0.003870131
 111293798, 0, 0, 359.55, 618.39, 33.6412061, 72.9955925, 0.9999925, -2.005168E-05, 5.519665E-05, -0.00385199
 111393758, -0.01, 0.01, 359.56, 618.63, 33.6412061, 72.9955925, 0.9999926, -0.0001031445, 9.356824E-05, -0.003835219
 111493718, -0.01, 0, 359.56, 618.87, 33.6412061, 72.9955925, 0.9999927, -0.0001712154, -6.278428E-06, -0.003815407
 111593678, -0.01, -0.01, 359.56, 619.1, 33.6412061, 72.9955925, 0.9999928, -0.0001009097, -0.0001080604, -0.003798835
 111693638, 0, -0.02, 359.56, 619.34, 33.6412061, 72.9955925, 0.9999928, -3.529177E-05, -0.0002030322, -0.003782359
 111793598, 0, -0.03, 359.56, 619.58, 33.6412061, 72.9955925, 0.9999928, 2.602204E-05, -0.0002739703, -0.003766407
 111893558, 0, -0.01, 359.56, 619.82, 33.6412061, 72.9955923, 0.9999929, 8.392148E-05, -0.0001620399, -0.003758246
 111993518, 0, 0, 359.56, 620.05, 33.6412061, 72.9955923, 0.9999928, 8.695211E-05, 1.702152E-05, -0.003783313
 112093478, 0, 0, 359.56, 620.29, 33.6412061, 72.9955923, 0.9999926, -9.940843E-06, 7.837262E-05, -0.003838452
 112193438, 0, 0.01, 359.55, 620.53, 33.6412061, 72.9955923, 0.9999923, 5.303088E-05, 0.0001115971, -0.003919497
 112293398, 0.01, 0, 359.54, 620.77, 33.6412061, 72.9955923, 0.999992, 0.0001061581, 4.947151E-05, -0.004006846
 112393358, 0.02, 0, 359.53, 621, 33.6412061, 72.9955923, 0.9999917, 0.000201943, -8.691938E-06, -0.004066813
 112493318, 0.02, 0, 359.53, 621.24, 33.6412061, 72.9955923, 0.9999915, 0.0002392164, -6.277284E-05, -0.004098276
 112593278, 0.03, -0.01, 359.52, 621.48, 33.6412061, 72.9955923, 0.9999915, 0.0002908126, -0.0001025958, -0.004104289
 112694071, 0.03, 0, 359.53, 621.72, 33.6412061, 72.9955923, 0.9999916, 0.0003112103, 4.251462E-05, -0.004097002
 112794031, 0.03, 0.02, 359.53, 621.96, 33.6412061, 72.9955923, 0.9999917, 0.0003276343, 0.0001766206, -0.004063472
 112893991, 0.04, 0.03, 359.53, 622.19, 33.6412061, 72.9955923, 0.9999918, 0.0003559558, 0.0002656956, -0.0040279
 112993951, 0.03, 0.03, 359.54, 622.43, 33.6412061, 72.9955923, 0.999992, 0.0003448826, 0.0002619137, -0.003972358
 113093911, 0.02, 0.01, 359.55, 622.67, 33.6412061, 72.9955923, 0.9999923, 0.0002459447, 9.853602E-05, -0.003903699
 113193871, 0.02, 0, 359.56, 622.91, 33.6412061, 72.9955923, 0.9999926, 0.000203179, -5.070618E-06, -0.003830097
 113293831, 0.02, 0, 359.56, 623.14, 33.6412061, 72.9955923, 0.9999928, 0.0002278201, 2.779401E-05, -0.003769228
 113393791, 0.03, 0, 359.57, 623.38, 33.6412061, 72.9955923, 0.999993, 0.0003042037, 7.692591E-05, -0.003735709
 113493751, 0.03, 0, 359.57, 623.62, 33.6412061, 72.9955923, 0.999993, 0.0002794501, 7.955374E-05, -0.003726353
 113593711, 0.02, 0, 359.57, 623.86, 33.6412061, 72.9955923, 0.999993, 0.0002439779, 4.177244E-05, -0.003742554
 113693671, 0.02, 0, 359.56, 624.09, 33.6412061, 72.9955923, 0.9999928, 0.0002501167, 2.846519E-05, -0.003766409
 113793631, 0.03, 0, 359.56, 624.33, 33.6412061, 72.9955923, 0.9999927, 0.000289739, 5.184999E-05, -0.003790238
 113893591, 0.02, 0, 359.56, 624.56, 33.6412061, 72.9955923, 0.9999927, 0.0002547766, 5.337669E-05, -0.003814755
 113993551, 0.02, 0, 359.56, 624.79, 33.6412061, 72.9955923, 0.9999926, 0.0002489495, 3.51263E-05, -0.003836553
 114093511, 0.01, 0, 359.55, 625.02, 33.6412061, 72.9955923, 0.9999925, 0.0001698031, 2.00117E-05, -0.003855258
 114193471, 0.02, 0, 359.55, 625.24, 33.6412061, 72.9955923, 0.9999925, 0.0001953256, 5.250022E-05, -0.003867141
 114293431, 0.02, 0, 359.55, 625.45, 33.6412061, 72.9955923, 0.9999925, 0.0001988991, -4.855802E-05, -0.003864605
 114393391, 0.03, 0, 359.55, 625.66, 33.6412061, 72.9955923, 0.9999925, 0.0002701761, -4.557259E-05, -0.003850445
 114493351, 0.02, 0, 359.56, 625.86, 33.6412061, 72.9955923, 0.9999926, 0.000246848, -6.549116E-05, -0.003825975
 114593311, 0.02, -0.01, 359.56, 626.06, 33.6412061, 72.9955923, 0.9999928, 0.0001816235, -9.532998E-05, -0.003795191
 114693271, 0, 0, 359.56, 626.25, 33.6412061, 72.9955923, 0.9999929, 4.595785E-05, -5.053432E-05, -0.003760602
 114794064, 0.01, 0, 359.57, 626.44, 33.6412061, 72.9955923, 0.9999931, 9.879596E-05, -1.083331E-06, -0.003720911
 114894024, 0.01, 0, 359.57, 626.62, 33.6412061, 72.9955923, 0.9999932, 0.0001107454, 2.126874E-05, -0.003676273
 114993984, 0.02, 0, 359.58, 626.8, 33.6412061, 72.9955923, 0.9999934, 0.00017889, 6.767989E-05, -0.003627888
 115093944, 0, 0, 359.59, 626.97, 33.6412061, 72.9955923, 0.9999936, 8.617093E-05, -5.315291E-06, -0.003577158
 115193904, 0.01, 0, 359.59, 627.13, 33.6412061, 72.9955923, 0.9999937, 0.0001080446, 9.552613E-07, -0.003532131
 115293864, 0.01, 0, 359.59, 627.29, 33.6412061, 72.9955923, 0.9999939, 0.0001234325, 4.784721E-05, -0.003494495
 115393824, 0.01, 0, 359.6, 627.44, 33.6412061, 72.9955923, 0.999994, 0.0001438776, 7.434454E-05, -0.003461338
 115493784, 0.01, 0.01, 359.6, 627.59, 33.6412061, 72.9955923, 0.9999941, 0.0001516679, 0.0001437831, -0.003432583
 115593744, 0.01, 0.02, 359.6, 627.74, 33.6412061, 72.9955923, 0.9999942, 0.0001742141, 0.0002095917, -0.003408393
 115693704, 0.01, 0.01, 359.61, 627.87, 33.6412061, 72.9955925, 0.9999942, 0.0001286079, 0.0001481226, -0.003397325
 115793664, 0, 0.01, 359.61, 628.01, 33.6412061, 72.9955925, 0.9999942, 7.46459E-05, 0.0001388306, -0.003396885
 115893624, 0, 0, 359.6, 628.14, 33.6412061, 72.9955925, 0.9999942, 1.316968E-05, -3.143168E-06, -0.003410301
 115993584, 0, 0, 359.6, 628.26, 33.6412061, 72.9955925, 0.9999941, 1.985678E-06, -2.16031E-05, -0.003428183
 116093544, 0, 0, 359.6, 628.38, 33.6412061, 72.9955925, 0.999994, -2.853146E-05, 3.530522E-05, -0.003450828
 116193504, -0.01, 0, 359.6, 628.49, 33.6412061, 72.9955925, 0.999994, -0.0001465176, 1.75399E-05, -0.003468424
 116293464, -0.02, 0, 359.6, 628.6, 33.6412061, 72.9955925, 0.9999939, -0.0001875288, 5.553484E-05, -0.003486214
 116393424, -0.02, 0.01, 359.59, 628.7, 33.6412061, 72.9955925, 0.9999938, -0.0002021918, 9.922812E-05, -0.003504636
 116493384, -0.02, 0, 359.59, 628.8, 33.6412061, 72.9955925, 0.9999937, -0.0002241229, 3.602851E-05, -0.003518804
 116593344, -0.02, 0, 359.59, 628.89, 33.6412061, 72.9955925, 0.9999937, -0.0002579517, -3.649542E-05, -0.003529089
 116693304, -0.05, -0.01, 359.59, 628.97, 33.6412061, 72.9955925, 0.9999936, -0.0004445211, -0.0001428688, -0.003535822
 116793264, -0.05, -0.01, 359.59, 629.05, 33.6412061, 72.9955925, 0.9999936, -0.0005031178, -0.0001072137, -0.003542579
 116894057, -0.05, 0, 359.59, 629.13, 33.6412061, 72.9955925, 0.9999936, -0.0004855547, -2.492211E-05, -0.003547892
 116994017, -0.04, 0, 359.59, 629.2, 33.6412061, 72.9955925, 0.9999936, -0.0003899469, 6.203586E-05, -0.003547471
 117093977, -0.04, 0, 359.59, 629.26, 33.6412061, 72.9955925, 0.9999936, -0.0004155452, 7.155338E-05, -0.003542781
 117193937, -0.05, 0, 359.59, 629.32, 33.6412061, 72.9955925, 0.9999936, -0.0004391104, 7.577452E-05, -0.003536186
 117293897, -0.04, 0.01, 359.59, 629.38, 33.6412061, 72.9955925, 0.9999937, -0.0004026728, 9.622869E-05, -0.003525412
 117393857, -0.03, 0.01, 359.59, 629.42, 33.6412061, 72.9955925, 0.9999937, -0.000313847, 9.851855E-05, -0.003516693
 117493817, -0.02, 0, 359.59, 629.46, 33.6412061, 72.9955925, 0.9999938, -0.0001766135, 1.186408E-06, -0.003506872
 117593777, 0, 0, 359.59, 629.5, 33.6412061, 72.9955925, 0.9999939, -7.477962E-05, -1.041896E-05, -0.003498314
 117693737, 0, 0, 359.6, 629.53, 33.6412061, 72.9955925, 0.9999939, -5.510041E-05, 1.106384E-05, -0.003490082
 117793697, 0, 0, 359.6, 629.55, 33.6412061, 72.9955925, 0.9999939, 5.614989E-06, 4.057515E-05, -0.003482859
 117893657, -0.37, -1, 359.6, 629.57, 33.6412061, 72.9955925, 0.99995, -0.003282578, -0.008779985, -0.003478208
 117993617, -1.04, -2.84, 359.62, 629.58, 33.6412061, 72.9955925, 0.9996452, -0.009194229, -0.02475301, -0.003476852
 118093577, -1.53, -4.18, 359.65, 629.59, 33.6412061, 72.9955925, 0.9992359, -0.01353671, -0.03650117, -0.003483253
 118193537, -1.83, -4.99, 359.67, 629.6, 33.6412062, 72.9955925, 0.9989161, -0.01610361, -0.04353375, -0.003491333
 118293497, -2.01, -5.52, 359.68, 629.61, 33.6412064, 72.9955923, 0.9986763, -0.01771964, -0.04815662, -0.003552951
 118393457, -2.14, -5.94, 359.54, 629.62, 33.6412067, 72.9955923, 0.99847, -0.01886044, -0.05174877, -0.004893538
 118493417, -2.17, -6.31, 358.87, 629.63, 33.641207, 72.9955921, 0.9982452, -0.01946497, -0.05486235, -0.01085513
 118593377, -2.06, -6.68, 357.25, 629.64, 33.6412074, 72.9955918, 0.9978228, -0.0193962, -0.05787684, -0.02497383
 118693337, -1.8, -7.05, 354.66, 629.64, 33.641208, 72.9955916, 0.9968547, -0.01857665, -0.06070906, -0.04743405
 118793297, -1.41, -7.38, 351.37, 629.65, 33.6412086, 72.9955914, 0.9949625, -0.01709919, -0.06326441, -0.07586084
 118894090, -0.91, -7.65, 347.63, 629.65, 33.6412093, 72.9955911, 0.9918805, -0.01511107, -0.06548348, -0.1079661
 118994050, -0.36, -7.84, 343.78, 629.66, 33.64121, 72.9955908, 0.9876493, -0.01282769, -0.06722972, -0.1409413
 119094010, 0.17, -7.97, 340.02, 629.66, 33.641211, 72.9955904, 0.9824818, -0.01053598, -0.06876564, -0.1728868
 119193970, 0.69, -8.06, 336.6, 629.66, 33.6412119, 72.9955899, 0.9768814, -0.008366883, -0.07004537, -0.2018077
 119293930, 1.12, -8.09, 333.71, 629.66, 33.6412131, 72.9955895, 0.9714981, -0.006471706, -0.07092734, -0.2260947
 119393890, 1.47, -8.11, 331.5, 629.67, 33.6412142, 72.995589, 0.9669548, -0.004976057, -0.07170323, -0.2446061
 119493850, 1.71, -8.13, 330.03, 629.67, 33.6412155, 72.9955885, 0.9637456, -0.003938564, -0.07233907, -0.2567996
 119593810, 1.83, -8.17, 329.32, 629.67, 33.6412167, 72.9955878, 0.9621143, -0.003419862, -0.07297925, -0.2626753
 119693770, 1.86, -8.24, 329.33, 629.67, 33.6412182, 72.9955873, 0.9620844, -0.003386921, -0.07361087, -0.2626094
 119793730, 1.78, -8.33, 329.97, 629.67, 33.6412197, 72.9955866, 0.9635007, -0.003777203, -0.07421917, -0.2571839
 119893690, 1.64, -8.45, 331.18, 629.67, 33.6412213, 72.995586, 0.9660801, -0.00450635, -0.07490276, -0.2471001
 119993650, 1.42, -8.58, 332.84, 629.67, 33.6412229, 72.9955854, 0.9694729, -0.005526304, -0.07567852, -0.2331619
 120093610, 1.15, -8.75, 334.85, 629.67, 33.6412246, 72.9955847, 0.9732935, -0.006786902, -0.07667897, -0.2162728
 120193570, 0.84, -8.92, 337.08, 629.66, 33.6412265, 72.9955839, 0.9771897, -0.008242143, -0.07774289, -0.1974551
 120293530, 0.51, -9.09, 339.4, 629.66, 33.6412283, 72.9955832, 0.9808421, -0.009790003, -0.07884014, -0.1778683
 120393490, 0.18, -9.27, 341.66, 629.66, 33.6412304, 72.9955824, 0.9840086, -0.01129699, -0.08006357, -0.1587112
 120493450, -0.11, -9.44, 343.73, 629.66, 33.6412324, 72.9955816, 0.9865662, -0.01262832, -0.08136685, -0.1410924
 120593410, -0.36, -9.62, 345.5, 629.66, 33.6412344, 72.9955808, 0.9884794, -0.01370861, -0.08282129, -0.1259409
 120693370, -0.56, -9.83, 346.91, 629.66, 33.6412367, 72.9955799, 0.9897698, -0.01460642, -0.08459156, -0.1139598
 120793330, -0.68, -10.05, 347.89, 629.66, 33.641239, 72.9955789, 0.990528, -0.01519037, -0.08647764, -0.1055706
 120893290, -0.73, -10.28, 348.43, 629.66, 33.6412413, 72.9955781, 0.9908252, -0.01539039, -0.0885658, -0.1009187
 120994083, -0.7, -10.54, 348.54, 629.65, 33.6412436, 72.9955772, 0.9907236, -0.01528774, -0.09081099, -0.09993238
 121094043, -0.6, -10.8, 348.26, 629.65, 33.6412462, 72.9955762, 0.9902765, -0.01488384, -0.0930992, -0.1022916
 121194003, -0.45, -11.09, 347.64, 629.65, 33.6412488, 72.9955751, 0.9894887, -0.01430142, -0.09570159, -0.1074653
 121293963, -0.23, -11.4, 346.77, 629.65, 33.6412514, 72.9955741, 0.9884033, -0.01351429, -0.09848257, -0.1147934
 121393923, 0.01, -11.7, 345.73, 629.65, 33.6412542, 72.9955732, 0.9870895, -0.01249343, -0.1011714, -0.1235419
 121493883, 0.3, -12.01, 344.6, 629.64, 33.6412569, 72.9955722, 0.9855752, -0.01139915, -0.1041053, -0.1329425
 121593843, 0.6, -12.33, 343.48, 629.64, 33.6412599, 72.995571, 0.9839688, -0.01022757, -0.1070926, -0.1422394
 121693803, 0.9, -12.65, 342.45, 629.64, 33.6412628, 72.99557, 0.9823779, -0.009083403, -0.1101278, -0.1507415
 121793763, 1.17, -12.97, 341.58, 629.64, 33.6412659, 72.9955689, 0.9809271, -0.007993325, -0.1131164, -0.1578698
 121893723, 1.42, -13.28, 340.92, 629.63, 33.641269, 72.9955678, 0.979717, -0.006961977, -0.1160951, -0.1631813
 121993683, 1.62, -13.59, 340.51, 629.63, 33.6412723, 72.9955667, 0.9788303, -0.006121092, -0.1190342, -0.1663869
 122093643, 1.77, -13.91, 340.37, 629.63, 33.6412756, 72.9955655, 0.9783146, -0.005491548, -0.1219402, -0.1673349
 122193603, 1.87, -14.27, 340.5, 629.62, 33.641279, 72.9955643, 0.9781384, -0.005011451, -0.1251725, -0.1659877
 122293563, 1.94, -14.62, 340.89, 629.62, 33.6412825, 72.9955633, 0.9783334, -0.004512988, -0.1282686, -0.1624517
 122393523, 1.97, -14.97, 341.51, 629.62, 33.6412861, 72.9955621, 0.9788256, -0.004056708, -0.1313123, -0.156975
 122493483, 1.95, -14.88, 342.35, 629.62, 33.6412898, 72.9955609, 0.9800341, -0.003174268, -0.1305729, -0.1499124
 122593443, 1.79, -12.26, 343.4, 629.61, 33.6412937, 72.9955598, 0.9839948, 3.757727E-05, -0.1079241, -0.1417977
 122693403, 1.69, -9.6, 344.53, 629.61, 33.6412975, 72.9955586, 0.9874867, 0.003305655, -0.08493239, -0.1328366
 122793363, 1.67, -7.9, 345.66, 629.61, 33.6413013, 72.9955574, 0.9898432, 0.005876085, -0.07023948, -0.12346
 122893323, 1.72, -6.8, 346.76, 629.6, 33.6413052, 72.9955564, 0.9915839, 0.008075982, -0.06064562, -0.1140979
 122993283, 1.8, -5.9, 347.82, 629.6, 33.641309, 72.9955552, 0.9930016, 0.01017609, -0.05290938, -0.1050943
 123094076, 1.92, -5.04, 348.81, 629.6, 33.6413127, 72.9955543, 0.9942045, 0.01240167, -0.04543817, -0.09663828
 123194036, 2.08, -4.19, 349.69, 629.59, 33.6413164, 72.9955533, 0.9951881, 0.01479745, -0.03811096, -0.08904643
 123293996, 2.26, -3.41, 350.47, 629.59, 33.64132, 72.9955523, 0.9959607, 0.01725662, -0.03135581, -0.08234952
 123393956, 2.48, -2.68, 351.15, 629.58, 33.6413236, 72.9955516, 0.9965565, 0.01977687, -0.02499945, -0.07654449
 123493916, 2.69, -1.97, 351.74, 629.58, 33.6413269, 72.9955508, 0.9970109, 0.02219996, -0.01891873, -0.07154313
 123593876, 2.92, -1.35, 352.25, 629.58, 33.6413304, 72.9955501, 0.9973437, 0.02464405, -0.01349306, -0.067203
 123693836, 3.16, -0.79, 352.71, 629.57, 33.6413336, 72.9955495, 0.9975888, 0.0271162, -0.008652377, -0.06329586
 123793796, 3.41, -0.26, 353.16, 629.57, 33.6413368, 72.995549, 0.9977785, 0.02961101, -0.004062878, -0.05953867
 123893756, 3.69, 0.21, 353.62, 629.57, 33.6413399, 72.9955485, 0.9979305, 0.03226371, 0.0001031544, -0.05562194
 123993716, 4, 0.65, 354.14, 629.56, 33.6413429, 72.995548, 0.9980611, 0.03516733, 0.003924808, -0.05120495
 124093676, 4.34, 1.03, 354.76, 629.56, 33.6413456, 72.9955478, 0.9981846, 0.03826163, 0.007310669, -0.0459352
 124193636, 4.74, 1.37, 355.53, 629.56, 33.6413485, 72.9955476, 0.9982907, 0.04186523, 0.01032515, -0.03945156
 124293596, 5.22, 1.64, 356.47, 629.55, 33.6413511, 72.9955475, 0.9983637, 0.04601132, 0.01296063, -0.03138521
 124393556, 5.81, 1.91, 357.64, 629.55, 33.6413536, 72.9955475, 0.9983462, 0.05103274, 0.01566875, -0.02133249
 124493516, 6.5, 2.42, 359.13, 629.55, 33.641356, 72.9955476, 0.9981301, 0.05684508, 0.0206927, -0.008759799
 124593476, 7.34, 3.03, 0.96, 629.55, 33.6413584, 72.9955478, 0.9975776, 0.06378019, 0.02693862, 0.006734289
 124693436, 8.38, 3.54, 3.2, 629.54, 33.6413607, 72.995548, 0.9965211, 0.07215678, 0.03290926, 0.02561332
 124793396, 9.71, 4.01, 5.93, 629.54, 33.6413627, 72.9955485, 0.994615, 0.08271178, 0.03920644, 0.04860776
 124893356, 11.4, 4.49, 9.29, 629.54, 33.6413646, 72.9955492, 0.9913342, 0.09577284, 0.04690938, 0.07670421
 124993316, 13.49, 5.08, 13.46, 629.54, 33.6413664, 72.99555, 0.9858724, 0.1113614, 0.05753786, 0.1111023
 125093276, 15.86, 5.86, 18.59, 629.53, 33.6413681, 72.9955509, 0.9772811, 0.1278364, 0.07228293, 0.1528224
 125194069, 18.14, 6.82, 24.8, 629.53, 33.6413694, 72.9955523, 0.9647514, 0.1410936, 0.09119357, 0.2025612
 125294029, 19.56, 7.66, 31.86, 629.53, 33.6413706, 72.9955537, 0.9486074, 0.1449227, 0.1098852, 0.2589723
 125393989, 19.63, 7.93, 39.49, 629.52, 33.6413714, 72.9955554, 0.9291767, 0.1370377, 0.1216424, 0.3210208
 125493949, 18.39, 7.39, 47.41, 629.52, 33.6413718, 72.9955571, 0.9061176, 0.1204637, 0.1223792, 0.386604
 125593909, 16.44, 6.21, 55.51, 629.52, 33.6413721, 72.9955591, 0.8781714, 0.1013518, 0.1139837, 0.4533768
 125693869, 14.88, 4.17, 63.61, 629.52, 33.6413721, 72.995561, 0.8445721, 0.09101114, 0.0989228, 0.5182946
 125793829, 14.84, 0.16, 71.31, 629.52, 33.6413717, 72.9955629, 0.8058039, 0.1041018, 0.07648998, 0.5779206
 125893789, 13.59, -3.86, 79, 629.52, 33.6413712, 72.9955648, 0.7632034, 0.1125499, 0.04939514, 0.6343604
 125993749, 11.27, -6.76, 86.86, 629.52, 33.6413705, 72.9955669, 0.7174066, 0.1116024, 0.0248198, 0.6872094
 126093709, 8.88, -8.51, 94.72, 629.52, 33.6413698, 72.9955691, 0.669214, 0.1067747, 0.006733032, 0.7353275
 126193669, 6.66, -9.56, 102.32, 629.52, 33.6413687, 72.9955712, 0.6200684, 0.1011685, -0.007079404, 0.7779653
 126293629, 4.55, -10.2, 109.51, 629.52, 33.6413676, 72.9955734, 0.5714163, 0.09543551, -0.0189145, 0.8148729
 126393589, 2.6, -10.54, 116.04, 629.52, 33.6413666, 72.9955758, 0.525426, 0.08996774, -0.02944087, 0.845557
 126493549, 0.88, -10.62, 121.62, 629.52, 33.6413652, 72.9955782, 0.4849549, 0.08462309, -0.03842828, 0.8695866
 126593509, -0.52, -10.55, 126.03, 629.52, 33.641364, 72.9955806, 0.4521345, 0.07991152, -0.04578657, 0.8871821
 126693469, -1.6, -10.41, 129.22, 629.52, 33.6413627, 72.9955832, 0.428076, 0.076018, -0.05152812, 0.8990645
 126793429, -2.37, -10.28, 131.2, 629.51, 33.6413613, 72.995586, 0.4130304, 0.07311026, -0.05585394, 0.906058
 126893389, -2.87, -10.25, 132.05, 629.51, 33.6413599, 72.9955887, 0.4066238, 0.07149568, -0.05911559, 0.9088734
 126993349, -3.12, -10.33, 131.88, 629.51, 33.6413584, 72.9955915, 0.4080853, 0.07111818, -0.06146449, 0.9080918
 127093309, -3.14, -10.5, 130.83, 629.51, 33.6413571, 72.9955945, 0.4163934, 0.07185606, -0.06292924, 0.9041533
 127193269, -2.96, -10.78, 129.03, 629.51, 33.6413556, 72.9955975, 0.4303715, 0.0736846, -0.06366619, 0.8973837
 127294062, -2.59, -11.11, 126.61, 629.51, 33.6413541, 72.9956006, 0.4489383, 0.07637986, -0.0635815, 0.8880191
 127394022, -2.05, -11.5, 123.75, 629.51, 33.6413526, 72.9956038, 0.4704763, 0.07998623, -0.06295083, 0.8765224
 127493982, -1.36, -11.92, 120.6, 629.51, 33.6413511, 72.9956071, 0.4938059, 0.08436909, -0.0617309, 0.8632652
 127593942, -0.55, -12.31, 117.31, 629.51, 33.6413496, 72.9956105, 0.5176051, 0.08908476, -0.05990464, 0.8488582
 127693902, 0.31, -12.66, 114.08, 629.51, 33.641348, 72.9956139, 0.5404144, 0.09403451, -0.05766349, 0.8341372
 127793862, 1.21, -12.97, 111.14, 629.51, 33.6413463, 72.9956175, 0.560718, 0.09913916, -0.05521782, 0.8201938
 127893822, 2.07, -13.23, 108.68, 629.51, 33.6413448, 72.995621, 0.5772381, 0.104132, -0.05254627, 0.8082027
 127993782, 2.86, -13.46, 106.87, 629.52, 33.6413431, 72.9956248, 0.5890525, 0.1089204, -0.04983286, 0.7991685
 128093742, 3.55, -13.66, 105.8, 629.52, 33.6413414, 72.9956286, 0.5956474, 0.1134222, -0.04712277, 0.7938004
 128193702, 4.12, -13.88, 105.5, 629.52, 33.6413396, 72.9956325, 0.5969344, 0.1178069, -0.04470293, 0.7923335
 128293662, 4.58, -14.15, 105.96, 629.52, 33.6413377, 72.9956365, 0.5930819, 0.1221502, -0.04243592, 0.7946902
 128393622, 4.91, -14.47, 107.1, 629.52, 33.6413359, 72.9956406, 0.5844439, 0.1265338, -0.04056221, 0.8004807
 128493582, 5.14, -14.86, 108.86, 629.52, 33.6413339, 72.9956447, 0.5714477, 0.1310017, -0.0389826, 0.8091764
 128593542, 5.26, -15.28, 111.15, 629.52, 33.6413317, 72.9956488, 0.5546309, 0.1353163, -0.03754998, 0.820161
 128693502, 5.31, -15.75, 113.86, 629.53, 33.6413296, 72.9956531, 0.5345634, 0.1397748, -0.03624235, 0.8327013
 128793462, 5.31, -16.27, 116.88, 629.53, 33.6413274, 72.9956574, 0.5119209, 0.144504, -0.03488388, 0.8460726
 128893422, 5.3, -16.8, 120.09, 629.53, 33.641325, 72.9956619, 0.4875507, 0.149281, -0.03322904, 0.859596
 128993382, 5.24, -16.23, 123.45, 629.53, 33.6413225, 72.9956663, 0.4627775, 0.1456877, -0.02696973, 0.874005
 129093342, 5.24, -13.98, 126.83, 629.53, 33.6413199, 72.9956708, 0.4386754, 0.1290881, -0.0138229, 0.8892182
 129193302, 5.41, -12.26, 129.93, 629.54, 33.6413171, 72.9956753, 0.4156688, 0.1165394, -0.002552764, 0.9020152
 129293262, 5.69, -11.29, 132.64, 629.54, 33.6413145, 72.9956796, 0.3946603, 0.1098273, 0.005798484, 0.9122213
